{
  "version": 1,
  "generated_at": "2026-03-30T03:59:35+00:00",
  "source_file": "docs/data/1-03.json",
  "entries": {
    "岩手県岩手県一関市中里字南白幡１４７": {
      "normalized_address": "岩手県岩手県一関市中里字南白幡１４７",
      "raw_prefecture": "岩手県",
      "raw_address": "岩手県一関市中里字南白幡１４７",
      "status": "ok",
      "updated_at": "2026-03-30T03:59:05+00:00",
      "lat": 38.9408735,
      "lng": 141.1407821,
      "formatted_address": "Minamishirahata-147 Nakasato, Ichinoseki, Iwate 021-0002, Japan",
      "place_id": "ChIJg9NPiAvQiF8RA_dYP8Jv2Ik"
    },
    "岩手県岩手県一関市中里字荒谷５０": {
      "normalized_address": "岩手県岩手県一関市中里字荒谷５０",
      "raw_prefecture": "岩手県",
      "raw_address": "岩手県一関市中里字荒谷５０",
      "status": "ok",
      "updated_at": "2026-03-30T03:59:05+00:00",
      "lat": 38.9384616,
      "lng": 141.1529018,
      "formatted_address": "Araya-50 Nakasato, Ichinoseki, Iwate 021-0002, Japan",
      "place_id": "ChIJncz8U6baiF8RdkwrP8FEXis"
    },
    "岩手県岩手県一関市千厩町千厩字東小田６２": {
      "normalized_address": "岩手県岩手県一関市千厩町千厩字東小田６２",
      "raw_prefecture": "岩手県",
      "raw_address": "岩手県一関市千厩町千厩字東小田６２",
      "status": "ok",
      "updated_at": "2026-03-30T03:59:05+00:00",
      "lat": 38.9076032,
      "lng": 141.3269689,
      "formatted_address": "Higashikoda-62 Senmayachō Senmaya, Ichinoseki, Iwate 029-0803, Japan",
      "place_id": "ChIJx3y2NrjDiF8RBChyjY2TNb4"
    },
    "岩手県岩手県一関市千厩町千厩字東小田９０": {
      "normalized_address": "岩手県岩手県一関市千厩町千厩字東小田９０",
      "raw_prefecture": "岩手県",
      "raw_address": "岩手県一関市千厩町千厩字東小田９０",
      "status": "ok",
      "updated_at": "2026-03-30T03:59:06+00:00",
      "lat": 38.9068293,
      "lng": 141.3264596,
      "formatted_address": "Higashikoda-90 Senmayachō Senmaya, Ichinoseki, Iwate 029-0803, Japan",
      "place_id": "ChIJFcyBZrfDiF8RRWZuzZxmW_Y"
    },
    "岩手県岩手県一関市大東町大原字稗ノ沢１９": {
      "normalized_address": "岩手県岩手県一関市大東町大原字稗ノ沢１９",
      "raw_prefecture": "岩手県",
      "raw_address": "岩手県一関市大東町大原字稗ノ沢１９",
      "status": "ok",
      "updated_at": "2026-03-30T03:59:06+00:00",
      "lat": 39.012239,
      "lng": 141.3901293,
      "formatted_address": "Hienosawa-19 Daitōchō Ōhara, Ichinoseki, Iwate 029-0711, Japan",
      "place_id": "ChIJM72b8ki4iF8ReZmHptgeyHE"
    },
    "岩手県岩手県一関市大東町摺沢字但馬崎１２－３４": {
      "normalized_address": "岩手県岩手県一関市大東町摺沢字但馬崎１２－３４",
      "raw_prefecture": "岩手県",
      "raw_address": "岩手県一関市大東町摺沢字但馬崎１２－３４",
      "status": "ok",
      "updated_at": "2026-03-30T03:59:06+00:00",
      "lat": 38.9944583,
      "lng": 141.3283061,
      "formatted_address": "Tajimazaki-12-34 Daitōchō Surisawa, Ichinoseki, Iwate 029-0523, Japan",
      "place_id": "ChIJA2yf3MHHiF8RNz1Weya4Zfg"
    },
    "岩手県岩手県一関市山目字大槻９７": {
      "normalized_address": "岩手県岩手県一関市山目字大槻９７",
      "raw_prefecture": "岩手県",
      "raw_address": "岩手県一関市山目字大槻９７",
      "status": "ok",
      "updated_at": "2026-03-30T03:59:07+00:00",
      "lat": 38.9357033,
      "lng": 141.1197764,
      "formatted_address": "Ōtsuki-97 Yamanome, Ichinoseki, Iwate 021-0063, Japan",
      "place_id": "ChIJw9WGEXvQiF8RViSkBDGOtkY"
    },
    "岩手県岩手県一関市山目泥田８９－１": {
      "normalized_address": "岩手県岩手県一関市山目泥田８９－１",
      "raw_prefecture": "岩手県",
      "raw_address": "岩手県一関市山目泥田８９－１",
      "status": "ok",
      "updated_at": "2026-03-30T03:59:07+00:00",
      "lat": 38.9367966,
      "lng": 141.1128098,
      "formatted_address": "Dorota-89-1 Yamanome, Ichinoseki, Iwate 021-0055, Japan",
      "place_id": "ChIJrd7lCmPQiF8R2i7RJ0yjKFs"
    },
    "岩手県岩手県一関市狐禅寺字一ノ瀬１１－１": {
      "normalized_address": "岩手県岩手県一関市狐禅寺字一ノ瀬１１－１",
      "raw_prefecture": "岩手県",
      "raw_address": "岩手県一関市狐禅寺字一ノ瀬１１－１",
      "status": "ok",
      "updated_at": "2026-03-30T03:59:07+00:00",
      "lat": 38.9386183,
      "lng": 141.1689137,
      "formatted_address": "Kozenji, Ichinoseki, Iwate 029-0131, Japan",
      "place_id": "ChIJsfu1MjTFiF8Rh55gZePyiVw"
    },
    "岩手県岩手県一関市花泉町花泉字袋２８－９": {
      "normalized_address": "岩手県岩手県一関市花泉町花泉字袋２８－９",
      "raw_prefecture": "岩手県",
      "raw_address": "岩手県一関市花泉町花泉字袋２８－９",
      "status": "ok",
      "updated_at": "2026-03-30T03:59:07+00:00",
      "lat": 38.8334809,
      "lng": 141.1843528,
      "formatted_address": "Fukuro-28-9 Hanaizumichō Hanaizumi, Ichinoseki, Iwate 029-3101, Japan",
      "place_id": "ChIJhzrwCmXeiF8RX5z1C4MLkw0"
    },
    "岩手県岩手県一関市花泉町金沢字水門６０": {
      "normalized_address": "岩手県岩手県一関市花泉町金沢字水門６０",
      "raw_prefecture": "岩手県",
      "raw_address": "岩手県一関市花泉町金沢字水門６０",
      "status": "ok",
      "updated_at": "2026-03-30T03:59:08+00:00",
      "lat": 38.843805,
      "lng": 141.1791326,
      "formatted_address": "Mizumon-60 Hanaizumichō Kazawa, Ichinoseki, Iwate 029-3102, Japan",
      "place_id": "ChIJS-oGpYbeiF8R0e-jGAKv8Fw"
    },
    "岩手県岩手県上閉伊郡大槌町小鎚第２７地割３－４": {
      "normalized_address": "岩手県岩手県上閉伊郡大槌町小鎚第２７地割３－４",
      "raw_prefecture": "岩手県",
      "raw_address": "岩手県上閉伊郡大槌町小鎚第２７地割３－４",
      "status": "ok",
      "updated_at": "2026-03-30T03:59:08+00:00",
      "lat": 39.3550056,
      "lng": 141.8955285,
      "formatted_address": "Dai 27 Chiwari-3-4 Kozuchi, Otsuchi, Kamihei District, Iwate 028-1121, Japan",
      "place_id": "ChIJ49Lgls4Khl8RMaY2_xcxPyI"
    },
    "岩手県岩手県下閉伊郡山田町大沢第２地割４０－１": {
      "normalized_address": "岩手県岩手県下閉伊郡山田町大沢第２地割４０－１",
      "raw_prefecture": "岩手県",
      "raw_address": "岩手県下閉伊郡山田町大沢第２地割４０－１",
      "status": "ok",
      "updated_at": "2026-03-30T03:59:08+00:00",
      "lat": 39.481352,
      "lng": 141.9683129,
      "formatted_address": "Dai 2 Chiwari-40-1 Ōsawa, Yamada, Shimohei District, Iwate 028-1311, Japan",
      "place_id": "ChIJP7UmJfjZhV8R6FXAVyvPmfU"
    },
    "岩手県岩手県下閉伊郡山田町豊間根３－１７２－１": {
      "normalized_address": "岩手県岩手県下閉伊郡山田町豊間根３－１７２－１",
      "raw_prefecture": "岩手県",
      "raw_address": "岩手県下閉伊郡山田町豊間根３－１７２－１",
      "status": "ok",
      "updated_at": "2026-03-30T03:59:09+00:00",
      "lat": 39.5029872,
      "lng": 141.8976607,
      "formatted_address": "Toyomane, Yamada, Shimohei District, Iwate 028-1302, Japan",
      "place_id": "ChIJE6HatJDahV8RerjITWIgsOU"
    },
    "岩手県岩手県下閉伊郡山田町豊間根３－４３－６": {
      "normalized_address": "岩手県岩手県下閉伊郡山田町豊間根３－４３－６",
      "raw_prefecture": "岩手県",
      "raw_address": "岩手県下閉伊郡山田町豊間根３－４３－６",
      "status": "ok",
      "updated_at": "2026-03-30T03:59:09+00:00",
      "lat": 39.5029872,
      "lng": 141.8976607,
      "formatted_address": "Toyomane, Yamada, Shimohei District, Iwate 028-1302, Japan",
      "place_id": "ChIJE6HatJDahV8RerjITWIgsOU"
    },
    "岩手県岩手県下閉伊郡山田町長崎３－１－１２": {
      "normalized_address": "岩手県岩手県下閉伊郡山田町長崎３－１－１２",
      "raw_prefecture": "岩手県",
      "raw_address": "岩手県下閉伊郡山田町長崎３－１－１２",
      "status": "ok",
      "updated_at": "2026-03-30T03:59:09+00:00",
      "lat": 39.4644062,
      "lng": 141.9483822,
      "formatted_address": "3-chōme-1-12 Nagasaki, Yamada, Shimohei District, Iwate 028-1351, Japan",
      "place_id": "ChIJQ7VJk5zZhV8RbucTsx-riq0"
    },
    "岩手県岩手県久慈市川崎町９－２２": {
      "normalized_address": "岩手県岩手県久慈市川崎町９－２２",
      "raw_prefecture": "岩手県",
      "raw_address": "岩手県久慈市川崎町９－２２",
      "status": "ok",
      "updated_at": "2026-03-30T03:59:09+00:00",
      "lat": 40.1902261,
      "lng": 141.7721597,
      "formatted_address": "9-22 Kawasakichō, Kuji, Iwate 028-0051, Japan",
      "place_id": "ChIJyRRCVfSUhF8R-1poXfFYmRc"
    },
    "岩手県岩手県久慈市長内町第２９地割８－１": {
      "normalized_address": "岩手県岩手県久慈市長内町第２９地割８－１",
      "raw_prefecture": "岩手県",
      "raw_address": "岩手県久慈市長内町第２９地割８－１",
      "status": "ok",
      "updated_at": "2026-03-30T03:59:10+00:00",
      "lat": 40.1875576,
      "lng": 141.7840219,
      "formatted_address": "Dai 29 Chiwari-8-1 Osanaichō, Kuji, Iwate 028-0041, Japan",
      "place_id": "ChIJAeJFJ2KUhF8RCmoCcFTmNeY"
    },
    "岩手県岩手県久慈市長内町第３３地割１１－１": {
      "normalized_address": "岩手県岩手県久慈市長内町第３３地割１１－１",
      "raw_prefecture": "岩手県",
      "raw_address": "岩手県久慈市長内町第３３地割１１－１",
      "status": "ok",
      "updated_at": "2026-03-30T03:59:10+00:00",
      "lat": 40.191769,
      "lng": 141.7851918,
      "formatted_address": "Dai 33 Chiwari-11-1 Osanaichō, Kuji, Iwate 028-0041, Japan",
      "place_id": "ChIJA27sJmGUhF8RR83-5YR-VKM"
    },
    "岩手県岩手県久慈市長内町第３４地割６０": {
      "normalized_address": "岩手県岩手県久慈市長内町第３４地割６０",
      "raw_prefecture": "岩手県",
      "raw_address": "岩手県久慈市長内町第３４地割６０",
      "status": "ok",
      "updated_at": "2026-03-30T03:59:10+00:00",
      "lat": 40.1896866,
      "lng": 141.7877641,
      "formatted_address": "Dai 34 Chiwari Osanaicho, Kuji, Iwate 028-0041, Japan",
      "place_id": "ChIJOaVWrmaUhF8RwcUmeRrlrVI"
    },
    "岩手県岩手県九戸郡九戸村大字荒谷第１４地割３５－１": {
      "normalized_address": "岩手県岩手県九戸郡九戸村大字荒谷第１４地割３５－１",
      "raw_prefecture": "岩手県",
      "raw_address": "岩手県九戸郡九戸村大字荒谷第１４地割３５－１",
      "status": "ok",
      "updated_at": "2026-03-30T03:59:11+00:00",
      "lat": 40.1981212,
      "lng": 141.4260959,
      "formatted_address": "Dai 14 Chiwari-35-1 Araya, Kunohe, Kunohe District, Iwate 028-6501, Japan",
      "place_id": "ChIJ8y9e27rEhF8RLGrHgCz_gTM"
    },
    "岩手県岩手県九戸郡洋野町種市第２３地割字小橋９０－１": {
      "normalized_address": "岩手県岩手県九戸郡洋野町種市第２３地割字小橋９０－１",
      "raw_prefecture": "岩手県",
      "raw_address": "岩手県九戸郡洋野町種市第２３地割字小橋９０－１",
      "status": "ok",
      "updated_at": "2026-03-30T03:59:11+00:00",
      "lat": 40.4131067,
      "lng": 141.7151446,
      "formatted_address": "Dai 23 Chiwari Taneichi, Hirono, Kunohe District, Iwate 028-7914, Japan",
      "place_id": "ChIJI7Qo2QavhF8ReR9f8fX3MUo"
    },
    "岩手県岩手県二戸市上斗米字小平４６－１": {
      "normalized_address": "岩手県岩手県二戸市上斗米字小平４６－１",
      "raw_prefecture": "岩手県",
      "raw_address": "岩手県二戸市上斗米字小平４６－１",
      "status": "ok",
      "updated_at": "2026-03-30T03:59:11+00:00",
      "lat": 40.2766966,
      "lng": 141.218779,
      "formatted_address": "Kobira-46-1 Kamitomai, Ninohe, Iwate 028-6108, Japan",
      "place_id": "ChIJqYxeEDfShF8RvweGaxuDVkQ"
    },
    "岩手県岩手県二戸市堀野大谷地６１－１": {
      "normalized_address": "岩手県岩手県二戸市堀野大谷地６１－１",
      "raw_prefecture": "岩手県",
      "raw_address": "岩手県二戸市堀野大谷地６１－１",
      "status": "ok",
      "updated_at": "2026-03-30T03:59:11+00:00",
      "lat": 40.2945044,
      "lng": 141.3042351,
      "formatted_address": "Ōyachi-61-1 Horino, Ninohe, Iwate 028-6105, Japan",
      "place_id": "ChIJxQSS4NfNhF8RoPRTh6HHGy8"
    },
    "岩手県岩手県二戸市米沢荒谷２５二戸ショッピングセンター１Ｆ": {
      "normalized_address": "岩手県岩手県二戸市米沢荒谷２５二戸ショッピングセンター１Ｆ",
      "raw_prefecture": "岩手県",
      "raw_address": "岩手県二戸市米沢荒谷２５二戸ショッピングセンター１Ｆ",
      "status": "ok",
      "updated_at": "2026-03-30T03:59:12+00:00",
      "lat": 40.2831458,
      "lng": 141.2942029,
      "formatted_address": "Araya-25 Maisawa, Ninohe, Iwate 028-6104, Japan",
      "place_id": "ChIJN6ZtLQzOhF8RFaRifINnAYw"
    },
    "岩手県岩手県二戸市金田一字上田面３０２－１": {
      "normalized_address": "岩手県岩手県二戸市金田一字上田面３０２－１",
      "raw_prefecture": "岩手県",
      "raw_address": "岩手県二戸市金田一字上田面３０２－１",
      "status": "ok",
      "updated_at": "2026-03-30T03:59:12+00:00",
      "lat": 40.3054324,
      "lng": 141.3051287,
      "formatted_address": "Kamitaomote-302 Kintaichi, Ninohe, Iwate 028-5711, Japan",
      "place_id": "ChIJ1VMmoTLMhF8R4iRolPjZIRo"
    },
    "岩手県岩手県二戸郡一戸町高善寺字大川鉢２４－９": {
      "normalized_address": "岩手県岩手県二戸郡一戸町高善寺字大川鉢２４－９",
      "raw_prefecture": "岩手県",
      "raw_address": "岩手県二戸郡一戸町高善寺字大川鉢２４－９",
      "status": "ok",
      "updated_at": "2026-03-30T03:59:12+00:00",
      "lat": 40.2130213,
      "lng": 141.2954722,
      "formatted_address": "Ōkawabachi-24-9 Kōzenji, Ichinohe, Ninohe District, Iwate 028-5311, Japan",
      "place_id": "ChIJSY7tm3jahF8R4_0ojlgKB2E"
    },
    "岩手県岩手県北上市さくら通り５－２－１６": {
      "normalized_address": "岩手県岩手県北上市さくら通り５－２－１６",
      "raw_prefecture": "岩手県",
      "raw_address": "岩手県北上市さくら通り５－２－１６",
      "status": "ok",
      "updated_at": "2026-03-30T03:59:13+00:00",
      "lat": 39.3003445,
      "lng": 141.1079767,
      "formatted_address": "5-chōme-2-16 Sakuradōri, Kitakami, Iwate 024-0084, Japan",
      "place_id": "ChIJkzJJQ2BDj18RAl7XZzHoPZ0"
    },
    "岩手県岩手県北上市上江釣子７地割３０－１": {
      "normalized_address": "岩手県岩手県北上市上江釣子７地割３０－１",
      "raw_prefecture": "岩手県",
      "raw_address": "岩手県北上市上江釣子７地割３０－１",
      "status": "ok",
      "updated_at": "2026-03-30T03:59:13+00:00",
      "lat": 39.3022284,
      "lng": 141.0661565,
      "formatted_address": "7 Chiwari-30-1 Kamiezuriko, Kitakami, Iwate 024-0071, Japan",
      "place_id": "ChIJ0yQVt6FDj18RaWFHKwp_sRg"
    },
    "岩手県岩手県北上市北鬼柳１９－４２－４": {
      "normalized_address": "岩手県岩手県北上市北鬼柳１９－４２－４",
      "raw_prefecture": "岩手県",
      "raw_address": "岩手県北上市北鬼柳１９－４２－４",
      "status": "ok",
      "updated_at": "2026-03-30T03:59:13+00:00",
      "lat": 39.2937765,
      "lng": 141.0976085,
      "formatted_address": "Kitaoniyanagi, Kitakami, Iwate 024-0072, Japan",
      "place_id": "ChIJj2E7HX1Dj18RENdzXCm94U4"
    },
    "岩手県岩手県北上市北鬼柳１９－６８": {
      "normalized_address": "岩手県岩手県北上市北鬼柳１９－６８",
      "raw_prefecture": "岩手県",
      "raw_address": "岩手県北上市北鬼柳１９－６８",
      "status": "ok",
      "updated_at": "2026-03-30T03:59:14+00:00",
      "lat": 39.2937765,
      "lng": 141.0976085,
      "formatted_address": "Kitaoniyanagi, Kitakami, Iwate 024-0072, Japan",
      "place_id": "ChIJj2E7HX1Dj18RENdzXCm94U4"
    },
    "岩手県岩手県北上市北鬼柳３１地割７０番地": {
      "normalized_address": "岩手県岩手県北上市北鬼柳３１地割７０番地",
      "raw_prefecture": "岩手県",
      "raw_address": "岩手県北上市北鬼柳３１地割７０番地",
      "status": "ok",
      "updated_at": "2026-03-30T03:59:14+00:00",
      "lat": 39.2836909,
      "lng": 141.1048426,
      "formatted_address": "Japan, 〒024-0072 Iwate, Kitakami, Kitaoniyanagi, 31 Chiwari−７０ 70番地",
      "place_id": "ChIJp-yjjYlEj18RWatHx2noyt4"
    },
    "岩手県岩手県北上市藤沢２０地割３６－１": {
      "normalized_address": "岩手県岩手県北上市藤沢２０地割３６－１",
      "raw_prefecture": "岩手県",
      "raw_address": "岩手県北上市藤沢２０地割３６－１",
      "status": "ok",
      "updated_at": "2026-03-30T03:59:14+00:00",
      "lat": 39.3121,
      "lng": 141.1110457,
      "formatted_address": "20 Chiwari-36-1 Fujisawa, Kitakami, Iwate 024-0013, Japan",
      "place_id": "ChIJYX_4dk9Dj18R5qYDe1Y1DWc"
    },
    "岩手県岩手県北上市里分４地割６３": {
      "normalized_address": "岩手県岩手県北上市里分４地割６３",
      "raw_prefecture": "岩手県",
      "raw_address": "岩手県北上市里分４地割６３",
      "status": "ok",
      "updated_at": "2026-03-30T03:59:14+00:00",
      "lat": 39.2950173,
      "lng": 141.1360823,
      "formatted_address": "4 Chiwari Satobun, Kitakami, Iwate 024-0023, Japan",
      "place_id": "ChIJX0yhjblEj18Rb7bIS5YYMww"
    },
    "岩手県岩手県大船渡市大船渡町字野々田１５６－１９": {
      "normalized_address": "岩手県岩手県大船渡市大船渡町字野々田１５６－１９",
      "raw_prefecture": "岩手県",
      "raw_address": "岩手県大船渡市大船渡町字野々田１５６－１９",
      "status": "ok",
      "updated_at": "2026-03-30T03:59:15+00:00",
      "lat": 39.0585208,
      "lng": 141.7212176,
      "formatted_address": "Nonoda-156-19 Ofunatocho, Ofunato, Iwate 022-0002, Japan",
      "place_id": "ChIJ_Tbzpg2hiF8Rjl2HtYiG5D8"
    },
    "岩手県岩手県大船渡市猪川町字轆轤石（ロクロイシ）５２－１": {
      "normalized_address": "岩手県岩手県大船渡市猪川町字轆轤石（ロクロイシ）５２－１",
      "raw_prefecture": "岩手県",
      "raw_address": "岩手県大船渡市猪川町字轆轤石（ロクロイシ）５２－１",
      "status": "ok",
      "updated_at": "2026-03-30T03:59:15+00:00",
      "lat": 39.09282350000001,
      "lng": 141.7128547,
      "formatted_address": "Rokuroishi-52-1 Ikawachō, Ofunato, Iwate 022-0004, Japan",
      "place_id": "ChIJ-wey3S-niF8RA5eYD5AVZag"
    },
    "岩手県岩手県大船渡市立根町字堀之内１－５": {
      "normalized_address": "岩手県岩手県大船渡市立根町字堀之内１－５",
      "raw_prefecture": "岩手県",
      "raw_address": "岩手県大船渡市立根町字堀之内１－５",
      "status": "ok",
      "updated_at": "2026-03-30T03:59:15+00:00",
      "lat": 39.10241,
      "lng": 141.7104397,
      "formatted_address": "Horinouchi-1-5 Takkonchō, Ofunato, Iwate 022-0006, Japan",
      "place_id": "ChIJk3_9KD6niF8RCYkP4Fi3Uv4"
    },
    "岩手県岩手県大船渡市赤崎町字諏訪前３８－７": {
      "normalized_address": "岩手県岩手県大船渡市赤崎町字諏訪前３８－７",
      "raw_prefecture": "岩手県",
      "raw_address": "岩手県大船渡市赤崎町字諏訪前３８－７",
      "status": "ok",
      "updated_at": "2026-03-30T03:59:16+00:00",
      "lat": 39.0860284,
      "lng": 141.7184004,
      "formatted_address": "Suwamae-38-7 Akasakichō, Ofunato, Iwate 022-0007, Japan",
      "place_id": "ChIJu79lOdOgiF8RNDc9we-04UM"
    },
    "岩手県岩手県奥州市前沢向田２－７４": {
      "normalized_address": "岩手県岩手県奥州市前沢向田２－７４",
      "raw_prefecture": "岩手県",
      "raw_address": "岩手県奥州市前沢向田２－７４",
      "status": "ok",
      "updated_at": "2026-03-30T03:59:16+00:00",
      "lat": 39.051494,
      "lng": 141.1292662,
      "formatted_address": "2-chōme-74 Maesawaku Mukaida, Oshu, Iwate 029-4204, Japan",
      "place_id": "ChIJI4HSnILMiF8RJ53aA6kt5s0"
    },
    "岩手県岩手県奥州市水沢佐倉河字五反町２８－１": {
      "normalized_address": "岩手県岩手県奥州市水沢佐倉河字五反町２８－１",
      "raw_prefecture": "岩手県",
      "raw_address": "岩手県奥州市水沢佐倉河字五反町２８－１",
      "status": "ok",
      "updated_at": "2026-03-30T03:59:16+00:00",
      "lat": 39.1535508,
      "lng": 141.1468591,
      "formatted_address": "Gotanmachi-28-1 Mizusawaku Sakurakawa, Oshu, Iwate 023-0003, Japan",
      "place_id": "ChIJvRl1qzxKj18RAA5VOoEgdJ4"
    },
    "岩手県岩手県奥州市水沢佐倉河字多聞坊３２": {
      "normalized_address": "岩手県岩手県奥州市水沢佐倉河字多聞坊３２",
      "raw_prefecture": "岩手県",
      "raw_address": "岩手県奥州市水沢佐倉河字多聞坊３２",
      "status": "ok",
      "updated_at": "2026-03-30T03:59:16+00:00",
      "lat": 39.1805558,
      "lng": 141.1283405,
      "formatted_address": "Tamonbō-32 Mizusawaku Sakurakawa, Oshu, Iwate 023-0003, Japan",
      "place_id": "ChIJVcG-Q6dJj18RuoOEd0sZrJ4"
    },
    "岩手県岩手県奥州市水沢字桜屋敷西２８番地１０": {
      "normalized_address": "岩手県岩手県奥州市水沢字桜屋敷西２８番地１０",
      "raw_prefecture": "岩手県",
      "raw_address": "岩手県奥州市水沢字桜屋敷西２８番地１０",
      "status": "ok",
      "updated_at": "2026-03-30T03:59:17+00:00",
      "lat": 39.1246516,
      "lng": 141.1235474,
      "formatted_address": "Sakurayashikinishi-28-10 Mizusawaku, Oshu, Iwate 023-0872, Japan",
      "place_id": "ChIJ_aYzjpk1j18RlaZ3ULp1DpY"
    },
    "岩手県岩手県奥州市水沢字田小路８０": {
      "normalized_address": "岩手県岩手県奥州市水沢字田小路８０",
      "raw_prefecture": "岩手県",
      "raw_address": "岩手県奥州市水沢字田小路８０",
      "status": "ok",
      "updated_at": "2026-03-30T03:59:17+00:00",
      "lat": 39.1398332,
      "lng": 141.1355586,
      "formatted_address": "Japan, 〒023-0803 Iwate, Oshu, Mizusawaku, Takōji−８０ 80番地",
      "place_id": "ChIJh1N5UXNKj18RKtGDwofFylY"
    },
    "岩手県岩手県奥州市江刺八日町１－９－４５－１": {
      "normalized_address": "岩手県岩手県奥州市江刺八日町１－９－４５－１",
      "raw_prefecture": "岩手県",
      "raw_address": "岩手県奥州市江刺八日町１－９－４５－１",
      "status": "ok",
      "updated_at": "2026-03-30T03:59:17+00:00",
      "lat": 39.185767,
      "lng": 141.1736397,
      "formatted_address": "1-chōme-9-45 Esashiku Yōkamachi, Oshu, Iwate 023-1102, Japan",
      "place_id": "ChIJYeWEn0VJj18RHy2-yvUIPfY"
    },
    "岩手県岩手県奥州市前沢区向田２－８５": {
      "normalized_address": "岩手県岩手県奥州市前沢区向田２－８５",
      "raw_prefecture": "岩手県",
      "raw_address": "岩手県奥州市前沢区向田２－８５",
      "status": "ok",
      "updated_at": "2026-03-30T03:59:18+00:00",
      "lat": 39.0427729,
      "lng": 141.1204177,
      "formatted_address": "Maesawaku, Oshu, Iwate, Japan",
      "place_id": "ChIJPdxeg-3MiF8R8XnHbPVkdMQ"
    },
    "岩手県岩手県奥州市水沢区佐倉河字元宿２－２": {
      "normalized_address": "岩手県岩手県奥州市水沢区佐倉河字元宿２－２",
      "raw_prefecture": "岩手県",
      "raw_address": "岩手県奥州市水沢区佐倉河字元宿２－２",
      "status": "ok",
      "updated_at": "2026-03-30T03:59:18+00:00",
      "lat": 39.1579388,
      "lng": 141.1446544,
      "formatted_address": "Motojuku-2-2 Mizusawaku Sakurakawa, Oshu, Iwate 023-0003, Japan",
      "place_id": "ChIJX6CrgSZKj18Rc5G9GAoKlAU"
    },
    "岩手県岩手県奥州市水沢区佐倉河字川原田６５": {
      "normalized_address": "岩手県岩手県奥州市水沢区佐倉河字川原田６５",
      "raw_prefecture": "岩手県",
      "raw_address": "岩手県奥州市水沢区佐倉河字川原田６５",
      "status": "ok",
      "updated_at": "2026-03-30T03:59:18+00:00",
      "lat": 39.1441813,
      "lng": 141.149441,
      "formatted_address": "Kawaharada-140-1 Mizusawaku Sakurakawa, Oshu, Iwate 023-0003, Japan",
      "place_id": "ChIJNf_8HmtKj18R0mjSmFUis7Q"
    },
    "岩手県岩手県奥州市水沢区佐倉河字矢中３５－１": {
      "normalized_address": "岩手県岩手県奥州市水沢区佐倉河字矢中３５－１",
      "raw_prefecture": "岩手県",
      "raw_address": "岩手県奥州市水沢区佐倉河字矢中３５－１",
      "status": "ok",
      "updated_at": "2026-03-30T03:59:18+00:00",
      "lat": 39.1571146,
      "lng": 141.1594313,
      "formatted_address": "Yanaka-35-1 Mizusawaku Sakurakawa, Oshu, Iwate 023-0003, Japan",
      "place_id": "ChIJi6dwiDFKj18R6HIQzlzXZIk"
    },
    "岩手県岩手県奥州市水沢区佐倉河字羽黒田１０": {
      "normalized_address": "岩手県岩手県奥州市水沢区佐倉河字羽黒田１０",
      "raw_prefecture": "岩手県",
      "raw_address": "岩手県奥州市水沢区佐倉河字羽黒田１０",
      "status": "ok",
      "updated_at": "2026-03-30T03:59:19+00:00",
      "lat": 39.1471254,
      "lng": 141.1568461,
      "formatted_address": "Japan, 〒023-0003 Iwate, Oshu, Mizusawaku Sakurakawa, Haguroda−１０ 10番地",
      "place_id": "ChIJqz_1xkBKj18RNcNaROW6XSA"
    },
    "岩手県岩手県奥州市江刺区西大通り３－１６": {
      "normalized_address": "岩手県岩手県奥州市江刺区西大通り３－１６",
      "raw_prefecture": "岩手県",
      "raw_address": "岩手県奥州市江刺区西大通り３－１６",
      "status": "ok",
      "updated_at": "2026-03-30T03:59:19+00:00",
      "lat": 39.1554987,
      "lng": 141.1350582,
      "formatted_address": "Nakashiro-1-3 Mizusawaku, Oshu, Iwate 023-0022, Japan",
      "place_id": "ChIJp5KBONtLj18Rt0UPk_LL4jU"
    },
    "岩手県岩手県奥州市胆沢区若柳字下松原９７－１": {
      "normalized_address": "岩手県岩手県奥州市胆沢区若柳字下松原９７－１",
      "raw_prefecture": "岩手県",
      "raw_address": "岩手県奥州市胆沢区若柳字下松原９７－１",
      "status": "ok",
      "updated_at": "2026-03-30T03:59:19+00:00",
      "lat": 39.1316494,
      "lng": 141.0646672,
      "formatted_address": "Shimomatsubara-97-1 Isawaku Wakayanagi, Oshu, Iwate 023-0403, Japan",
      "place_id": "ChIJC7SgMYA2j18RpR9yFkJ3I3E"
    },
    "岩手県岩手県宮古市宮町４－２－２７": {
      "normalized_address": "岩手県岩手県宮古市宮町４－２－２７",
      "raw_prefecture": "岩手県",
      "raw_address": "岩手県宮古市宮町４－２－２７",
      "status": "ok",
      "updated_at": "2026-03-30T03:59:20+00:00",
      "lat": 39.6392378,
      "lng": 141.9356035,
      "formatted_address": "4-chōme-2-27 Miyachō, Miyako, Iwate 027-0052, Japan",
      "place_id": "ChIJy9XYtJjLhV8RwLRpvuIgmNs"
    },
    "岩手県岩手県宮古市田の神２－３－２": {
      "normalized_address": "岩手県岩手県宮古市田の神２－３－２",
      "raw_prefecture": "岩手県",
      "raw_address": "岩手県宮古市田の神２－３－２",
      "status": "ok",
      "updated_at": "2026-03-30T03:59:20+00:00",
      "lat": 39.6472672,
      "lng": 141.9385306,
      "formatted_address": "2-chōme-3-2 Tanokami, Miyako, Iwate 027-0066, Japan",
      "place_id": "ChIJs5ZqQAnLhV8RTJJUPwbrxn8"
    },
    "岩手県岩手県宮古市磯鶏１－２－２５": {
      "normalized_address": "岩手県岩手県宮古市磯鶏１－２－２５",
      "raw_prefecture": "岩手県",
      "raw_address": "岩手県宮古市磯鶏１－２－２５",
      "status": "ok",
      "updated_at": "2026-03-30T03:59:20+00:00",
      "lat": 39.6259963,
      "lng": 141.9630386,
      "formatted_address": "1-chōme-2-25 Sokei, Miyako, Iwate 027-0024, Japan",
      "place_id": "ChIJiSbTwX3MhV8RlUPKdCzlPo8"
    },
    "岩手県岩手県宮古市磯鶏３－３－２２": {
      "normalized_address": "岩手県岩手県宮古市磯鶏３－３－２２",
      "raw_prefecture": "岩手県",
      "raw_address": "岩手県宮古市磯鶏３－３－２２",
      "status": "ok",
      "updated_at": "2026-03-30T03:59:21+00:00",
      "lat": 39.6194407,
      "lng": 141.9613506,
      "formatted_address": "3-chōme-3-22 Sokei, Miyako, Iwate 027-0024, Japan",
      "place_id": "ChIJIUFOp2XMhV8RI4yyVYvPg0A"
    },
    "岩手県岩手県宮古市長町２－４－１": {
      "normalized_address": "岩手県岩手県宮古市長町２－４－１",
      "raw_prefecture": "岩手県",
      "raw_address": "岩手県宮古市長町２－４－１",
      "status": "ok",
      "updated_at": "2026-03-30T03:59:21+00:00",
      "lat": 39.63302789999999,
      "lng": 141.921253,
      "formatted_address": "2-chōme-4-1 Nagamachi, Miyako, Iwate 027-0053, Japan",
      "place_id": "ChIJfY3GIpXLhV8R9Jt7oNgEJsU"
    },
    "岩手県岩手県岩手郡岩手町大字五日市１１－１３４－７": {
      "normalized_address": "岩手県岩手県岩手郡岩手町大字五日市１１－１３４－７",
      "raw_prefecture": "岩手県",
      "raw_address": "岩手県岩手郡岩手町大字五日市１１－１３４－７",
      "status": "ok",
      "updated_at": "2026-03-30T03:59:21+00:00",
      "lat": 40.0315119,
      "lng": 141.2138151,
      "formatted_address": "Itsukaichi, Iwate, Iwate District, Iwate 028-4307, Japan",
      "place_id": "ChIJr0-C-IoYhV8RESZ9FGll2VU"
    },
    "岩手県岩手県岩手郡岩手町大字沼宮内第７地割５３－１": {
      "normalized_address": "岩手県岩手県岩手郡岩手町大字沼宮内第７地割５３－１",
      "raw_prefecture": "岩手県",
      "raw_address": "岩手県岩手郡岩手町大字沼宮内第７地割５３－１",
      "status": "ok",
      "updated_at": "2026-03-30T03:59:21+00:00",
      "lat": 39.9709169,
      "lng": 141.2212765,
      "formatted_address": "Dai 7 Chiwari-53-1 Numakunai, Iwate, Iwate District, Iwate 028-4301, Japan",
      "place_id": "ChIJxVUX8ukZhV8RwNeqFtXHeSE"
    },
    "岩手県岩手県岩手郡葛巻町葛巻第１６地割１－１": {
      "normalized_address": "岩手県岩手県岩手郡葛巻町葛巻第１６地割１－１",
      "raw_prefecture": "岩手県",
      "raw_address": "岩手県岩手郡葛巻町葛巻第１６地割１－１",
      "status": "ok",
      "updated_at": "2026-03-30T03:59:22+00:00",
      "lat": 40.0399607,
      "lng": 141.4375953,
      "formatted_address": "Dai 16 Chiwari-1-1 Kuzumaki, Iwate District, Iwate 028-5402, Japan",
      "place_id": "ChIJO3d75IDhhF8RU8aVh15fNQc"
    },
    "岩手県岩手県滝沢市巣子１１５２－２": {
      "normalized_address": "岩手県岩手県滝沢市巣子１１５２－２",
      "raw_prefecture": "岩手県",
      "raw_address": "岩手県滝沢市巣子１１５２－２",
      "status": "ok",
      "updated_at": "2026-03-30T03:59:22+00:00",
      "lat": 39.7749739,
      "lng": 141.1288474,
      "formatted_address": "1152-2 Sugo, Takizawa, Iwate 020-0611, Japan",
      "place_id": "ChIJ0yDSe5FzhV8RBUcsUlOmfKw"
    },
    "岩手県岩手県滝沢市牧野林２８６－１６": {
      "normalized_address": "岩手県岩手県滝沢市牧野林２８６－１６",
      "raw_prefecture": "岩手県",
      "raw_address": "岩手県滝沢市牧野林２８６－１６",
      "status": "ok",
      "updated_at": "2026-03-30T03:59:22+00:00",
      "lat": 39.7476919,
      "lng": 141.108559,
      "formatted_address": "286-16 Makinobayashi, Takizawa, Iwate 020-0632, Japan",
      "place_id": "ChIJyXjfzLF2hV8RBtaEZWEbUb8"
    },
    "岩手県岩手県盛岡市みたけ２－９－８０": {
      "normalized_address": "岩手県岩手県盛岡市みたけ２－９－８０",
      "raw_prefecture": "岩手県",
      "raw_address": "岩手県盛岡市みたけ２－９－８０",
      "status": "ok",
      "updated_at": "2026-03-30T03:59:23+00:00",
      "lat": 39.7430384,
      "lng": 141.1262909,
      "formatted_address": "2-chōme-9-80 Mitake, Morioka, Iwate 020-0122, Japan",
      "place_id": "ChIJqYM2AqJ2hV8RY8F2h3GrmJ0"
    },
    "岩手県岩手県盛岡市三本柳五地割５８": {
      "normalized_address": "岩手県岩手県盛岡市三本柳五地割５８",
      "raw_prefecture": "岩手県",
      "raw_address": "岩手県盛岡市三本柳五地割５８",
      "status": "ok",
      "updated_at": "2026-03-30T03:59:23+00:00",
      "lat": 39.66035249999999,
      "lng": 141.162744,
      "formatted_address": "5 Chiwari-58 Sanbonyanagi, Morioka, Iwate 020-0831, Japan",
      "place_id": "ChIJRzAf3N-chV8RO65FhUbF7Co"
    },
    "岩手県岩手県盛岡市三本柳１０－２０－５": {
      "normalized_address": "岩手県岩手県盛岡市三本柳１０－２０－５",
      "raw_prefecture": "岩手県",
      "raw_address": "岩手県盛岡市三本柳１０－２０－５",
      "status": "ok",
      "updated_at": "2026-03-30T03:59:23+00:00",
      "lat": 39.6509455,
      "lng": 141.1616146,
      "formatted_address": "Japan, 〒020-0831 Iwate, Morioka, Sanbonyanagi, 10 Chiwari−10 セジュールササ",
      "place_id": "ChIJseEdW8WchV8RDQvxDB8BUWA"
    },
    "岩手県岩手県盛岡市上堂３－５－３５": {
      "normalized_address": "岩手県岩手県盛岡市上堂３－５－３５",
      "raw_prefecture": "岩手県",
      "raw_address": "岩手県盛岡市上堂３－５－３５",
      "status": "ok",
      "updated_at": "2026-03-30T03:59:24+00:00",
      "lat": 39.726613,
      "lng": 141.1246702,
      "formatted_address": "3-chōme-5-35 Kamidō, Morioka, Iwate 020-0125, Japan",
      "place_id": "ChIJneHSvvR2hV8RDR1pAgogun4"
    },
    "岩手県岩手県盛岡市下太田沢田６８－４０": {
      "normalized_address": "岩手県岩手県盛岡市下太田沢田６８－４０",
      "raw_prefecture": "岩手県",
      "raw_address": "岩手県盛岡市下太田沢田６８－４０",
      "status": "ok",
      "updated_at": "2026-03-30T03:59:24+00:00",
      "lat": 39.6968032,
      "lng": 141.1107222,
      "formatted_address": "Sawada Shimoota, Morioka, Iwate 020-0051, Japan",
      "place_id": "ChIJee1tQsd3hV8Rxjj_iXa6dwc"
    },
    "岩手県岩手県盛岡市中屋敷町９－２５": {
      "normalized_address": "岩手県岩手県盛岡市中屋敷町９－２５",
      "raw_prefecture": "岩手県",
      "raw_address": "岩手県盛岡市中屋敷町９－２５",
      "status": "ok",
      "updated_at": "2026-03-30T03:59:24+00:00",
      "lat": 39.7082874,
      "lng": 141.1183788,
      "formatted_address": "9-25 Nakayashikichō, Morioka, Iwate 020-0141, Japan",
      "place_id": "ChIJOWAqILN3hV8Rn-tcl7uCncg"
    },
    "岩手県岩手県盛岡市仙北３－２３－１７": {
      "normalized_address": "岩手県岩手県盛岡市仙北３－２３－１７",
      "raw_prefecture": "岩手県",
      "raw_address": "岩手県盛岡市仙北３－２３－１７",
      "status": "ok",
      "updated_at": "2026-03-30T03:59:24+00:00",
      "lat": 39.67869659999999,
      "lng": 141.1548492,
      "formatted_address": "3-chōme-23-17 Senboku, Morioka, Iwate 020-0861, Japan",
      "place_id": "ChIJUe2n3XKdhV8R3UzBQjb7rvE"
    },
    "岩手県岩手県盛岡市前潟３－２－１": {
      "normalized_address": "岩手県岩手県盛岡市前潟３－２－１",
      "raw_prefecture": "岩手県",
      "raw_address": "岩手県盛岡市前潟３－２－１",
      "status": "ok",
      "updated_at": "2026-03-30T03:59:25+00:00",
      "lat": 39.71108280000001,
      "lng": 141.1033014,
      "formatted_address": "3-chōme-2-1 Maegata, Morioka, Iwate 020-0148, Japan",
      "place_id": "ChIJ6ZSeGal3hV8RbaxvjB6t41k"
    },
    "岩手県岩手県盛岡市前潟３－２－４５": {
      "normalized_address": "岩手県岩手県盛岡市前潟３－２－４５",
      "raw_prefecture": "岩手県",
      "raw_address": "岩手県盛岡市前潟３－２－４５",
      "status": "ok",
      "updated_at": "2026-03-30T03:59:25+00:00",
      "lat": 39.7122959,
      "lng": 141.1017413,
      "formatted_address": "3-chōme-2-45 Maegata, Morioka, Iwate 020-0148, Japan",
      "place_id": "ChIJE_GEual3hV8Rhx9GAgOvQjg"
    },
    "岩手県岩手県盛岡市前潟４－７－１": {
      "normalized_address": "岩手県岩手県盛岡市前潟４－７－１",
      "raw_prefecture": "岩手県",
      "raw_address": "岩手県盛岡市前潟４－７－１",
      "status": "ok",
      "updated_at": "2026-03-30T03:59:25+00:00",
      "lat": 39.7117228,
      "lng": 141.0986514,
      "formatted_address": "4-chōme-7-1 Maegata, Morioka, Iwate 020-0148, Japan",
      "place_id": "ChIJ6_thE6h3hV8R8KdUXOnMCDo"
    },
    "岩手県岩手県盛岡市北飯岡１－１－１": {
      "normalized_address": "岩手県岩手県盛岡市北飯岡１－１－１",
      "raw_prefecture": "岩手県",
      "raw_address": "岩手県盛岡市北飯岡１－１－１",
      "status": "ok",
      "updated_at": "2026-03-30T03:59:26+00:00",
      "lat": 39.6791011,
      "lng": 141.1344911,
      "formatted_address": "1-chōme-1-1 Kitaiioka, Morioka, Iwate 020-0857, Japan",
      "place_id": "ChIJ2ZYo4GedhV8RjYMIyWxZ5d0"
    },
    "岩手県岩手県盛岡市向中野７－１６－７７": {
      "normalized_address": "岩手県岩手県盛岡市向中野７－１６－７７",
      "raw_prefecture": "岩手県",
      "raw_address": "岩手県盛岡市向中野７－１６－７７",
      "status": "ok",
      "updated_at": "2026-03-30T03:59:26+00:00",
      "lat": 39.6748843,
      "lng": 141.1365017,
      "formatted_address": "Japan, 〒020-0851 Iwate, Morioka, Mukainakano, 7-chōme−16−７７ DCM盛南店",
      "place_id": "ChIJr5hgiUGdhV8RAb0fDIktDmM"
    },
    "岩手県岩手県盛岡市天神町１３－２９": {
      "normalized_address": "岩手県岩手県盛岡市天神町１３－２９",
      "raw_prefecture": "岩手県",
      "raw_address": "岩手県盛岡市天神町１３－２９",
      "status": "ok",
      "updated_at": "2026-03-30T03:59:26+00:00",
      "lat": 39.7040758,
      "lng": 141.1675266,
      "formatted_address": "Japan, 〒020-0881 Iwate, Morioka, Tenjinchō, 13−２９ トークス",
      "place_id": "ChIJka-CAB92hV8RvbTrY9xpo_s"
    },
    "岩手県岩手県盛岡市月が丘１－２６－４５": {
      "normalized_address": "岩手県岩手県盛岡市月が丘１－２６－４５",
      "raw_prefecture": "岩手県",
      "raw_address": "岩手県盛岡市月が丘１－２６－４５",
      "status": "ok",
      "updated_at": "2026-03-30T03:59:26+00:00",
      "lat": 39.7326325,
      "lng": 141.1126542,
      "formatted_address": "1-chōme-26-45 Tsukigaoka, Morioka, Iwate 020-0121, Japan",
      "place_id": "ChIJFQJ-fut2hV8RWyeNLjhvoxM"
    },
    "岩手県岩手県盛岡市月が丘３－４０－３２": {
      "normalized_address": "岩手県岩手県盛岡市月が丘３－４０－３２",
      "raw_prefecture": "岩手県",
      "raw_address": "岩手県盛岡市月が丘３－４０－３２",
      "status": "ok",
      "updated_at": "2026-03-30T03:59:27+00:00",
      "lat": 39.7399045,
      "lng": 141.1079748,
      "formatted_address": "Japan, 〒020-0121 Iwate, Morioka, Tsukigaoka, 3-chōme−40−３２ なんぶ",
      "place_id": "ChIJZaaKMb92hV8RiqX9JX1LROQ"
    },
    "岩手県岩手県紫波郡矢巾町大字南矢幅７－３８５－３": {
      "normalized_address": "岩手県岩手県紫波郡矢巾町大字南矢幅７－３８５－３",
      "raw_prefecture": "岩手県",
      "raw_address": "岩手県紫波郡矢巾町大字南矢幅７－３８５－３",
      "status": "ok",
      "updated_at": "2026-03-30T03:59:27+00:00",
      "lat": 39.6090657,
      "lng": 141.1441265,
      "formatted_address": "Minamiyahaba, Yahaba, Shiwa District, Iwate 028-3615, Japan",
      "place_id": "ChIJwzpdv4eEhV8RJiLdrmg1E8w"
    },
    "岩手県岩手県紫波郡矢巾町大字又兵エ新田第５地割３００": {
      "normalized_address": "岩手県岩手県紫波郡矢巾町大字又兵エ新田第５地割３００",
      "raw_prefecture": "岩手県",
      "raw_address": "岩手県紫波郡矢巾町大字又兵エ新田第５地割３００",
      "status": "ok",
      "updated_at": "2026-03-30T03:59:27+00:00",
      "lat": 39.6130515,
      "lng": 141.1443459,
      "formatted_address": "Dai 5 Chiwari-300 Matabee Shinden, Yahaba, Shiwa District, Iwate 028-3614, Japan",
      "place_id": "ChIJy8mouIOEhV8R5hHl2JF_3aQ"
    },
    "岩手県岩手県紫波郡矢巾町大字藤沢第３地割１３７番地８": {
      "normalized_address": "岩手県岩手県紫波郡矢巾町大字藤沢第３地割１３７番地８",
      "raw_prefecture": "岩手県",
      "raw_address": "岩手県紫波郡矢巾町大字藤沢第３地割１３７番地８",
      "status": "ok",
      "updated_at": "2026-03-30T03:59:28+00:00",
      "lat": 39.6201601,
      "lng": 141.1661325,
      "formatted_address": "Dai 3 Chiwari-137-8 Fujisawa, Yahaba, Shiwa District, Iwate 028-3602, Japan",
      "place_id": "ChIJ6bzQ_6OEhV8R5pnclP4r1cg"
    },
    "岩手県岩手県紫波郡紫波町北日詰字下東ノ坊５０": {
      "normalized_address": "岩手県岩手県紫波郡紫波町北日詰字下東ノ坊５０",
      "raw_prefecture": "岩手県",
      "raw_address": "岩手県紫波郡紫波町北日詰字下東ノ坊５０",
      "status": "ok",
      "updated_at": "2026-03-30T03:59:28+00:00",
      "lat": 39.5367232,
      "lng": 141.1692786,
      "formatted_address": "Shimotonobo Kitahizume, Shiwa, Shiwa District, Iwate 028-3309, Japan",
      "place_id": "ChIJSWeQjbCIhV8RMFks07GR1uY"
    },
    "岩手県岩手県紫波郡紫波町桜町１－１２－７": {
      "normalized_address": "岩手県岩手県紫波郡紫波町桜町１－１２－７",
      "raw_prefecture": "岩手県",
      "raw_address": "岩手県紫波郡紫波町桜町１－１２－７",
      "status": "ok",
      "updated_at": "2026-03-30T03:59:28+00:00",
      "lat": 39.5493604,
      "lng": 141.1636129,
      "formatted_address": "Japan, 〒028-3307 Iwate, Shiwa District, Shiwa, Sakuramachi, 1-chōme−１２−７ 12番地7",
      "place_id": "ChIJ21hyQgCGhV8RsIuKRqTaRag"
    },
    "岩手県岩手県紫波郡紫波町高水寺字古屋敷１６番１": {
      "normalized_address": "岩手県岩手県紫波郡紫波町高水寺字古屋敷１６番１",
      "raw_prefecture": "岩手県",
      "raw_address": "岩手県紫波郡紫波町高水寺字古屋敷１６番１",
      "status": "ok",
      "updated_at": "2026-03-30T03:59:29+00:00",
      "lat": 39.5745812,
      "lng": 141.1636075,
      "formatted_address": "Japan, 〒028-3303 Iwate, Shiwa District, Shiwa, Kōsuiji, Furuyashiki−１６−１",
      "place_id": "ChIJVZRLRbiFhV8RQAsoaGr_564"
    },
    "岩手県岩手県胆沢郡金ケ崎町三ヶ尻荒巻１６５": {
      "normalized_address": "岩手県岩手県胆沢郡金ケ崎町三ヶ尻荒巻１６５",
      "raw_prefecture": "岩手県",
      "raw_address": "岩手県胆沢郡金ケ崎町三ヶ尻荒巻１６５",
      "status": "ok",
      "updated_at": "2026-03-30T03:59:29+00:00",
      "lat": 39.2201081,
      "lng": 141.0995389,
      "formatted_address": "Aramaki-165 Mikajiri, Kanegasaki, Isawa District, Iwate 029-4502, Japan",
      "place_id": "ChIJbYdJASBGj18RGWI2C3RXWdw"
    },
    "岩手県岩手県花巻市上町６－７": {
      "normalized_address": "岩手県岩手県花巻市上町６－７",
      "raw_prefecture": "岩手県",
      "raw_address": "岩手県花巻市上町６－７",
      "status": "ok",
      "updated_at": "2026-03-30T03:59:29+00:00",
      "lat": 39.3858656,
      "lng": 141.117759,
      "formatted_address": "6-7 Kamichō, Hanamaki, Iwate 025-0087, Japan",
      "place_id": "ChIJdRGM5Fxnj18R4_Lx6_Cy5Z4"
    },
    "岩手県岩手県花巻市中根子字堂前８８": {
      "normalized_address": "岩手県岩手県花巻市中根子字堂前８８",
      "raw_prefecture": "岩手県",
      "raw_address": "岩手県花巻市中根子字堂前８８",
      "status": "ok",
      "updated_at": "2026-03-30T03:59:29+00:00",
      "lat": 39.3811397,
      "lng": 141.0952823,
      "formatted_address": "Dōmae-88 Nakaneko, Hanamaki, Iwate 025-0036, Japan",
      "place_id": "ChIJb98zIXFnj18RS2Dap_UKBrM"
    },
    "岩手県岩手県花巻市南城１０": {
      "normalized_address": "岩手県岩手県花巻市南城１０",
      "raw_prefecture": "岩手県",
      "raw_address": "岩手県花巻市南城１０",
      "status": "ok",
      "updated_at": "2026-03-30T03:59:30+00:00",
      "lat": 39.3717669,
      "lng": 141.1191503,
      "formatted_address": "Japan, 〒025-0021 Iwate, Hanamaki, Nanjō, １０ 10番地",
      "place_id": "ChIJqzrbeY9dj18Rb2LykM0x-h4"
    },
    "岩手県岩手県花巻市南新田２７２": {
      "normalized_address": "岩手県岩手県花巻市南新田２７２",
      "raw_prefecture": "岩手県",
      "raw_address": "岩手県花巻市南新田２７２",
      "status": "ok",
      "updated_at": "2026-03-30T03:59:30+00:00",
      "lat": 39.4028142,
      "lng": 141.0976985,
      "formatted_address": "272 Minamishinden, Hanamaki, Iwate 025-0051, Japan",
      "place_id": "ChIJnahJLCRnj18RkBzkMsXu7uA"
    },
    "岩手県岩手県花巻市南新田２８３－２": {
      "normalized_address": "岩手県岩手県花巻市南新田２８３－２",
      "raw_prefecture": "岩手県",
      "raw_address": "岩手県花巻市南新田２８３－２",
      "status": "ok",
      "updated_at": "2026-03-30T03:59:30+00:00",
      "lat": 39.4017595,
      "lng": 141.0990176,
      "formatted_address": "283 Minamishinden, Hanamaki, Iwate 025-0051, Japan",
      "place_id": "ChIJuVnBUCRnj18RDsAz5Yc0QwY"
    },
    "岩手県岩手県花巻市材木町２８－２３": {
      "normalized_address": "岩手県岩手県花巻市材木町２８－２３",
      "raw_prefecture": "岩手県",
      "raw_address": "岩手県花巻市材木町２８－２３",
      "status": "ok",
      "updated_at": "2026-03-30T03:59:31+00:00",
      "lat": 39.385877,
      "lng": 141.1074528,
      "formatted_address": "28-23 Zaimokuchō, Hanamaki, Iwate 025-0098, Japan",
      "place_id": "ChIJTwo9Amlnj18RDQQH2WZAXlc"
    },
    "岩手県岩手県花巻市東宮野目第１２地割４－７": {
      "normalized_address": "岩手県岩手県花巻市東宮野目第１２地割４－７",
      "raw_prefecture": "岩手県",
      "raw_address": "岩手県花巻市東宮野目第１２地割４－７",
      "status": "ok",
      "updated_at": "2026-03-30T03:59:31+00:00",
      "lat": 39.4077838,
      "lng": 141.1268824,
      "formatted_address": "Dai 12 Chiwari-4-7 Higashimiyanome, Hanamaki, Iwate 025-0003, Japan",
      "place_id": "ChIJYRs0ps9gj18R3BpmxyCalcM"
    },
    "岩手県岩手県花巻市東宮野目１２－１８－１７": {
      "normalized_address": "岩手県岩手県花巻市東宮野目１２－１８－１７",
      "raw_prefecture": "岩手県",
      "raw_address": "岩手県花巻市東宮野目１２－１８－１７",
      "status": "ok",
      "updated_at": "2026-03-30T03:59:31+00:00",
      "lat": 39.4172751,
      "lng": 141.1301624,
      "formatted_address": "Higashimiyanome, Hanamaki, Iwate 025-0003, Japan",
      "place_id": "ChIJLyRyjdxgj18RhYnzBlk2Vb4"
    },
    "岩手県岩手県花巻市糠塚２－１４５": {
      "normalized_address": "岩手県岩手県花巻市糠塚２－１４５",
      "raw_prefecture": "岩手県",
      "raw_address": "岩手県花巻市糠塚２－１４５",
      "status": "ok",
      "updated_at": "2026-03-30T03:59:31+00:00",
      "lat": 39.4668974,
      "lng": 141.1089275,
      "formatted_address": "Nukazuka, Hanamaki, Iwate 025-0302, Japan",
      "place_id": "ChIJB74xfjdij18Ru5yEryF89nI"
    },
    "岩手県岩手県花巻市轟木１４地割５９－５": {
      "normalized_address": "岩手県岩手県花巻市轟木１４地割５９－５",
      "raw_prefecture": "岩手県",
      "raw_address": "岩手県花巻市轟木１４地割５９－５",
      "status": "ok",
      "updated_at": "2026-03-30T03:59:32+00:00",
      "lat": 39.3174261,
      "lng": 141.1136998,
      "formatted_address": "14 Chiwari Murasakino, Kitakami, Iwate 024-0004, Japan",
      "place_id": "ChIJL34BEkxDj18RW4uavYg8FtY"
    },
    "岩手県岩手県遠野市宮守町下宮守３０－３７－５": {
      "normalized_address": "岩手県岩手県遠野市宮守町下宮守３０－３７－５",
      "raw_prefecture": "岩手県",
      "raw_address": "岩手県遠野市宮守町下宮守３０－３７－５",
      "status": "ok",
      "updated_at": "2026-03-30T03:59:32+00:00",
      "lat": 39.35212509999999,
      "lng": 141.363615,
      "formatted_address": "Miyamoricho Shimomiyamori, Tōno City, Iwate 028-0304, Japan",
      "place_id": "ChIJv0F1Xc33hV8RIO09O1Bfy_A"
    },
    "岩手県岩手県遠野市松崎町白岩字地森５１": {
      "normalized_address": "岩手県岩手県遠野市松崎町白岩字地森５１",
      "raw_prefecture": "岩手県",
      "raw_address": "岩手県遠野市松崎町白岩字地森５１",
      "status": "ok",
      "updated_at": "2026-03-30T03:59:32+00:00",
      "lat": 39.3417165,
      "lng": 141.5343599,
      "formatted_address": "Jimori Matsuzakicho Shiraiwa, Tōno City, Iwate 028-0541, Japan",
      "place_id": "ChIJay9sV8b7hV8RCsPY9m2xVJk"
    },
    "岩手県岩手県遠野市松崎町白岩１９地割６６－１": {
      "normalized_address": "岩手県岩手県遠野市松崎町白岩１９地割６６－１",
      "raw_prefecture": "岩手県",
      "raw_address": "岩手県遠野市松崎町白岩１９地割６６－１",
      "status": "ok",
      "updated_at": "2026-03-30T03:59:33+00:00",
      "lat": 39.3352696,
      "lng": 141.5504631,
      "formatted_address": "19 Chiwari-66-1 Matsuzakichō Shiraiwa, Tōno City, Iwate 028-0541, Japan",
      "place_id": "ChIJKeOdU5P7hV8RyenHek6HyBE"
    },
    "岩手県岩手県遠野市松崎町白岩８地割６６": {
      "normalized_address": "岩手県岩手県遠野市松崎町白岩８地割６６",
      "raw_prefecture": "岩手県",
      "raw_address": "岩手県遠野市松崎町白岩８地割６６",
      "status": "ok",
      "updated_at": "2026-03-30T03:59:33+00:00",
      "lat": 39.3414078,
      "lng": 141.530037,
      "formatted_address": "8 Chiwari-66 Matsuzakichō Shiraiwa, Tōno City, Iwate 028-0541, Japan",
      "place_id": "ChIJ8VQS8cX7hV8RAYMTzibUfVM"
    },
    "岩手県岩手県釜石市上中島町３－１－１": {
      "normalized_address": "岩手県岩手県釜石市上中島町３－１－１",
      "raw_prefecture": "岩手県",
      "raw_address": "岩手県釜石市上中島町３－１－１",
      "status": "ok",
      "updated_at": "2026-03-30T03:59:33+00:00",
      "lat": 39.2667637,
      "lng": 141.8523114,
      "formatted_address": "3-chōme-1-1 Kaminakashimachō, Kamaishi, Iwate 026-0041, Japan",
      "place_id": "ChIJOWQsNOYOhl8R2xOV10JI7vc"
    },
    "岩手県岩手県釜石市港町２ー９－９": {
      "normalized_address": "岩手県岩手県釜石市港町２ー９－９",
      "raw_prefecture": "岩手県",
      "raw_address": "岩手県釜石市港町２ー９－９",
      "status": "ok",
      "updated_at": "2026-03-30T03:59:34+00:00",
      "lat": 39.270297,
      "lng": 141.8800245,
      "formatted_address": "2-chōme-8-9-9 Minatomachi, Kamaishi, Iwate 026-0011, Japan",
      "place_id": "ChIJgVNV0I8Ohl8R9g6L_nABzyg"
    },
    "岩手県岩手県釜石市港町２丁目１番１号イオンスーパーセンター釜石店": {
      "normalized_address": "岩手県岩手県釜石市港町２丁目１番１号イオンスーパーセンター釜石店",
      "raw_prefecture": "岩手県",
      "raw_address": "岩手県釜石市港町２丁目１番１号イオンスーパーセンター釜石店",
      "status": "ok",
      "updated_at": "2026-03-30T03:59:34+00:00",
      "lat": 39.2709857,
      "lng": 141.8816284,
      "formatted_address": "2-chōme-1-1 Minatomachi, Kamaishi, Iwate 026-0011, Japan",
      "place_id": "ChIJc3GUApAOhl8R9caDMsDxm6k"
    },
    "岩手県岩手県釜石市鈴子町９－２４": {
      "normalized_address": "岩手県岩手県釜石市鈴子町９－２４",
      "raw_prefecture": "岩手県",
      "raw_address": "岩手県釜石市鈴子町９－２４",
      "status": "ok",
      "updated_at": "2026-03-30T03:59:34+00:00",
      "lat": 39.2734871,
      "lng": 141.8668099,
      "formatted_address": "9-24 Suzukochō, Kamaishi, Iwate 026-0031, Japan",
      "place_id": "ChIJN8WJu5UOhl8RqHJTaZgfsTM"
    },
    "岩手県岩手県陸前高田市米崎町字川崎２２６番地": {
      "normalized_address": "岩手県岩手県陸前高田市米崎町字川崎２２６番地",
      "raw_prefecture": "岩手県",
      "raw_address": "岩手県陸前高田市米崎町字川崎２２６番地",
      "status": "ok",
      "updated_at": "2026-03-30T03:59:34+00:00",
      "lat": 39.0138536,
      "lng": 141.6571994,
      "formatted_address": "Kawasaki-226 Yonesakichō, Rikuzentakata, Iwate 029-2206, Japan",
      "place_id": "ChIJfSR3LemiiF8RpQIkLx13ffM"
    }
  }
}
