{
  "version": 1,
  "generated_at": "2026-03-30T04:00:12+00:00",
  "source_file": "docs/data/1-04.json",
  "entries": {
    "宮城県宮城県仙台市太白区あすと長町３－１－２９": {
      "normalized_address": "宮城県宮城県仙台市太白区あすと長町３－１－２９",
      "raw_prefecture": "宮城県",
      "raw_address": "宮城県仙台市太白区あすと長町３－１－２９",
      "status": "ok",
      "updated_at": "2026-03-30T03:59:35+00:00",
      "lat": 38.2211094,
      "lng": 140.8852273,
      "formatted_address": "3-chōme-1-29 Asutonagamachi, Taihaku Ward, Sendai, Miyagi 982-0007, Japan",
      "place_id": "ChIJU50eh0smil8RxgWwWqAznvQ"
    },
    "宮城県宮城県仙台市太白区中田町字後河原４８－１": {
      "normalized_address": "宮城県宮城県仙台市太白区中田町字後河原４８－１",
      "raw_prefecture": "宮城県",
      "raw_address": "宮城県仙台市太白区中田町字後河原４８－１",
      "status": "ok",
      "updated_at": "2026-03-30T03:59:35+00:00",
      "lat": 38.1921299,
      "lng": 140.8921483,
      "formatted_address": "Ushirogawara-48-1 Nakadamachi, Taihaku Ward, Sendai, Miyagi 981-1103, Japan",
      "place_id": "ChIJI01_L5Ymil8RDWhKbSfJJ0E"
    },
    "宮城県宮城県仙台市太白区中田４－１４－１": {
      "normalized_address": "宮城県宮城県仙台市太白区中田４－１４－１",
      "raw_prefecture": "宮城県",
      "raw_address": "宮城県仙台市太白区中田４－１４－１",
      "status": "ok",
      "updated_at": "2026-03-30T03:59:35+00:00",
      "lat": 38.1977505,
      "lng": 140.8907385,
      "formatted_address": "4-chōme-14-1 Nakada, Taihaku Ward, Sendai, Miyagi 981-1104, Japan",
      "place_id": "ChIJuztzBJMmil8RbmMz8OeQ8GQ"
    },
    "宮城県宮城県仙台市太白区八木山香澄町４－６": {
      "normalized_address": "宮城県宮城県仙台市太白区八木山香澄町４－６",
      "raw_prefecture": "宮城県",
      "raw_address": "宮城県仙台市太白区八木山香澄町４－６",
      "status": "ok",
      "updated_at": "2026-03-30T03:59:36+00:00",
      "lat": 38.2439842,
      "lng": 140.8604281,
      "formatted_address": "4-6 Yagiyamakasumichō, Taihaku Ward, Sendai, Miyagi 982-0831, Japan",
      "place_id": "ChIJZV8wWWMoil8R3taajG-nGvg"
    },
    "宮城県宮城県仙台市太白区山田字田中前１８０": {
      "normalized_address": "宮城県宮城県仙台市太白区山田字田中前１８０",
      "raw_prefecture": "宮城県",
      "raw_address": "宮城県仙台市太白区山田字田中前１８０",
      "status": "ok",
      "updated_at": "2026-03-30T03:59:36+00:00",
      "lat": 38.2153195,
      "lng": 140.8358583,
      "formatted_address": "Tanakamae-180 Yamada, Taihaku Ward, Sendai, Miyagi 982-0814, Japan",
      "place_id": "ChIJ4wouIQYmil8R3Lj2V3WJF80"
    },
    "宮城県宮城県仙台市太白区山田新町３３": {
      "normalized_address": "宮城県宮城県仙台市太白区山田新町３３",
      "raw_prefecture": "宮城県",
      "raw_address": "宮城県仙台市太白区山田新町３３",
      "status": "ok",
      "updated_at": "2026-03-30T03:59:36+00:00",
      "lat": 38.21732850000001,
      "lng": 140.8358317,
      "formatted_address": "33 Yamadashinmachi, Taihaku Ward, Sendai, Miyagi 982-0818, Japan",
      "place_id": "ChIJFdzTKgQmil8RTp-9slwcdpg"
    },
    "宮城県宮城県仙台市太白区郡山字上野４－１": {
      "normalized_address": "宮城県宮城県仙台市太白区郡山字上野４－１",
      "raw_prefecture": "宮城県",
      "raw_address": "宮城県仙台市太白区郡山字上野４－１",
      "status": "ok",
      "updated_at": "2026-03-30T03:59:37+00:00",
      "lat": 38.2148119,
      "lng": 140.8939532,
      "formatted_address": "Jōno-4-1 Kōriyama, Taihaku Ward, Sendai, Miyagi 982-0003, Japan",
      "place_id": "ChIJ-ayRDVQmil8RcXXKmhrSiHc"
    },
    "宮城県宮城県仙台市太白区鈎取本町１－１８－１": {
      "normalized_address": "宮城県宮城県仙台市太白区鈎取本町１－１８－１",
      "raw_prefecture": "宮城県",
      "raw_address": "宮城県仙台市太白区鈎取本町１－１８－１",
      "status": "ok",
      "updated_at": "2026-03-30T03:59:37+00:00",
      "lat": 38.2198647,
      "lng": 140.8391915,
      "formatted_address": "1-chōme-18-1 Kagitorihonchō, Taihaku Ward, Sendai, Miyagi 982-0805, Japan",
      "place_id": "ChIJE1jTtwQmil8RBqypCnvfH4k"
    },
    "宮城県宮城県仙台市太白区鈎取本町１－２１－１": {
      "normalized_address": "宮城県宮城県仙台市太白区鈎取本町１－２１－１",
      "raw_prefecture": "宮城県",
      "raw_address": "宮城県仙台市太白区鈎取本町１－２１－１",
      "status": "ok",
      "updated_at": "2026-03-30T03:59:37+00:00",
      "lat": 38.219614,
      "lng": 140.8376742,
      "formatted_address": "1-chōme-21-1 Kagitorihonchō, Taihaku Ward, Sendai, Miyagi 982-0805, Japan",
      "place_id": "ChIJeTTFkAQmil8RkpmZv9qYIBc"
    },
    "宮城県宮城県仙台市宮城野区中野３－５－４": {
      "normalized_address": "宮城県宮城県仙台市宮城野区中野３－５－４",
      "raw_prefecture": "宮城県",
      "raw_address": "宮城県仙台市宮城野区中野３－５－４",
      "status": "ok",
      "updated_at": "2026-03-30T03:59:38+00:00",
      "lat": 38.2729624,
      "lng": 140.9891932,
      "formatted_address": "3-chōme-5-4 Nakano, Miyagino Ward, Sendai, Miyagi 983-0013, Japan",
      "place_id": "ChIJbb2CoruIiV8RbG9T5ZCw3jk"
    },
    "宮城県宮城県仙台市宮城野区仙石１－１": {
      "normalized_address": "宮城県宮城県仙台市宮城野区仙石１－１",
      "raw_prefecture": "宮城県",
      "raw_address": "宮城県仙台市宮城野区仙石１－１",
      "status": "ok",
      "updated_at": "2026-03-30T03:59:38+00:00",
      "lat": 38.2733834,
      "lng": 140.9406847,
      "formatted_address": "Japan, 〒983-0032 Miyagi, Sendai, Miyagino Ward, Sengoku, 1−１ 宮城野環境事業所",
      "place_id": "ChIJR_xGwtKHiV8RRcD44yhUiMI"
    },
    "宮城県宮城県仙台市宮城野区南目館２０－２０": {
      "normalized_address": "宮城県宮城県仙台市宮城野区南目館２０－２０",
      "raw_prefecture": "宮城県",
      "raw_address": "宮城県仙台市宮城野区南目館２０－２０",
      "status": "ok",
      "updated_at": "2026-03-30T03:59:38+00:00",
      "lat": 38.2691435,
      "lng": 140.9244129,
      "formatted_address": "20-20 Minaminometate, Miyagino Ward, Sendai, Miyagi 983-0041, Japan",
      "place_id": "ChIJ528JpcSHiV8RtgTYH3I3cwM"
    },
    "宮城県宮城県仙台市宮城野区幸町５－１０－１": {
      "normalized_address": "宮城県宮城県仙台市宮城野区幸町５－１０－１",
      "raw_prefecture": "宮城県",
      "raw_address": "宮城県仙台市宮城野区幸町５－１０－１",
      "status": "ok",
      "updated_at": "2026-03-30T03:59:38+00:00",
      "lat": 38.27356049999999,
      "lng": 140.9027894,
      "formatted_address": "5-chōme-10-1 Saiwaichō, Miyagino Ward, Sendai, Miyagi 983-0836, Japan",
      "place_id": "ChIJsXgmJJSHiV8RntN4S7WizUA"
    },
    "宮城県宮城県仙台市宮城野区新田東３－１－２０": {
      "normalized_address": "宮城県宮城県仙台市宮城野区新田東３－１－２０",
      "raw_prefecture": "宮城県",
      "raw_address": "宮城県仙台市宮城野区新田東３－１－２０",
      "status": "ok",
      "updated_at": "2026-03-30T03:59:39+00:00",
      "lat": 38.2760103,
      "lng": 140.9371543,
      "formatted_address": "Japan, 〒983-0039 Miyagi, Sendai, Miyagino Ward, Shindenhigashi, 3-chōme−１−２０",
      "place_id": "ChIJd891KM2HiV8RuFPtOr3HrJ4"
    },
    "宮城県宮城県仙台市宮城野区東仙台４－１４－５": {
      "normalized_address": "宮城県宮城県仙台市宮城野区東仙台４－１４－５",
      "raw_prefecture": "宮城県",
      "raw_address": "宮城県仙台市宮城野区東仙台４－１４－５",
      "status": "ok",
      "updated_at": "2026-03-30T03:59:39+00:00",
      "lat": 38.2775897,
      "lng": 140.9083602,
      "formatted_address": "4-chōme-14-5 Higashisendai, Miyagino Ward, Sendai, Miyagi 983-0833, Japan",
      "place_id": "ChIJ286we7yHiV8RsUqk8cSL0sg"
    },
    "宮城県宮城県仙台市宮城野区田子１－１２－８": {
      "normalized_address": "宮城県宮城県仙台市宮城野区田子１－１２－８",
      "raw_prefecture": "宮城県",
      "raw_address": "宮城県仙台市宮城野区田子１－１２－８",
      "status": "ok",
      "updated_at": "2026-03-30T03:59:39+00:00",
      "lat": 38.2791827,
      "lng": 140.9640665,
      "formatted_address": "1-chōme-12-8 Tago, Miyagino Ward, Sendai, Miyagi 983-0021, Japan",
      "place_id": "ChIJiw-KgyGGiV8R1znqHkmYhzw"
    },
    "宮城県宮城県仙台市宮城野区福室１－１－５２": {
      "normalized_address": "宮城県宮城県仙台市宮城野区福室１－１－５２",
      "raw_prefecture": "宮城県",
      "raw_address": "宮城県仙台市宮城野区福室１－１－５２",
      "status": "ok",
      "updated_at": "2026-03-30T03:59:40+00:00",
      "lat": 38.2708598,
      "lng": 140.9627589,
      "formatted_address": "1-chōme-1-52 Fukumuro, Miyagino Ward, Sendai, Miyagi 983-0005, Japan",
      "place_id": "ChIJr5Y-R4OIiV8RM611GnfnBug"
    },
    "宮城県宮城県仙台市泉区上谷刈４－１１－３６": {
      "normalized_address": "宮城県宮城県仙台市泉区上谷刈４－１１－３６",
      "raw_prefecture": "宮城県",
      "raw_address": "宮城県仙台市泉区上谷刈４－１１－３６",
      "status": "ok",
      "updated_at": "2026-03-30T03:59:40+00:00",
      "lat": 38.314955,
      "lng": 140.8734426,
      "formatted_address": "4-chōme-11-36 Kamiyagari, Izumi Ward, Sendai, Miyagi 981-3121, Japan",
      "place_id": "ChIJF9moYiqBiV8RMPsJNJrJZgs"
    },
    "宮城県宮城県仙台市泉区南中山１－３５－４０": {
      "normalized_address": "宮城県宮城県仙台市泉区南中山１－３５－４０",
      "raw_prefecture": "宮城県",
      "raw_address": "宮城県仙台市泉区南中山１－３５－４０",
      "status": "ok",
      "updated_at": "2026-03-30T03:59:40+00:00",
      "lat": 38.29781639999999,
      "lng": 140.8272151,
      "formatted_address": "Main Building, 1-chōme-35-40 Minaminakayama, Izumi Ward, Sendai, Miyagi 981-3213, Japan",
      "place_id": "ChIJnUXPIAEqil8RWVaT-ChF-zI"
    },
    "宮城県宮城県仙台市泉区大沢２－５－２": {
      "normalized_address": "宮城県宮城県仙台市泉区大沢２－５－２",
      "raw_prefecture": "宮城県",
      "raw_address": "宮城県仙台市泉区大沢２－５－２",
      "status": "ok",
      "updated_at": "2026-03-30T03:59:41+00:00",
      "lat": 38.3526909,
      "lng": 140.875843,
      "formatted_address": "Japan, 〒981-3137 Miyagi, Sendai, Izumi Ward, Ōsawa, 2-chōme−５−２",
      "place_id": "ChIJiZY1_ICBiV8REWr--rerqPs"
    },
    "宮城県宮城県仙台市泉区実沢字中山南３１－８": {
      "normalized_address": "宮城県宮城県仙台市泉区実沢字中山南３１－８",
      "raw_prefecture": "宮城県",
      "raw_address": "宮城県仙台市泉区実沢字中山南３１－８",
      "status": "ok",
      "updated_at": "2026-03-30T03:59:41+00:00",
      "lat": 38.30078839999999,
      "lng": 140.8216886,
      "formatted_address": "Nakayamaminami-31-8 Sanezawa, Izumi Ward, Sendai, Miyagi 981-3217, Japan",
      "place_id": "ChIJL0hNLgYqil8R9ZewXUxH3ic"
    },
    "宮城県宮城県仙台市泉区市名坂字柳清水１０２－１": {
      "normalized_address": "宮城県宮城県仙台市泉区市名坂字柳清水１０２－１",
      "raw_prefecture": "宮城県",
      "raw_address": "宮城県仙台市泉区市名坂字柳清水１０２－１",
      "status": "ok",
      "updated_at": "2026-03-30T03:59:41+00:00",
      "lat": 38.3175732,
      "lng": 140.9046731,
      "formatted_address": "Yanagishimizu-102番1 Ichinazaka, Izumi Ward, Sendai, Miyagi 981-3117, Japan",
      "place_id": "ChIJdebOSraGiV8R58XGUmJlEfA"
    },
    "宮城県宮城県仙台市泉区市名坂字鹿島１－１": {
      "normalized_address": "宮城県宮城県仙台市泉区市名坂字鹿島１－１",
      "raw_prefecture": "宮城県",
      "raw_address": "宮城県仙台市泉区市名坂字鹿島１－１",
      "status": "ok",
      "updated_at": "2026-03-30T03:59:41+00:00",
      "lat": 38.3139513,
      "lng": 140.9090133,
      "formatted_address": "Kashima-1-1 Ichinazaka, Izumi Ward, Sendai, Miyagi 981-3117, Japan",
      "place_id": "ChIJMbmEZ8eGiV8Rd8QzEtjbHoU"
    },
    "宮城県宮城県仙台市泉区松森字中道８０": {
      "normalized_address": "宮城県宮城県仙台市泉区松森字中道８０",
      "raw_prefecture": "宮城県",
      "raw_address": "宮城県仙台市泉区松森字中道８０",
      "status": "ok",
      "updated_at": "2026-03-30T03:59:42+00:00",
      "lat": 38.3075787,
      "lng": 140.9045239,
      "formatted_address": "Japan, 〒981-3111 Miyagi, Sendai, Izumi Ward, Matsumori, Nakamichi−８０ 永井電機",
      "place_id": "ChIJ8cKQuMKGiV8RpjwksRnpXDE"
    },
    "宮城県宮城県仙台市泉区松森字阿比古３３": {
      "normalized_address": "宮城県宮城県仙台市泉区松森字阿比古３３",
      "raw_prefecture": "宮城県",
      "raw_address": "宮城県仙台市泉区松森字阿比古３３",
      "status": "ok",
      "updated_at": "2026-03-30T03:59:42+00:00",
      "lat": 38.3054206,
      "lng": 140.9210314,
      "formatted_address": "Abiko-33 Matsumori, Izumi Ward, Sendai, Miyagi 981-3111, Japan",
      "place_id": "ChIJ-2NHEO2GiV8RCQNWT0Rr_lc"
    },
    "宮城県宮城県仙台市泉区泉中央１－２－１": {
      "normalized_address": "宮城県宮城県仙台市泉区泉中央１－２－１",
      "raw_prefecture": "宮城県",
      "raw_address": "宮城県仙台市泉区泉中央１－２－１",
      "status": "ok",
      "updated_at": "2026-03-30T03:59:42+00:00",
      "lat": 38.3209838,
      "lng": 140.8822887,
      "formatted_address": "1-chōme-2-1 Izumichūō, Izumi Ward, Sendai, Miyagi 981-3133, Japan",
      "place_id": "ChIJmxth8TGBiV8RHQX95eP7iCs"
    },
    "宮城県宮城県仙台市泉区高森１－１－１９０": {
      "normalized_address": "宮城県宮城県仙台市泉区高森１－１－１９０",
      "raw_prefecture": "宮城県",
      "raw_address": "宮城県仙台市泉区高森１－１－１９０",
      "status": "ok",
      "updated_at": "2026-03-30T03:59:43+00:00",
      "lat": 38.3363863,
      "lng": 140.8443848,
      "formatted_address": "1-chōme-1-190 Takamori, Izumi Ward, Sendai, Miyagi 981-3203, Japan",
      "place_id": "ChIJz5NxwQCBiV8RBuXE6FEkQ8I"
    },
    "宮城県宮城県仙台市若林区なないろの里３－１－２": {
      "normalized_address": "宮城県宮城県仙台市若林区なないろの里３－１－２",
      "raw_prefecture": "宮城県",
      "raw_address": "宮城県仙台市若林区なないろの里３－１－２",
      "status": "ok",
      "updated_at": "2026-03-30T03:59:43+00:00",
      "lat": 38.2395675,
      "lng": 140.9298416,
      "formatted_address": "Japan, 〒984-0087 Miyagi, Sendai, Wakabayashi Ward, Nanaironosato, 3-chōme−1−２ １番地の２",
      "place_id": "ChIJ07HUoyCIiV8Rg-GiF7qilYs"
    },
    "宮城県宮城県仙台市若林区なないろの里３－４－８": {
      "normalized_address": "宮城県宮城県仙台市若林区なないろの里３－４－８",
      "raw_prefecture": "宮城県",
      "raw_address": "宮城県仙台市若林区なないろの里３－４－８",
      "status": "ok",
      "updated_at": "2026-03-30T03:59:43+00:00",
      "lat": 38.2387925,
      "lng": 140.9323915,
      "formatted_address": "3-chōme-4-8 Nanaironosato, Wakabayashi Ward, Sendai, Miyagi 984-0017, Japan",
      "place_id": "ChIJuTDERieIiV8RdC5M_CLbkEs"
    },
    "宮城県宮城県仙台市若林区今泉字上新田１０３": {
      "normalized_address": "宮城県宮城県仙台市若林区今泉字上新田１０３",
      "raw_prefecture": "宮城県",
      "raw_address": "宮城県仙台市若林区今泉字上新田１０３",
      "status": "ok",
      "updated_at": "2026-03-30T03:59:44+00:00",
      "lat": 38.2033598,
      "lng": 140.9260953,
      "formatted_address": "Japan, 〒984-0835 Miyagi, Sendai, Wakabayashi Ward, Imaizumi, Kamishinden−１０３ 若林環境事業所",
      "place_id": "ChIJreE3oyEnil8RocbXfiJg5SU"
    },
    "宮城県宮城県仙台市若林区六十人町３－２": {
      "normalized_address": "宮城県宮城県仙台市若林区六十人町３－２",
      "raw_prefecture": "宮城県",
      "raw_address": "宮城県仙台市若林区六十人町３－２",
      "status": "ok",
      "updated_at": "2026-03-30T03:59:44+00:00",
      "lat": 38.2442829,
      "lng": 140.8983222,
      "formatted_address": "3-2 Rokujūninmachi, Wakabayashi Ward, Sendai, Miyagi 984-0813, Japan",
      "place_id": "ChIJlX2nd-Qnil8R54B4SPvvVnU"
    },
    "宮城県宮城県仙台市若林区大和町４－１９－２２": {
      "normalized_address": "宮城県宮城県仙台市若林区大和町４－１９－２２",
      "raw_prefecture": "宮城県",
      "raw_address": "宮城県仙台市若林区大和町４－１９－２２",
      "status": "ok",
      "updated_at": "2026-03-30T03:59:44+00:00",
      "lat": 38.2505006,
      "lng": 140.9194811,
      "formatted_address": "4-chōme-19-22 Yamatomachi, Wakabayashi Ward, Sendai, Miyagi 984-0042, Japan",
      "place_id": "ChIJsX-CfwOIiV8RVfRAgejIgmM"
    },
    "宮城県宮城県仙台市若林区木ノ下４－３－１２": {
      "normalized_address": "宮城県宮城県仙台市若林区木ノ下４－３－１２",
      "raw_prefecture": "宮城県",
      "raw_address": "宮城県仙台市若林区木ノ下４－３－１２",
      "status": "ok",
      "updated_at": "2026-03-30T03:59:45+00:00",
      "lat": 38.249455,
      "lng": 140.9005807,
      "formatted_address": "Japan, 〒984-0047 Miyagi, Sendai, Wakabayashi Ward, Kinoshita, 4-chōme−3−１２ ミヤデンとうほく",
      "place_id": "ChIJmQcIhf0nil8RWwrIx2L8UB8"
    },
    "宮城県宮城県仙台市青葉区上杉５－６－２７": {
      "normalized_address": "宮城県宮城県仙台市青葉区上杉５－６－２７",
      "raw_prefecture": "宮城県",
      "raw_address": "宮城県仙台市青葉区上杉５－６－２７",
      "status": "ok",
      "updated_at": "2026-03-30T03:59:45+00:00",
      "lat": 38.2760483,
      "lng": 140.8792407,
      "formatted_address": "5-chōme-6-27 Kamisugi, Aoba Ward, Sendai, Miyagi 980-0011, Japan",
      "place_id": "ChIJc_6QNYKHiV8RZWnkmFixUyY"
    },
    "宮城県宮城県仙台市青葉区二日町６－１２ＭＳビル二日町３Ｆ": {
      "normalized_address": "宮城県宮城県仙台市青葉区二日町６－１２ＭＳビル二日町３Ｆ",
      "raw_prefecture": "宮城県",
      "raw_address": "宮城県仙台市青葉区二日町６－１２ＭＳビル二日町３Ｆ",
      "status": "ok",
      "updated_at": "2026-03-30T03:59:45+00:00",
      "lat": 38.269002,
      "lng": 140.8679419,
      "formatted_address": "6-6 Futsukamachi, Aoba Ward, Sendai, Miyagi 980-0802, Japan",
      "place_id": "ChIJFfHBgi4oil8RQRqFQNOS3Hw"
    },
    "宮城県宮城県仙台市青葉区南吉成３－１－２０": {
      "normalized_address": "宮城県宮城県仙台市青葉区南吉成３－１－２０",
      "raw_prefecture": "宮城県",
      "raw_address": "宮城県仙台市青葉区南吉成３－１－２０",
      "status": "ok",
      "updated_at": "2026-03-30T03:59:46+00:00",
      "lat": 38.2858465,
      "lng": 140.8153266,
      "formatted_address": "Japan, 〒989-3204 Miyagi, Sendai, Aoba Ward, Minamiyoshinari, 3-chōme−１−２０",
      "place_id": "ChIJOzwgOIspil8RbmpqnCDBmUY"
    },
    "宮城県宮城県仙台市青葉区南吉成７－１－１": {
      "normalized_address": "宮城県宮城県仙台市青葉区南吉成７－１－１",
      "raw_prefecture": "宮城県",
      "raw_address": "宮城県仙台市青葉区南吉成７－１－１",
      "status": "ok",
      "updated_at": "2026-03-30T03:59:46+00:00",
      "lat": 38.2838462,
      "lng": 140.8161195,
      "formatted_address": "7-chōme-1-1 Minamiyoshinari, Aoba Ward, Sendai, Miyagi 989-3204, Japan",
      "place_id": "ChIJXxDA9Ywpil8RacQap_rWUu8"
    },
    "宮城県宮城県仙台市青葉区吉成台２－２－４０": {
      "normalized_address": "宮城県宮城県仙台市青葉区吉成台２－２－４０",
      "raw_prefecture": "宮城県",
      "raw_address": "宮城県仙台市青葉区吉成台２－２－４０",
      "status": "ok",
      "updated_at": "2026-03-30T03:59:46+00:00",
      "lat": 38.2951559,
      "lng": 140.8247365,
      "formatted_address": "2-chōme-2-40 Yoshinaridai, Aoba Ward, Sendai, Miyagi 989-3206, Japan",
      "place_id": "ChIJJwo3TgIqil8R7aT4hM2p88k"
    },
    "宮城県宮城県仙台市青葉区堤通雨宮町１－１イオンモール仙台上杉３階": {
      "normalized_address": "宮城県宮城県仙台市青葉区堤通雨宮町１－１イオンモール仙台上杉３階",
      "raw_prefecture": "宮城県",
      "raw_address": "宮城県仙台市青葉区堤通雨宮町１－１イオンモール仙台上杉３階",
      "status": "ok",
      "updated_at": "2026-03-30T03:59:46+00:00",
      "lat": 38.2760944,
      "lng": 140.8725197,
      "formatted_address": "Japan, 〒981-0914 Miyagi, Sendai, Aoba Ward, Tsutsumidōriamamiyamachi, 1−１ イオンモール仙台上杉 3階",
      "place_id": "EnRKYXBhbiwg44CSOTgxLTA5MTQgTWl5YWdpLCBTZW5kYWksIEFvYmEgV2FyZCwgVHN1dHN1bWlkxY1yaWFtYW1peWFtYWNoaSwgMeKIku-8kSDjgqTjgqrjg7Pjg6Ljg7zjg6vku5nlj7DkuIrmnYkgM-majiIgGh4KFgoUChIJFfgqhX-HiV8RZdMy11aoktsSBDPpmo4"
    },
    "宮城県宮城県仙台市青葉区川平３－４６－１５": {
      "normalized_address": "宮城県宮城県仙台市青葉区川平３－４６－１５",
      "raw_prefecture": "宮城県",
      "raw_address": "宮城県仙台市青葉区川平３－４６－１５",
      "status": "ok",
      "updated_at": "2026-03-30T03:59:47+00:00",
      "lat": 38.3060804,
      "lng": 140.8339909,
      "formatted_address": "Japan, 〒981-0954 Miyagi, Sendai, Aoba Ward, Kawadaira, 3-chōme−46−１５ ショップイン荒巻",
      "place_id": "ChIJZxgJ9q-AiV8Rrrqu1Zd01Pw"
    },
    "宮城県宮城県仙台市青葉区栗生７－１３－１": {
      "normalized_address": "宮城県宮城県仙台市青葉区栗生７－１３－１",
      "raw_prefecture": "宮城県",
      "raw_address": "宮城県仙台市青葉区栗生７－１３－１",
      "status": "ok",
      "updated_at": "2026-03-30T03:59:47+00:00",
      "lat": 38.2673703,
      "lng": 140.7754665,
      "formatted_address": "Japan, 〒989-3122 Miyagi, Sendai, Aoba Ward, Kuryū, 7-chōme−１３−１",
      "place_id": "ChIJywvgm10pil8RWfB5fa4hKws"
    },
    "宮城県宮城県仙台市青葉区荒巻本沢２－１－１": {
      "normalized_address": "宮城県宮城県仙台市青葉区荒巻本沢２－１－１",
      "raw_prefecture": "宮城県",
      "raw_address": "宮城県仙台市青葉区荒巻本沢２－１－１",
      "status": "ok",
      "updated_at": "2026-03-30T03:59:47+00:00",
      "lat": 38.2876868,
      "lng": 140.8492729,
      "formatted_address": "2-chōme-1-1 Aramakihonzawa, Aoba Ward, Sendai, Miyagi 981-0966, Japan",
      "place_id": "ChIJD8OZY1-HiV8R9lBu4OMqhcA"
    },
    "宮城県宮城県仙台市青葉区郷六字葛岡５７－３": {
      "normalized_address": "宮城県宮城県仙台市青葉区郷六字葛岡５７－３",
      "raw_prefecture": "宮城県",
      "raw_address": "宮城県仙台市青葉区郷六字葛岡５７－３",
      "status": "ok",
      "updated_at": "2026-03-30T03:59:48+00:00",
      "lat": 38.2757943,
      "lng": 140.8148376,
      "formatted_address": "Japan, 〒989-3121 Miyagi, Sendai, Aoba Ward, Gōroku, Kuzuoka−５７−３ 仙台市環境局施設部葛岡工場",
      "place_id": "ChIJJ0lnHJopil8Riyx4_jYAloM"
    },
    "宮城県宮城県加美郡加美町上狼塚字永代地１００": {
      "normalized_address": "宮城県宮城県加美郡加美町上狼塚字永代地１００",
      "raw_prefecture": "宮城県",
      "raw_address": "宮城県加美郡加美町上狼塚字永代地１００",
      "status": "ok",
      "updated_at": "2026-03-30T03:59:48+00:00",
      "lat": 38.5731143,
      "lng": 140.871423,
      "formatted_address": "Eidaichi-100 Kamioinotsuka, Kami, Kami District, Miyagi 981-4211, Japan",
      "place_id": "ChIJfdNiov5siV8RntqoXLY6w0E"
    },
    "宮城県宮城県加美郡加美町字赤塚１７８": {
      "normalized_address": "宮城県宮城県加美郡加美町字赤塚１７８",
      "raw_prefecture": "宮城県",
      "raw_address": "宮城県加美郡加美町字赤塚１７８",
      "status": "ok",
      "updated_at": "2026-03-30T03:59:48+00:00",
      "lat": 38.56254759999999,
      "lng": 140.865936,
      "formatted_address": "イオンショッピングセンター専門店内, 178 Akatsuka, Kami, Kami District, Miyagi 981-4264, Japan",
      "place_id": "ChIJhZr5c65tiV8R90bu2ALV5Cw"
    },
    "宮城県宮城県名取市上余田字千刈田４６６": {
      "normalized_address": "宮城県宮城県名取市上余田字千刈田４６６",
      "raw_prefecture": "宮城県",
      "raw_address": "宮城県名取市上余田字千刈田４６６",
      "status": "ok",
      "updated_at": "2026-03-30T03:59:49+00:00",
      "lat": 38.18658629999999,
      "lng": 140.8920397,
      "formatted_address": "Sengarita-466 Kamiyouden, Natori, Miyagi 981-1222, Japan",
      "place_id": "ChIJX4PihaQmil8RRPsj37eXbhI"
    },
    "宮城県宮城県名取市上余田字千刈田５３５－１": {
      "normalized_address": "宮城県宮城県名取市上余田字千刈田５３５－１",
      "raw_prefecture": "宮城県",
      "raw_address": "宮城県名取市上余田字千刈田５３５－１",
      "status": "ok",
      "updated_at": "2026-03-30T03:59:49+00:00",
      "lat": 38.1856374,
      "lng": 140.8902657,
      "formatted_address": "Sengarita-535-1 Kamiyouden, Natori, Miyagi 981-1222, Japan",
      "place_id": "ChIJfZPRE6Qmil8RTtzogRyNiTg"
    },
    "宮城県宮城県名取市増田２－１－２９－１": {
      "normalized_address": "宮城県宮城県名取市増田２－１－２９－１",
      "raw_prefecture": "宮城県",
      "raw_address": "宮城県名取市増田２－１－２９－１",
      "status": "ok",
      "updated_at": "2026-03-30T03:59:49+00:00",
      "lat": 38.1680304,
      "lng": 140.8844698,
      "formatted_address": "2-chōme-1-29-1 Masuda, Natori, Miyagi 981-1224, Japan",
      "place_id": "ChIJ8XU1iPYjil8RWUWVlOE6UZ4"
    },
    "宮城県宮城県名取市大手町５－１１－９": {
      "normalized_address": "宮城県宮城県名取市大手町５－１１－９",
      "raw_prefecture": "宮城県",
      "raw_address": "宮城県名取市大手町５－１１－９",
      "status": "ok",
      "updated_at": "2026-03-30T03:59:49+00:00",
      "lat": 38.1700504,
      "lng": 140.8785047,
      "formatted_address": "Japan, 〒981-1232 Miyagi, Natori, Ōtemachi, 5-chōme−１１−９",
      "place_id": "ChIJgak7Mgokil8RWxJyKLhwSfs"
    },
    "宮城県宮城県名取市杜せきのした５－３－１": {
      "normalized_address": "宮城県宮城県名取市杜せきのした５－３－１",
      "raw_prefecture": "宮城県",
      "raw_address": "宮城県名取市杜せきのした５－３－１",
      "status": "ok",
      "updated_at": "2026-03-30T03:59:50+00:00",
      "lat": 38.1621191,
      "lng": 140.8984453,
      "formatted_address": "5-chōme-5-3-1 Morisekinoshita, Natori, Miyagi 981-1227, Japan",
      "place_id": "ChIJq6qe0ugjil8R3XqWqiI3EbU"
    },
    "宮城県宮城県名取市田高字原５０９": {
      "normalized_address": "宮城県宮城県名取市田高字原５０９",
      "raw_prefecture": "宮城県",
      "raw_address": "宮城県名取市田高字原５０９",
      "status": "ok",
      "updated_at": "2026-03-30T03:59:50+00:00",
      "lat": 38.1782164,
      "lng": 140.8775374,
      "formatted_address": "Hara-509 Takō, Natori, Miyagi 981-1221, Japan",
      "place_id": "ChIJa6sm6Rokil8RgCvhTlVQkQA"
    },
    "宮城県宮城県名取市美田園６－１４－１": {
      "normalized_address": "宮城県宮城県名取市美田園６－１４－１",
      "raw_prefecture": "宮城県",
      "raw_address": "宮城県名取市美田園６－１４－１",
      "status": "ok",
      "updated_at": "2026-03-30T03:59:50+00:00",
      "lat": 38.1592873,
      "lng": 140.9136727,
      "formatted_address": "Japan, 〒981-1217 Miyagi, Natori, Mitazono, 6-chōme−１４−１",
      "place_id": "ChIJVydvCdwjil8RSSvAdySiNk8"
    },
    "宮城県宮城県多賀城市城南２－１４－３４": {
      "normalized_address": "宮城県宮城県多賀城市城南２－１４－３４",
      "raw_prefecture": "宮城県",
      "raw_address": "宮城県多賀城市城南２－１４－３４",
      "status": "ok",
      "updated_at": "2026-03-30T03:59:51+00:00",
      "lat": 38.2969891,
      "lng": 140.9916526,
      "formatted_address": "Japan, 〒985-0865 Miyagi, Tagajo City, Jōnan, 2-chōme−14−３４ １４番３４号",
      "place_id": "ChIJGfqZhO-FiV8Rs72rewobn-U"
    },
    "宮城県宮城県多賀城市町前２－７－３１": {
      "normalized_address": "宮城県宮城県多賀城市町前２－７－３１",
      "raw_prefecture": "宮城県",
      "raw_address": "宮城県多賀城市町前２－７－３１",
      "status": "ok",
      "updated_at": "2026-03-30T03:59:51+00:00",
      "lat": 38.2836824,
      "lng": 141.0031129,
      "formatted_address": "2-chōme-7-31 Machimae, Tagajo City, Miyagi 985-0845, Japan",
      "place_id": "ChIJSU850lOPiV8R6bbo-m3NS-Q"
    },
    "宮城県宮城県多賀城市町前４－１－１": {
      "normalized_address": "宮城県宮城県多賀城市町前４－１－１",
      "raw_prefecture": "宮城県",
      "raw_address": "宮城県多賀城市町前４－１－１",
      "status": "ok",
      "updated_at": "2026-03-30T03:59:51+00:00",
      "lat": 38.2825171,
      "lng": 141.0046053,
      "formatted_address": "4-chōme-1-1 Machimae, Tagajo City, Miyagi 985-0845, Japan",
      "place_id": "ChIJXUzDEVKPiV8RQTuD6vEeayE"
    },
    "宮城県宮城県多賀城市町前４－２－１": {
      "normalized_address": "宮城県宮城県多賀城市町前４－２－１",
      "raw_prefecture": "宮城県",
      "raw_address": "宮城県多賀城市町前４－２－１",
      "status": "ok",
      "updated_at": "2026-03-30T03:59:52+00:00",
      "lat": 38.2831297,
      "lng": 141.0056836,
      "formatted_address": "4-chōme-2-1 Machimae, Tagajo City, Miyagi 985-0845, Japan",
      "place_id": "ChIJvz5_klGPiV8Rp-WFEOYmNNY"
    },
    "宮城県宮城県多賀城市笠神５－５－２５": {
      "normalized_address": "宮城県宮城県多賀城市笠神５－５－２５",
      "raw_prefecture": "宮城県",
      "raw_address": "宮城県多賀城市笠神５－５－２５",
      "status": "ok",
      "updated_at": "2026-03-30T03:59:52+00:00",
      "lat": 38.3015284,
      "lng": 141.0348547,
      "formatted_address": "5-chōme-5-25 Kasagami, Tagajo City, Miyagi 985-0831, Japan",
      "place_id": "ChIJi0YRjH-PiV8RhlT3OPn2uFE"
    },
    "宮城県宮城県大崎市古川千手寺町１－５－２１": {
      "normalized_address": "宮城県宮城県大崎市古川千手寺町１－５－２１",
      "raw_prefecture": "宮城県",
      "raw_address": "宮城県大崎市古川千手寺町１－５－２１",
      "status": "ok",
      "updated_at": "2026-03-30T03:59:52+00:00",
      "lat": 38.5798913,
      "lng": 140.9538447,
      "formatted_address": "1-chōme-5-21 Furukawasenjuujichō, Ōsaki, Miyagi 989-6174, Japan",
      "place_id": "ChIJG_iOZL4SiV8RdCZ2RJvy4Jk"
    },
    "宮城県宮城県大崎市古川旭２－２－１": {
      "normalized_address": "宮城県宮城県大崎市古川旭２－２－１",
      "raw_prefecture": "宮城県",
      "raw_address": "宮城県大崎市古川旭２－２－１",
      "status": "ok",
      "updated_at": "2026-03-30T03:59:52+00:00",
      "lat": 38.5668878,
      "lng": 140.9722748,
      "formatted_address": "Japan, 〒989-6117 Miyagi, Ōsaki, Furukawaasahi, 2-chōme−2−１ イオン古川 レディス",
      "place_id": "ChIJf-3GFFwNiV8RsbxcyZXoEVk"
    },
    "宮城県宮城県大崎市古川旭５－６－１８": {
      "normalized_address": "宮城県宮城県大崎市古川旭５－６－１８",
      "raw_prefecture": "宮城県",
      "raw_address": "宮城県大崎市古川旭５－６－１８",
      "status": "ok",
      "updated_at": "2026-03-30T03:59:53+00:00",
      "lat": 38.5675774,
      "lng": 140.9776382,
      "formatted_address": "Japan, 〒989-6117 Miyagi, Ōsaki, Furukawaasahi, 5-chōme−6−１８ ６番１８号",
      "place_id": "ChIJ4zcWfF0NiV8RlxdvAzHji3E"
    },
    "宮城県宮城県大崎市古川沢田字筒場浦１５": {
      "normalized_address": "宮城県宮城県大崎市古川沢田字筒場浦１５",
      "raw_prefecture": "宮城県",
      "raw_address": "宮城県大崎市古川沢田字筒場浦１５",
      "status": "ok",
      "updated_at": "2026-03-30T03:59:53+00:00",
      "lat": 38.5990311,
      "lng": 140.9741424,
      "formatted_address": "Tōbaura-15 Furukawasawada, Ōsaki, Miyagi 989-6232, Japan",
      "place_id": "ChIJL1pY_1oSiV8R9nZA-NCvOR8"
    },
    "宮城県宮城県大崎市古川稲葉１－８－２０": {
      "normalized_address": "宮城県宮城県大崎市古川稲葉１－８－２０",
      "raw_prefecture": "宮城県",
      "raw_address": "宮城県大崎市古川稲葉１－８－２０",
      "status": "ok",
      "updated_at": "2026-03-30T03:59:53+00:00",
      "lat": 38.5591923,
      "lng": 140.9495568,
      "formatted_address": "1-chōme-8-20 Furukawainaba, Ōsaki, Miyagi 989-6135, Japan",
      "place_id": "ChIJV-lY9qtyiV8R1DUFLnW1SfI"
    },
    "宮城県宮城県大崎市古川穂波２－９－１５": {
      "normalized_address": "宮城県宮城県大崎市古川穂波２－９－１５",
      "raw_prefecture": "宮城県",
      "raw_address": "宮城県大崎市古川穂波２－９－１５",
      "status": "ok",
      "updated_at": "2026-03-30T03:59:54+00:00",
      "lat": 38.5672127,
      "lng": 140.9441056,
      "formatted_address": "2-chōme-9-15 Furukawahonami, Ōsaki, Miyagi 989-6136, Japan",
      "place_id": "ChIJUWzetawSiV8R3J6l0Q9XcQg"
    },
    "宮城県宮城県大崎市鹿島台木間塚字小谷地３８０－１": {
      "normalized_address": "宮城県宮城県大崎市鹿島台木間塚字小谷地３８０－１",
      "raw_prefecture": "宮城県",
      "raw_address": "宮城県大崎市鹿島台木間塚字小谷地３８０－１",
      "status": "ok",
      "updated_at": "2026-03-30T03:59:54+00:00",
      "lat": 38.4763376,
      "lng": 141.1056513,
      "formatted_address": "Koyachi-380-1 Kashimadaikimazuka, Ōsaki, Miyagi 989-4102, Japan",
      "place_id": "ChIJc-sgFQegiV8R4LkNr6-Enhs"
    },
    "宮城県宮城県宮城郡七ケ浜町境山２－９－２９": {
      "normalized_address": "宮城県宮城県宮城郡七ケ浜町境山２－９－２９",
      "raw_prefecture": "宮城県",
      "raw_address": "宮城県宮城郡七ケ浜町境山２－９－２９",
      "status": "ok",
      "updated_at": "2026-03-30T03:59:54+00:00",
      "lat": 38.2992015,
      "lng": 141.041333,
      "formatted_address": "2-chōme-9-29 Sakaiyama, Shichigahama, Miyagi District, Miyagi 985-0824, Japan",
      "place_id": "ChIJxdNfQoKPiV8RcngGC-J9yzY"
    },
    "宮城県宮城県宮城郡利府町利府字新大谷地２０－１": {
      "normalized_address": "宮城県宮城県宮城郡利府町利府字新大谷地２０－１",
      "raw_prefecture": "宮城県",
      "raw_address": "宮城県宮城郡利府町利府字新大谷地２０－１",
      "status": "ok",
      "updated_at": "2026-03-30T03:59:54+00:00",
      "lat": 38.3264897,
      "lng": 140.9744611,
      "formatted_address": "Shinōyachi-20-1 Rifu, Miyagi District, Miyagi 981-0112, Japan",
      "place_id": "ChIJ____PEWEiV8RBbcXWhzm8jY"
    },
    "宮城県宮城県宮城郡利府町利府字新屋田前２２イオンモール新利府北館１Ｆ": {
      "normalized_address": "宮城県宮城県宮城郡利府町利府字新屋田前２２イオンモール新利府北館１Ｆ",
      "raw_prefecture": "宮城県",
      "raw_address": "宮城県宮城郡利府町利府字新屋田前２２イオンモール新利府北館１Ｆ",
      "status": "ok",
      "updated_at": "2026-03-30T03:59:55+00:00",
      "lat": 38.3268494,
      "lng": 140.9719782,
      "formatted_address": "Shinyatamae-22 Rifu, Miyagi District, Miyagi 981-0112, Japan",
      "place_id": "ChIJ8eAcwW-FiV8R4jiy114sszg"
    },
    "宮城県宮城県宮城郡利府町加瀬字新前谷地４７": {
      "normalized_address": "宮城県宮城県宮城郡利府町加瀬字新前谷地４７",
      "raw_prefecture": "宮城県",
      "raw_address": "宮城県宮城郡利府町加瀬字新前谷地４７",
      "status": "ok",
      "updated_at": "2026-03-30T03:59:55+00:00",
      "lat": 38.3284194,
      "lng": 140.975731,
      "formatted_address": "Shinmaeyachi-47 Kase, Rifu, Miyagi District, Miyagi 981-0111, Japan",
      "place_id": "ChIJbdrjFluEiV8RkeUv2s7GBLw"
    },
    "宮城県宮城県宮城郡利府町新中道３－１－１": {
      "normalized_address": "宮城県宮城県宮城郡利府町新中道３－１－１",
      "raw_prefecture": "宮城県",
      "raw_address": "宮城県宮城郡利府町新中道３－１－１",
      "status": "ok",
      "updated_at": "2026-03-30T03:59:55+00:00",
      "lat": 38.3216896,
      "lng": 140.9722942,
      "formatted_address": "Japan, 〒981-0114 Miyagi, Miyagi District, Rifu, Shinnakamichi, 3-chōme−１−１",
      "place_id": "ChIJPdjHAkmEiV8Rx6wEGwR7qQo"
    },
    "宮城県宮城県富谷市上桜木２－５－２": {
      "normalized_address": "宮城県宮城県富谷市上桜木２－５－２",
      "raw_prefecture": "宮城県",
      "raw_address": "宮城県富谷市上桜木２－５－２",
      "status": "ok",
      "updated_at": "2026-03-30T03:59:56+00:00",
      "lat": 38.35385429999999,
      "lng": 140.8805506,
      "formatted_address": "Japan, 〒981-3328 Miyagi, Tomiya, Kamisakuragi, 2-chōme−５−２",
      "place_id": "ChIJLUw0kiqCiV8Ri3RWnPbLQFk"
    },
    "宮城県宮城県富谷市大清水１－３３－１": {
      "normalized_address": "宮城県宮城県富谷市大清水１－３３－１",
      "raw_prefecture": "宮城県",
      "raw_address": "宮城県富谷市大清水１－３３－１",
      "status": "ok",
      "updated_at": "2026-03-30T03:59:56+00:00",
      "lat": 38.3647224,
      "lng": 140.8751238,
      "formatted_address": "Japan, 〒981-3329 Miyagi, Tomiya, Ōshimizu, 1-chōme−３３−１",
      "place_id": "ChIJUXdbaiOCiV8Rl1TMuMQ63OM"
    },
    "宮城県宮城県富谷市富谷坂松田３０": {
      "normalized_address": "宮城県宮城県富谷市富谷坂松田３０",
      "raw_prefecture": "宮城県",
      "raw_address": "宮城県富谷市富谷坂松田３０",
      "status": "ok",
      "updated_at": "2026-03-30T03:59:56+00:00",
      "lat": 38.3999043,
      "lng": 140.8953202,
      "formatted_address": "Sakamatsuta-30 Tomiya, Miyagi 981-3392, Japan",
      "place_id": "ChIJ3zMCSHF4iV8RcWACTX1ZZbk"
    },
    "宮城県宮城県富谷市石積堀田１１－１": {
      "normalized_address": "宮城県宮城県富谷市石積堀田１１－１",
      "raw_prefecture": "宮城県",
      "raw_address": "宮城県富谷市石積堀田１１－１",
      "status": "ok",
      "updated_at": "2026-03-30T03:59:57+00:00",
      "lat": 38.3472351,
      "lng": 140.9279514,
      "formatted_address": "Hotta-11-1 Ishizumori, Tomiya, Miyagi 981-3325, Japan",
      "place_id": "ChIJd4aQcJODiV8RZA9Cvq2X4y4"
    },
    "宮城県宮城県岩沼市末広１－４－１４": {
      "normalized_address": "宮城県宮城県岩沼市末広１－４－１４",
      "raw_prefecture": "宮城県",
      "raw_address": "宮城県岩沼市末広１－４－１４",
      "status": "ok",
      "updated_at": "2026-03-30T03:59:57+00:00",
      "lat": 38.1122355,
      "lng": 140.8773174,
      "formatted_address": "1-chōme-4-14 Suehiro, Iwanuma, Miyagi 989-2426, Japan",
      "place_id": "ChIJPXsG0Lciil8RTCj7p7Soz8c"
    },
    "宮城県宮城県本吉郡南三陸町歌津長羽６３－３": {
      "normalized_address": "宮城県宮城県本吉郡南三陸町歌津長羽６３－３",
      "raw_prefecture": "宮城県",
      "raw_address": "宮城県本吉郡南三陸町歌津長羽６３－３",
      "status": "ok",
      "updated_at": "2026-03-30T03:59:57+00:00",
      "lat": 38.7335439,
      "lng": 141.5345167,
      "formatted_address": "Nagaha-63-3 Utatsu, Minamisanriku, Motoyoshi District, Miyagi 988-0403, Japan",
      "place_id": "ChIJif9EFrzwiF8Rodsm3LLbUoE"
    },
    "宮城県宮城県東松島市大曲字貝田５２－６": {
      "normalized_address": "宮城県宮城県東松島市大曲字貝田５２－６",
      "raw_prefecture": "宮城県",
      "raw_address": "宮城県東松島市大曲字貝田５２－６",
      "status": "ok",
      "updated_at": "2026-03-30T03:59:57+00:00",
      "lat": 38.4279716,
      "lng": 141.2347968,
      "formatted_address": "Kaida-52-6 Ōmagari, Higashimatsushima, Miyagi 981-0502, Japan",
      "place_id": "ChIJVdEgDE6iiV8Ru0u0g5NamII"
    },
    "宮城県宮城県東松島市小松字上浮足４３": {
      "normalized_address": "宮城県宮城県東松島市小松字上浮足４３",
      "raw_prefecture": "宮城県",
      "raw_address": "宮城県東松島市小松字上浮足４３",
      "status": "ok",
      "updated_at": "2026-03-30T03:59:58+00:00",
      "lat": 38.42521929999999,
      "lng": 141.2029953,
      "formatted_address": "Kamiutari-43 Komatsu, Higashimatsushima, Miyagi 981-0504, Japan",
      "place_id": "ChIJ_6bMFBOiiV8ReX_XLqKXsgE"
    },
    "宮城県宮城県柴田郡大河原町字広表２７－８": {
      "normalized_address": "宮城県宮城県柴田郡大河原町字広表２７－８",
      "raw_prefecture": "宮城県",
      "raw_address": "宮城県柴田郡大河原町字広表２７－８",
      "status": "ok",
      "updated_at": "2026-03-30T03:59:58+00:00",
      "lat": 38.04606810000001,
      "lng": 140.7142148,
      "formatted_address": "Japan, 〒989-1225 Miyagi, Shibata District, Ogawara, Hiroomote, ２７−８",
      "place_id": "ChIJuQkueO0_il8RqeaWe8cSUTo"
    },
    "宮城県宮城県柴田郡大河原町字広表３６－２": {
      "normalized_address": "宮城県宮城県柴田郡大河原町字広表３６－２",
      "raw_prefecture": "宮城県",
      "raw_address": "宮城県柴田郡大河原町字広表３６－２",
      "status": "ok",
      "updated_at": "2026-03-30T03:59:58+00:00",
      "lat": 38.04663499999999,
      "lng": 140.7170776,
      "formatted_address": "Japan, 〒989-1225 Miyagi, Shibata District, Ogawara, Hiroomote, ３６−２",
      "place_id": "ChIJsdD8Tew_il8RsjtLfXYlYeY"
    },
    "宮城県宮城県柴田郡大河原町字新東２６－２０": {
      "normalized_address": "宮城県宮城県柴田郡大河原町字新東２６－２０",
      "raw_prefecture": "宮城県",
      "raw_address": "宮城県柴田郡大河原町字新東２６－２０",
      "status": "ok",
      "updated_at": "2026-03-30T03:59:59+00:00",
      "lat": 38.0591725,
      "lng": 140.735589,
      "formatted_address": "26-20 Shinhigashi, Ogawara, Shibata District, Miyagi 989-1246, Japan",
      "place_id": "ChIJC1yoLbQ_il8Rt36hLOvelc8"
    },
    "宮城県宮城県柴田郡川崎町大字前川字裏丁１７５－１": {
      "normalized_address": "宮城県宮城県柴田郡川崎町大字前川字裏丁１７５－１",
      "raw_prefecture": "宮城県",
      "raw_address": "宮城県柴田郡川崎町大字前川字裏丁１７５－１",
      "status": "ok",
      "updated_at": "2026-03-30T03:59:59+00:00",
      "lat": 38.1772411,
      "lng": 140.6428597,
      "formatted_address": "Urachō-175-1 Maekawa, Kawasaki, Shibata District, Miyagi 989-1501, Japan",
      "place_id": "ChIJTbZF9Nwwil8Rt_pDZI9UPBw"
    },
    "宮城県宮城県柴田郡柴田町大字中名生字佐野３４－４": {
      "normalized_address": "宮城県宮城県柴田郡柴田町大字中名生字佐野３４－４",
      "raw_prefecture": "宮城県",
      "raw_address": "宮城県柴田郡柴田町大字中名生字佐野３４－４",
      "status": "ok",
      "updated_at": "2026-03-30T03:59:59+00:00",
      "lat": 38.0610892,
      "lng": 140.7964548,
      "formatted_address": "Sano-34-4 Nakanomyō, Shibata, Shibata District, Miyagi 989-1612, Japan",
      "place_id": "ChIJ4U7GWPgVil8RJEdn9Pq8MKU"
    },
    "宮城県宮城県柴田郡柴田町槻木新町１－３－２６": {
      "normalized_address": "宮城県宮城県柴田郡柴田町槻木新町１－３－２６",
      "raw_prefecture": "宮城県",
      "raw_address": "宮城県柴田郡柴田町槻木新町１－３－２６",
      "status": "ok",
      "updated_at": "2026-03-30T03:59:59+00:00",
      "lat": 38.0797579,
      "lng": 140.8111269,
      "formatted_address": "1-chōme-3-26 Tsukinokishinmachi, Shibata, Shibata District, Miyagi 989-1751, Japan",
      "place_id": "ChIJ1aGK3-w9il8RVjpGxKtc54Y"
    },
    "宮城県宮城県柴田郡柴田町船岡中央２－５－２６": {
      "normalized_address": "宮城県宮城県柴田郡柴田町船岡中央２－５－２６",
      "raw_prefecture": "宮城県",
      "raw_address": "宮城県柴田郡柴田町船岡中央２－５－２６",
      "status": "ok",
      "updated_at": "2026-03-30T04:00:00+00:00",
      "lat": 38.0555728,
      "lng": 140.7680525,
      "formatted_address": "2-chōme-5-26 Funaokachūō, Shibata, Shibata District, Miyagi 989-1601, Japan",
      "place_id": "ChIJ-aMlCSY-il8RIQ-OQbRduMk"
    },
    "宮城県宮城県柴田郡柴田町西船迫２－１－１５": {
      "normalized_address": "宮城県宮城県柴田郡柴田町西船迫２－１－１５",
      "raw_prefecture": "宮城県",
      "raw_address": "宮城県柴田郡柴田町西船迫２－１－１５",
      "status": "ok",
      "updated_at": "2026-03-30T04:00:00+00:00",
      "lat": 38.0638751,
      "lng": 140.7629581,
      "formatted_address": "2-chōme-1-15 Nishifunabasama, Shibata, Shibata District, Miyagi 989-1622, Japan",
      "place_id": "ChIJBZhOuT4-il8Rz1QibUJx9jw"
    },
    "宮城県宮城県栗原市志波姫新熊谷１１番": {
      "normalized_address": "宮城県宮城県栗原市志波姫新熊谷１１番",
      "raw_prefecture": "宮城県",
      "raw_address": "宮城県栗原市志波姫新熊谷１１番",
      "status": "ok",
      "updated_at": "2026-03-30T04:00:01+00:00",
      "lat": 38.7480368,
      "lng": 141.0693943,
      "formatted_address": "Japan, 〒989-5612 Miyagi, Kurihara, Shiwahime Shinkumaya, １１ 11番",
      "place_id": "ChIJ68iVBU0fiV8Ri9o6J0z-qpU"
    },
    "宮城県宮城県栗原市瀬峰下田２０６－７": {
      "normalized_address": "宮城県宮城県栗原市瀬峰下田２０６－７",
      "raw_prefecture": "宮城県",
      "raw_address": "宮城県栗原市瀬峰下田２０６－７",
      "status": "ok",
      "updated_at": "2026-03-30T04:00:01+00:00",
      "lat": 38.6503484,
      "lng": 141.0768362,
      "formatted_address": "Shimoda-206-7 Semine, Kurihara, Miyagi 989-4521, Japan",
      "place_id": "ChIJSfy1-n0QiV8RL2gElFqJl6M"
    },
    "宮城県宮城県栗原市築館宮野中央２－３－７": {
      "normalized_address": "宮城県宮城県栗原市築館宮野中央２－３－７",
      "raw_prefecture": "宮城県",
      "raw_address": "宮城県栗原市築館宮野中央２－３－７",
      "status": "ok",
      "updated_at": "2026-03-30T04:00:01+00:00",
      "lat": 38.7485977,
      "lng": 141.0170964,
      "formatted_address": "2-chōme-3-7 Tsukidatemiyanochūō, Kurihara, Miyagi 987-2205, Japan",
      "place_id": "ChIJRVx4MW4iiV8R47bNM8P2A5A"
    },
    "宮城県宮城県栗原市築館藤木１－４８": {
      "normalized_address": "宮城県宮城県栗原市築館藤木１－４８",
      "raw_prefecture": "宮城県",
      "raw_address": "宮城県栗原市築館藤木１－４８",
      "status": "ok",
      "updated_at": "2026-03-30T04:00:02+00:00",
      "lat": 38.7364212,
      "lng": 141.0213473,
      "formatted_address": "Japan, 〒987-2251 Miyagi, Kurihara, Tsukidatefujiki, 1−４８ 1番48号",
      "place_id": "ChIJr60YR4EYiV8RMiLpRW70fIo"
    },
    "宮城県宮城県栗原市金成小迫荒崎７３": {
      "normalized_address": "宮城県宮城県栗原市金成小迫荒崎７３",
      "raw_prefecture": "宮城県",
      "raw_address": "宮城県栗原市金成小迫荒崎７３",
      "status": "ok",
      "updated_at": "2026-03-30T04:00:02+00:00",
      "lat": 38.8035798,
      "lng": 141.0669985,
      "formatted_address": "Obasamaarasaki-73 Kannari, Kurihara, Miyagi 989-5184, Japan",
      "place_id": "ChIJsT0htvEgiV8Rb_B4DJyrFm0"
    },
    "宮城県宮城県栗原市鶯沢南郷辻前９５－８": {
      "normalized_address": "宮城県宮城県栗原市鶯沢南郷辻前９５－８",
      "raw_prefecture": "宮城県",
      "raw_address": "宮城県栗原市鶯沢南郷辻前９５－８",
      "status": "ok",
      "updated_at": "2026-03-30T04:00:02+00:00",
      "lat": 38.8098554,
      "lng": 140.9482583,
      "formatted_address": "Nangotsujimae Uguisuzawa, Kurihara, Miyagi 989-5402, Japan",
      "place_id": "ChIJ9zQx8SQkiV8RB1cN1GjW1L8"
    },
    "宮城県宮城県気仙沼市唐桑町神の倉１１５－３０": {
      "normalized_address": "宮城県宮城県気仙沼市唐桑町神の倉１１５－３０",
      "raw_prefecture": "宮城県",
      "raw_address": "宮城県気仙沼市唐桑町神の倉１１５－３０",
      "status": "ok",
      "updated_at": "2026-03-30T04:00:02+00:00",
      "lat": 38.8735469,
      "lng": 141.6627193,
      "formatted_address": "115-30 Karakuwachō Kannokura, Kesennuma, Miyagi 988-0553, Japan",
      "place_id": "ChIJnXEgo0mSiF8RG2iy_DnPXSI"
    },
    "宮城県宮城県気仙沼市字赤岩舘下６－１外": {
      "normalized_address": "宮城県宮城県気仙沼市字赤岩舘下６－１外",
      "raw_prefecture": "宮城県",
      "raw_address": "宮城県気仙沼市字赤岩舘下６－１外",
      "status": "ok",
      "updated_at": "2026-03-30T04:00:03+00:00",
      "lat": 38.907641,
      "lng": 141.5703316,
      "formatted_address": "Kesennuma, Miyagi, Japan",
      "place_id": "ChIJu2OZ_v6UiF8Rd4p3l7LihwA"
    },
    "宮城県宮城県気仙沼市本吉町津谷新明戸１４９": {
      "normalized_address": "宮城県宮城県気仙沼市本吉町津谷新明戸１４９",
      "raw_prefecture": "宮城県",
      "raw_address": "宮城県気仙沼市本吉町津谷新明戸１４９",
      "status": "ok",
      "updated_at": "2026-03-30T04:00:03+00:00",
      "lat": 38.7950759,
      "lng": 141.5012715,
      "formatted_address": "149 Motoyoshichō Tsuyashinakedo, Kesennuma, Miyagi 988-0381, Japan",
      "place_id": "ChIJx1_3oDnuiF8Rdrr1Votj_Zs"
    },
    "宮城県宮城県気仙沼市東八幡前７０－２": {
      "normalized_address": "宮城県宮城県気仙沼市東八幡前７０－２",
      "raw_prefecture": "宮城県",
      "raw_address": "宮城県気仙沼市東八幡前７０－２",
      "status": "ok",
      "updated_at": "2026-03-30T04:00:03+00:00",
      "lat": 38.9198961,
      "lng": 141.5854915,
      "formatted_address": "70-2 Higashihachimanmae, Kesennuma, Miyagi 988-0811, Japan",
      "place_id": "ChIJgydBuEuUiF8RMeCeK_UIplk"
    },
    "宮城県宮城県気仙沼市東新城２－１１－１９": {
      "normalized_address": "宮城県宮城県気仙沼市東新城２－１１－１９",
      "raw_prefecture": "宮城県",
      "raw_address": "宮城県気仙沼市東新城２－１１－１９",
      "status": "ok",
      "updated_at": "2026-03-30T04:00:04+00:00",
      "lat": 38.9052911,
      "lng": 141.550429,
      "formatted_address": "Japan, 〒988-0066 Miyagi, Kesennuma, Higashishinjō, 2-chōme−１１−１９",
      "place_id": "ChIJienbzeaUiF8RTD2NhWaG49k"
    },
    "宮城県宮城県気仙沼市松川前９４": {
      "normalized_address": "宮城県宮城県気仙沼市松川前９４",
      "raw_prefecture": "宮城県",
      "raw_address": "宮城県気仙沼市松川前９４",
      "status": "ok",
      "updated_at": "2026-03-30T04:00:04+00:00",
      "lat": 38.9135071,
      "lng": 141.5463412,
      "formatted_address": "94 Matsukawamae, Kesennuma, Miyagi 988-0853, Japan",
      "place_id": "ChIJV0NoYRuViF8RT3KRTOK07vw"
    },
    "宮城県宮城県気仙沼市赤岩字石兜３８": {
      "normalized_address": "宮城県宮城県気仙沼市赤岩字石兜３８",
      "raw_prefecture": "宮城県",
      "raw_address": "宮城県気仙沼市赤岩字石兜３８",
      "status": "ok",
      "updated_at": "2026-03-30T04:00:04+00:00",
      "lat": 38.8859964,
      "lng": 141.5760543,
      "formatted_address": "117 Akaiwaoimatsu, Kesennuma, Miyagi 988-0105, Japan",
      "place_id": "ChIJx58N2KGUiF8RFYT0oi0LqcA"
    },
    "宮城県宮城県気仙沼市赤岩泥ノ木３２－２９": {
      "normalized_address": "宮城県宮城県気仙沼市赤岩泥ノ木３２－２９",
      "raw_prefecture": "宮城県",
      "raw_address": "宮城県気仙沼市赤岩泥ノ木３２－２９",
      "status": "ok",
      "updated_at": "2026-03-30T04:00:05+00:00",
      "lat": 38.8805158,
      "lng": 141.5683515,
      "formatted_address": "32-29 Akaiwadoronoki, Kesennuma, Miyagi 988-0183, Japan",
      "place_id": "ChIJ414b-6eUiF8RxMsdcGrt430"
    },
    "宮城県宮城県気仙沼市赤岩舘下７１－９": {
      "normalized_address": "宮城県宮城県気仙沼市赤岩舘下７１－９",
      "raw_prefecture": "宮城県",
      "raw_address": "宮城県気仙沼市赤岩舘下７１－９",
      "status": "ok",
      "updated_at": "2026-03-30T04:00:05+00:00",
      "lat": 38.88993749999999,
      "lng": 141.5714355,
      "formatted_address": "71-9 Akaiwatateshita, Kesennuma, Miyagi 988-0101, Japan",
      "place_id": "ChIJ4-xoF5iUiF8RqAlLzu4zS3U"
    },
    "宮城県宮城県登米市南方町新丸ノ内６１": {
      "normalized_address": "宮城県宮城県登米市南方町新丸ノ内６１",
      "raw_prefecture": "宮城県",
      "raw_address": "宮城県登米市南方町新丸ノ内６１",
      "status": "ok",
      "updated_at": "2026-03-30T04:00:05+00:00",
      "lat": 38.6848064,
      "lng": 141.1821834,
      "formatted_address": "Shinmarunouchi Minamikata, Tome, Miyagi 987-0404, Japan",
      "place_id": "ChIJ7QPA6oQciV8RGHbThqr-jvE"
    },
    "宮城県宮城県登米市南方町新島前４６－１イオンタウン佐沼": {
      "normalized_address": "宮城県宮城県登米市南方町新島前４６－１イオンタウン佐沼",
      "raw_prefecture": "宮城県",
      "raw_address": "宮城県登米市南方町新島前４６－１イオンタウン佐沼",
      "status": "ok",
      "updated_at": "2026-03-30T04:00:05+00:00",
      "lat": 38.6834466,
      "lng": 141.1838777,
      "formatted_address": "Shinshimamae-46-1 Minamikatamachi, Tome, Miyagi 987-0404, Japan",
      "place_id": "ChIJEefVaZsciV8RpwgTjAgWnDU"
    },
    "宮城県宮城県登米市南方町新島前４６－１イオンタウン佐沼内": {
      "normalized_address": "宮城県宮城県登米市南方町新島前４６－１イオンタウン佐沼内",
      "raw_prefecture": "宮城県",
      "raw_address": "宮城県登米市南方町新島前４６－１イオンタウン佐沼内",
      "status": "ok",
      "updated_at": "2026-03-30T04:00:06+00:00",
      "lat": 38.6834466,
      "lng": 141.1838777,
      "formatted_address": "Shinshimamae-46-1 Minamikatamachi, Tome, Miyagi 987-0404, Japan",
      "place_id": "ChIJEefVaZsciV8RpwgTjAgWnDU"
    },
    "宮城県宮城県登米市石越町南郷字西門沖２２": {
      "normalized_address": "宮城県宮城県登米市石越町南郷字西門沖２２",
      "raw_prefecture": "宮城県",
      "raw_address": "宮城県登米市石越町南郷字西門沖２２",
      "status": "ok",
      "updated_at": "2026-03-30T04:00:06+00:00",
      "lat": 38.76873399999999,
      "lng": 141.1546336,
      "formatted_address": "Nishimonoki-22 Ishikoshimachi Minamigō, Tome, Miyagi 989-4703, Japan",
      "place_id": "ChIJozCkTNsfiV8RYhuHc1VuXKQ"
    },
    "宮城県宮城県登米市迫町佐沼江合３－２－５": {
      "normalized_address": "宮城県宮城県登米市迫町佐沼江合３－２－５",
      "raw_prefecture": "宮城県",
      "raw_address": "宮城県登米市迫町佐沼江合３－２－５",
      "status": "ok",
      "updated_at": "2026-03-30T04:00:06+00:00",
      "lat": 38.6820079,
      "lng": 141.1866607,
      "formatted_address": "Japan, 〒987-0511 Miyagi, Tome, Hasamachōsanuma, Eai 3-chōme−２−５",
      "place_id": "ChIJ44wjpZsciV8RoSwuza_UWIA"
    },
    "宮城県宮城県白石市大平森合字森合沖１４０": {
      "normalized_address": "宮城県宮城県白石市大平森合字森合沖１４０",
      "raw_prefecture": "宮城県",
      "raw_address": "宮城県白石市大平森合字森合沖１４０",
      "status": "ok",
      "updated_at": "2026-03-30T04:00:07+00:00",
      "lat": 37.9945969,
      "lng": 140.6109216,
      "formatted_address": "Moriaioki-140 Ōdairamoriai, Shiroishi, Miyagi 989-0217, Japan",
      "place_id": "ChIJ8dNfjQxCil8R-_03p2d-VjA"
    },
    "宮城県宮城県石巻市伊原津２－１１－５５": {
      "normalized_address": "宮城県宮城県石巻市伊原津２－１１－５５",
      "raw_prefecture": "宮城県",
      "raw_address": "宮城県石巻市伊原津２－１１－５５",
      "status": "ok",
      "updated_at": "2026-03-30T04:00:07+00:00",
      "lat": 38.4188546,
      "lng": 141.3395105,
      "formatted_address": "2-chōme-11-55 Ibarazu, Ishinomaki, Miyagi 986-0041, Japan",
      "place_id": "ChIJKTgLllO7iV8Ry5UsNi9z4so"
    },
    "宮城県宮城県石巻市前谷地字西横須賀２５－２": {
      "normalized_address": "宮城県宮城県石巻市前谷地字西横須賀２５－２",
      "raw_prefecture": "宮城県",
      "raw_address": "宮城県石巻市前谷地字西横須賀２５－２",
      "status": "ok",
      "updated_at": "2026-03-30T04:00:07+00:00",
      "lat": 38.5119795,
      "lng": 141.1910722,
      "formatted_address": "Nishiyokosuka-25-2 Maeyachi, Ishinomaki, Miyagi 987-1101, Japan",
      "place_id": "ChIJoewRQv0JiV8R4OygCOxR8cg"
    },
    "宮城県宮城県石巻市南中里２－８－１": {
      "normalized_address": "宮城県宮城県石巻市南中里２－８－１",
      "raw_prefecture": "宮城県",
      "raw_address": "宮城県石巻市南中里２－８－１",
      "status": "ok",
      "updated_at": "2026-03-30T04:00:08+00:00",
      "lat": 38.4398768,
      "lng": 141.3010593,
      "formatted_address": "2-chōme-8-1 Minaminakasato, Ishinomaki, Miyagi 986-0814, Japan",
      "place_id": "ChIJPwM3Q4GkiV8RgOSr-uKgOh8"
    },
    "宮城県宮城県石巻市恵み野３－３－３２": {
      "normalized_address": "宮城県宮城県石巻市恵み野３－３－３２",
      "raw_prefecture": "宮城県",
      "raw_address": "宮城県石巻市恵み野３－３－３２",
      "status": "ok",
      "updated_at": "2026-03-30T04:00:08+00:00",
      "lat": 38.4445112,
      "lng": 141.2689418,
      "formatted_address": "Japan, 〒986-0868 Miyagi, Ishinomaki, Megumino, 3-chōme−３−３２",
      "place_id": "ChIJNQl9_JGjiV8RJw1_4glPIWQ"
    },
    "宮城県宮城県石巻市恵み野３－４－４０": {
      "normalized_address": "宮城県宮城県石巻市恵み野３－４－４０",
      "raw_prefecture": "宮城県",
      "raw_address": "宮城県石巻市恵み野３－４－４０",
      "status": "ok",
      "updated_at": "2026-03-30T04:00:08+00:00",
      "lat": 38.4463972,
      "lng": 141.2690353,
      "formatted_address": "3-chōme-4-40 Megumino, Ishinomaki, Miyagi 986-0868, Japan",
      "place_id": "ChIJI3bbuY2jiV8RT8nYKIAvP3w"
    },
    "宮城県宮城県石巻市流留字七勺１－１": {
      "normalized_address": "宮城県宮城県石巻市流留字七勺１－１",
      "raw_prefecture": "宮城県",
      "raw_address": "宮城県石巻市流留字七勺１－１",
      "status": "ok",
      "updated_at": "2026-03-30T04:00:08+00:00",
      "lat": 38.4282043,
      "lng": 141.3761448,
      "formatted_address": "Nanaku-1-1 Nagaru, Ishinomaki, Miyagi 986-2103, Japan",
      "place_id": "ChIJqfLovii7iV8RG2yFesTHha0"
    },
    "宮城県宮城県石巻市茜平４－１０４": {
      "normalized_address": "宮城県宮城県石巻市茜平４－１０４",
      "raw_prefecture": "宮城県",
      "raw_address": "宮城県石巻市茜平４－１０４",
      "status": "ok",
      "updated_at": "2026-03-30T04:00:09+00:00",
      "lat": 38.4475089,
      "lng": 141.2660221,
      "formatted_address": "4-chōme-104 Akanedaira, Ishinomaki, Miyagi 986-0866, Japan",
      "place_id": "ChIJ891cWo2jiV8Rp-6gZNDo7Pc"
    },
    "宮城県宮城県石巻市蛇田字太田切２６": {
      "normalized_address": "宮城県宮城県石巻市蛇田字太田切２６",
      "raw_prefecture": "宮城県",
      "raw_address": "宮城県石巻市蛇田字太田切２６",
      "status": "ok",
      "updated_at": "2026-03-30T04:00:09+00:00",
      "lat": 38.4424968,
      "lng": 141.2781376,
      "formatted_address": "Hebita, Ishinomaki, Miyagi 986-0861, Japan",
      "place_id": "ChIJzeKbugqkiV8RX-c8xaTD17g"
    },
    "宮城県宮城県石巻市門脇字二番谷地１３－８５": {
      "normalized_address": "宮城県宮城県石巻市門脇字二番谷地１３－８５",
      "raw_prefecture": "宮城県",
      "raw_address": "宮城県石巻市門脇字二番谷地１３－８５",
      "status": "ok",
      "updated_at": "2026-03-30T04:00:09+00:00",
      "lat": 38.43535869999999,
      "lng": 141.2744673,
      "formatted_address": "Nibanyachi-13-85 Kadonowaki, Ishinomaki, Miyagi 986-0853, Japan",
      "place_id": "ChIJg_fkep6jiV8RADZCV-uIk-E"
    },
    "宮城県宮城県角田市角田字扇町８－１": {
      "normalized_address": "宮城県宮城県角田市角田字扇町８－１",
      "raw_prefecture": "宮城県",
      "raw_address": "宮城県角田市角田字扇町８－１",
      "status": "ok",
      "updated_at": "2026-03-30T04:00:10+00:00",
      "lat": 37.9786019,
      "lng": 140.7863781,
      "formatted_address": "Japan, 〒981-1505 Miyagi, Kakuda, Ōgimachi−８−１",
      "place_id": "ChIJvxw4-qRsil8RKuIVrBgn3FA"
    },
    "宮城県宮城県遠田郡涌谷町字渋江１９５－１": {
      "normalized_address": "宮城県宮城県遠田郡涌谷町字渋江１９５－１",
      "raw_prefecture": "宮城県",
      "raw_address": "宮城県遠田郡涌谷町字渋江１９５－１",
      "status": "ok",
      "updated_at": "2026-03-30T04:00:10+00:00",
      "lat": 38.5384374,
      "lng": 141.1189623,
      "formatted_address": "195-1 Shibue, Wakuya, Toda District, Miyagi 987-0113, Japan",
      "place_id": "ChIJ67UseecLiV8RGylzqouxREE"
    },
    "宮城県宮城県遠田郡涌谷町涌谷字洞ヶ崎５": {
      "normalized_address": "宮城県宮城県遠田郡涌谷町涌谷字洞ヶ崎５",
      "raw_prefecture": "宮城県",
      "raw_address": "宮城県遠田郡涌谷町涌谷字洞ヶ崎５",
      "status": "ok",
      "updated_at": "2026-03-30T04:00:10+00:00",
      "lat": 38.5370055,
      "lng": 141.1476172,
      "formatted_address": "Dōgasaki-5 Wakuya, Toda District, Miyagi 987-0121, Japan",
      "place_id": "ChIJ70yjS3oJiV8RQlHcDCp0HaE"
    },
    "宮城県宮城県遠田郡美里町北浦字新苗代下１３": {
      "normalized_address": "宮城県宮城県遠田郡美里町北浦字新苗代下１３",
      "raw_prefecture": "宮城県",
      "raw_address": "宮城県遠田郡美里町北浦字新苗代下１３",
      "status": "ok",
      "updated_at": "2026-03-30T04:00:10+00:00",
      "lat": 38.5602625,
      "lng": 141.0427414,
      "formatted_address": "Shinnawashiroshita-13 Kitaura, Misato, Toda District, Miyagi 987-0005, Japan",
      "place_id": "ChIJu1JhdFIMiV8RCsui2pLKxyg"
    },
    "宮城県宮城県遠田郡美里町字藤ヶ崎町６７": {
      "normalized_address": "宮城県宮城県遠田郡美里町字藤ヶ崎町６７",
      "raw_prefecture": "宮城県",
      "raw_address": "宮城県遠田郡美里町字藤ヶ崎町６７",
      "status": "ok",
      "updated_at": "2026-03-30T04:00:11+00:00",
      "lat": 38.5410097,
      "lng": 141.0624795,
      "formatted_address": "67 Fujigasakichō, Misato, Toda District, Miyagi 987-0002, Japan",
      "place_id": "ChIJ4Z3WVnwMiV8RfqReG-6Vd6o"
    },
    "宮城県宮城県遠田郡美里町牛飼字八反１０３": {
      "normalized_address": "宮城県宮城県遠田郡美里町牛飼字八反１０３",
      "raw_prefecture": "宮城県",
      "raw_address": "宮城県遠田郡美里町牛飼字八反１０３",
      "status": "ok",
      "updated_at": "2026-03-30T04:00:11+00:00",
      "lat": 38.5516745,
      "lng": 141.0539533,
      "formatted_address": "Hattan-103 Ushikai, Misato, Toda District, Miyagi 987-0004, Japan",
      "place_id": "ChIJk9dG_VwMiV8R-BcnxwBI-wc"
    },
    "宮城県宮城県黒川郡大和町吉岡まほろば１－３－５": {
      "normalized_address": "宮城県宮城県黒川郡大和町吉岡まほろば１－３－５",
      "raw_prefecture": "宮城県",
      "raw_address": "宮城県黒川郡大和町吉岡まほろば１－３－５",
      "status": "ok",
      "updated_at": "2026-03-30T04:00:11+00:00",
      "lat": 38.4360911,
      "lng": 140.8868,
      "formatted_address": "Japan, 〒981-3632 Miyagi, Kurokawa District, Taiwa, Yoshiokamahoroba, 1-chōme−３−５",
      "place_id": "ChIJUVRy6Hx3iV8Rol23je6sqLM"
    },
    "宮城県宮城県黒川郡大和町吉岡まほろば１－６－１３": {
      "normalized_address": "宮城県宮城県黒川郡大和町吉岡まほろば１－６－１３",
      "raw_prefecture": "宮城県",
      "raw_address": "宮城県黒川郡大和町吉岡まほろば１－６－１３",
      "status": "ok",
      "updated_at": "2026-03-30T04:00:12+00:00",
      "lat": 38.4385561,
      "lng": 140.8808713,
      "formatted_address": "Japan, 〒981-3632 Miyagi, Kurokawa District, Taiwa, Yoshiokamahoroba, 1-chōme−６−１３",
      "place_id": "ChIJW8IONmJ3iV8RHCHDqa9iFsQ"
    },
    "宮城県宮城県黒川郡大和町吉田字根古北５０": {
      "normalized_address": "宮城県宮城県黒川郡大和町吉田字根古北５０",
      "raw_prefecture": "宮城県",
      "raw_address": "宮城県黒川郡大和町吉田字根古北５０",
      "status": "ok",
      "updated_at": "2026-03-30T04:00:12+00:00",
      "lat": 38.4428232,
      "lng": 140.7968158,
      "formatted_address": "Nekokita-50 Yoshida, Taiwa, Kurokawa District, Miyagi 981-3625, Japan",
      "place_id": "ChIJDSpWmcx7iV8R1c4TafmZq5M"
    }
  }
}
