{
  "version": 1,
  "generated_at": "2026-03-30T04:00:56+00:00",
  "source_file": "docs/data/1-06.json",
  "entries": {
    "山形県山形県上山市仙石７９１": {
      "normalized_address": "山形県山形県上山市仙石７９１",
      "raw_prefecture": "山形県",
      "raw_address": "山形県上山市仙石７９１",
      "status": "ok",
      "updated_at": "2026-03-30T04:00:36+00:00",
      "lat": 38.1521927,
      "lng": 140.2873155,
      "formatted_address": "791 Sengoku, Kaminoyama, Yamagata 999-3122, Japan",
      "place_id": "ChIJq8sAqdKyi18R0KMo3JSO2LM"
    },
    "山形県山形県上山市南町４－６": {
      "normalized_address": "山形県山形県上山市南町４－６",
      "raw_prefecture": "山形県",
      "raw_address": "山形県上山市南町４－６",
      "status": "ok",
      "updated_at": "2026-03-30T04:00:36+00:00",
      "lat": 38.1496396,
      "lng": 140.2755899,
      "formatted_address": "4-6 Minamimachi, Kaminoyama, Yamagata 999-3135, Japan",
      "place_id": "ChIJifU-Z8qyi18RmizyTvEwMIo"
    },
    "山形県山形県南陽市郡山５７８": {
      "normalized_address": "山形県山形県南陽市郡山５７８",
      "raw_prefecture": "山形県",
      "raw_address": "山形県南陽市郡山５７８",
      "status": "ok",
      "updated_at": "2026-03-30T04:00:37+00:00",
      "lat": 38.0440716,
      "lng": 140.1547316,
      "formatted_address": "Japan, 〒999-2241 Yamagata, Nanyō, Kōriyama, ５７８ ヤマザワ南陽店",
      "place_id": "ChIJUboNVI1Vil8RRawyHIxkmEE"
    },
    "山形県山形県天童市久野本１－４－３９": {
      "normalized_address": "山形県山形県天童市久野本１－４－３９",
      "raw_prefecture": "山形県",
      "raw_address": "山形県天童市久野本１－４－３９",
      "status": "ok",
      "updated_at": "2026-03-30T04:00:37+00:00",
      "lat": 38.3677958,
      "lng": 140.374147,
      "formatted_address": "1-chōme-4-39 Kunomoto, Tendō, Yamagata 994-0012, Japan",
      "place_id": "ChIJ5cqZpgPFi18R_YvyfyaDBdk"
    },
    "山形県山形県天童市南町１－２－１": {
      "normalized_address": "山形県山形県天童市南町１－２－１",
      "raw_prefecture": "山形県",
      "raw_address": "山形県天童市南町１－２－１",
      "status": "ok",
      "updated_at": "2026-03-30T04:00:37+00:00",
      "lat": 38.3443949,
      "lng": 140.3736313,
      "formatted_address": "Japan, 〒994-0049 Yamagata, Tendō, Minamimachi, 1-chōme−2−１ 2番1号",
      "place_id": "ChIJUTHrPZLFi18R3H2L9n220d0"
    },
    "山形県山形県天童市東本町３－２－７": {
      "normalized_address": "山形県山形県天童市東本町３－２－７",
      "raw_prefecture": "山形県",
      "raw_address": "山形県天童市東本町３－２－７",
      "status": "ok",
      "updated_at": "2026-03-30T04:00:38+00:00",
      "lat": 38.3590974,
      "lng": 140.3787092,
      "formatted_address": "3-chōme-2-7 Higashihonchō, Tendō, Yamagata 994-0026, Japan",
      "place_id": "ChIJs7iUiwnFi18R0VVjIQkbva0"
    },
    "山形県山形県天童市糠塚３－１－１５": {
      "normalized_address": "山形県山形県天童市糠塚３－１－１５",
      "raw_prefecture": "山形県",
      "raw_address": "山形県天童市糠塚３－１－１５",
      "status": "ok",
      "updated_at": "2026-03-30T04:00:38+00:00",
      "lat": 38.3683971,
      "lng": 140.382447,
      "formatted_address": "Japan, 〒994-0014 Yamagata, Tendō, Nukazuka, 3-chōme−1−１５ １番１５号",
      "place_id": "ChIJEY90oBvFi18RzS-pN8Dd46k"
    },
    "山形県山形県天童市芳賀タウン北四丁目１番１号": {
      "normalized_address": "山形県山形県天童市芳賀タウン北四丁目１番１号",
      "raw_prefecture": "山形県",
      "raw_address": "山形県天童市芳賀タウン北四丁目１番１号",
      "status": "ok",
      "updated_at": "2026-03-30T04:00:38+00:00",
      "lat": 38.3472618,
      "lng": 140.3656897,
      "formatted_address": "Japan, 〒994-0082 Yamagata, Tendō, Haga Town Kita, 4-chōme−2−１ イオンモール天童",
      "place_id": "ChIJ72-UqJXFi18R8HhQ8_TLZeI"
    },
    "山形県山形県天童市芳賀タウン北３－１２－１０": {
      "normalized_address": "山形県山形県天童市芳賀タウン北３－１２－１０",
      "raw_prefecture": "山形県",
      "raw_address": "山形県天童市芳賀タウン北３－１２－１０",
      "status": "ok",
      "updated_at": "2026-03-30T04:00:38+00:00",
      "lat": 38.3433939,
      "lng": 140.3606991,
      "formatted_address": "3-chōme-12-10 Haga Town Kita, Tendō, Yamagata 994-0082, Japan",
      "place_id": "ChIJxZEE6-vFi18RYZrSMsWBgqQ"
    },
    "山形県山形県寒河江市大字寒河江字塩水６４": {
      "normalized_address": "山形県山形県寒河江市大字寒河江字塩水６４",
      "raw_prefecture": "山形県",
      "raw_address": "山形県寒河江市大字寒河江字塩水６４",
      "status": "ok",
      "updated_at": "2026-03-30T04:00:39+00:00",
      "lat": 38.37830040000001,
      "lng": 140.2602829,
      "formatted_address": "Shiomizu-64 Sagae, Yamagata 991-0041, Japan",
      "place_id": "ChIJC4aFrV3Bi18R8ou7OoRp1JU"
    },
    "山形県山形県寒河江市大字寒河江字赤田７１－４": {
      "normalized_address": "山形県山形県寒河江市大字寒河江字赤田７１－４",
      "raw_prefecture": "山形県",
      "raw_address": "山形県寒河江市大字寒河江字赤田７１－４",
      "status": "ok",
      "updated_at": "2026-03-30T04:00:39+00:00",
      "lat": 38.3735396,
      "lng": 140.2867908,
      "formatted_address": "Japan, 〒991-0041 Yamagata, Sagae, Akada−７１−４",
      "place_id": "ChIJN5GPa__Di18RIJx-r5lnjNs"
    },
    "山形県山形県寒河江市新山町１００": {
      "normalized_address": "山形県山形県寒河江市新山町１００",
      "raw_prefecture": "山形県",
      "raw_address": "山形県寒河江市新山町１００",
      "status": "ok",
      "updated_at": "2026-03-30T04:00:39+00:00",
      "lat": 38.3720897,
      "lng": 140.292204,
      "formatted_address": "100 Shinzanmachi, Sagae, Yamagata 991-0012, Japan",
      "place_id": "ChIJtcGQ0wbEi18R8L-ev3z_yZY"
    },
    "山形県山形県寒河江市新山１－５７－２": {
      "normalized_address": "山形県山形県寒河江市新山１－５７－２",
      "raw_prefecture": "山形県",
      "raw_address": "山形県寒河江市新山１－５７－２",
      "status": "ok",
      "updated_at": "2026-03-30T04:00:40+00:00",
      "lat": 38.3724461,
      "lng": 140.2901021,
      "formatted_address": "1-chōme-57-2 Shinzan, Sagae, Yamagata 991-0047, Japan",
      "place_id": "ChIJOyrtxQDEi18RgPSyMe4jtMo"
    },
    "山形県山形県寒河江市西根北町９－７": {
      "normalized_address": "山形県山形県寒河江市西根北町９－７",
      "raw_prefecture": "山形県",
      "raw_address": "山形県寒河江市西根北町９－７",
      "status": "ok",
      "updated_at": "2026-03-30T04:00:40+00:00",
      "lat": 38.3915191,
      "lng": 140.2806791,
      "formatted_address": "9-7 Nishine Kitamachi, Sagae, Yamagata 991-0004, Japan",
      "place_id": "ChIJu_soHcHDi18RjaAWonZ63gg"
    },
    "山形県山形県尾花沢市大字尾花沢字下新田１３５９－３": {
      "normalized_address": "山形県山形県尾花沢市大字尾花沢字下新田１３５９－３",
      "raw_prefecture": "山形県",
      "raw_address": "山形県尾花沢市大字尾花沢字下新田１３５９－３",
      "status": "ok",
      "updated_at": "2026-03-30T04:00:40+00:00",
      "lat": 38.5940975,
      "lng": 140.4163938,
      "formatted_address": "Obanazawa, Yamagata 999-4221, Japan",
      "place_id": "ChIJrdNguQhZiV8R0Q5Mnp8gop4"
    },
    "山形県山形県尾花沢市大字尾花沢１７７９－２": {
      "normalized_address": "山形県山形県尾花沢市大字尾花沢１７７９－２",
      "raw_prefecture": "山形県",
      "raw_address": "山形県尾花沢市大字尾花沢１７７９－２",
      "status": "ok",
      "updated_at": "2026-03-30T04:00:41+00:00",
      "lat": 38.5963611,
      "lng": 140.3979188,
      "formatted_address": "1779-2 Obanazawa, Yamagata 999-4221, Japan",
      "place_id": "ChIJuy-4mv1YiV8RQLac9pcbudE"
    },
    "山形県山形県山形市下条町２－１８－３２": {
      "normalized_address": "山形県山形県山形市下条町２－１８－３２",
      "raw_prefecture": "山形県",
      "raw_address": "山形県山形市下条町２－１８－３２",
      "status": "ok",
      "updated_at": "2026-03-30T04:00:41+00:00",
      "lat": 38.26093640000001,
      "lng": 140.3236919,
      "formatted_address": "2-chōme-18-32 Shimojōmachi, Yamagata, 990-0823, Japan",
      "place_id": "ChIJuQTgdiG2i18R-j7m0q6d-9Q"
    },
    "山形県山形県山形市前田町１８－４５": {
      "normalized_address": "山形県山形県山形市前田町１８－４５",
      "raw_prefecture": "山形県",
      "raw_address": "山形県山形市前田町１８－４５",
      "status": "ok",
      "updated_at": "2026-03-30T04:00:41+00:00",
      "lat": 38.2355558,
      "lng": 140.3502441,
      "formatted_address": "Japan, 〒990-2411 Yamagata, Maetamachi, 18−４５ 18番45号",
      "place_id": "ChIJpfwAQey1i18R5mWETWC-UGI"
    },
    "山形県山形県山形市前田町６－１０": {
      "normalized_address": "山形県山形県山形市前田町６－１０",
      "raw_prefecture": "山形県",
      "raw_address": "山形県山形市前田町６－１０",
      "status": "ok",
      "updated_at": "2026-03-30T04:00:41+00:00",
      "lat": 38.2358157,
      "lng": 140.3491915,
      "formatted_address": "6-10 Maetamachi, Yamagata, 990-2411, Japan",
      "place_id": "ChIJvQC3F-y1i18RSPfiPRpXchs"
    },
    "山形県山形県山形市南館西２－２": {
      "normalized_address": "山形県山形県山形市南館西２－２",
      "raw_prefecture": "山形県",
      "raw_address": "山形県山形市南館西２－２",
      "status": "ok",
      "updated_at": "2026-03-30T04:00:42+00:00",
      "lat": 38.2384294,
      "lng": 140.303959,
      "formatted_address": "2-2 Minamidatenishi, Yamagata, 990-2465, Japan",
      "place_id": "ChIJabxbUHy2i18RU0-SZgLTjQc"
    },
    "山形県山形県山形市大野目４－３－７": {
      "normalized_address": "山形県山形県山形市大野目４－３－７",
      "raw_prefecture": "山形県",
      "raw_address": "山形県山形市大野目４－３－７",
      "status": "ok",
      "updated_at": "2026-03-30T04:00:42+00:00",
      "lat": 38.2832556,
      "lng": 140.3605465,
      "formatted_address": "4-chōme-3-7 Dainome, Yamagata, 990-0073, Japan",
      "place_id": "ChIJyRIPQqjJi18RI1YeYNO28jk"
    },
    "山形県山形県山形市嶋南４－３－３": {
      "normalized_address": "山形県山形県山形市嶋南４－３－３",
      "raw_prefecture": "山形県",
      "raw_address": "山形県山形市嶋南４－３－３",
      "status": "ok",
      "updated_at": "2026-03-30T04:00:42+00:00",
      "lat": 38.2817984,
      "lng": 140.3147754,
      "formatted_address": "4-chōme-3-3 Shimaminami, Yamagata, 990-0886, Japan",
      "place_id": "ChIJeUL3DTDIi18RoxBVJ3mDl54"
    },
    "山形県山形県山形市白山２－３－３３": {
      "normalized_address": "山形県山形県山形市白山２－３－３３",
      "raw_prefecture": "山形県",
      "raw_address": "山形県山形市白山２－３－３３",
      "status": "ok",
      "updated_at": "2026-03-30T04:00:43+00:00",
      "lat": 38.2251367,
      "lng": 140.3183392,
      "formatted_address": "2-chōme-3-33 Hakusan, Yamagata, 990-2446, Japan",
      "place_id": "ChIJE9bMbDO0i18RrSuZQ5Ub0sk"
    },
    "山形県山形県山形市若宮２－１２－７": {
      "normalized_address": "山形県山形県山形市若宮２－１２－７",
      "raw_prefecture": "山形県",
      "raw_address": "山形県山形市若宮２－１２－７",
      "status": "ok",
      "updated_at": "2026-03-30T04:00:43+00:00",
      "lat": 38.2259569,
      "lng": 140.3119259,
      "formatted_address": "Japan, 〒990-2453 Yamagata, Wakamiya, 2-chōme−12−７ ケーズデンキ山形本店内",
      "place_id": "ChIJo3aQBzK0i18RGbyjV38cFkI"
    },
    "山形県山形県山形市若宮３－７－８": {
      "normalized_address": "山形県山形県山形市若宮３－７－８",
      "raw_prefecture": "山形県",
      "raw_address": "山形県山形市若宮３－７－８",
      "status": "ok",
      "updated_at": "2026-03-30T04:00:43+00:00",
      "lat": 38.2265807,
      "lng": 140.3058407,
      "formatted_address": "3-chōme-7-8 Wakamiya, Yamagata, 990-2453, Japan",
      "place_id": "ChIJcThL4C60i18RBTlJGwTcABw"
    },
    "山形県山形県山形市落合町字二口１９６": {
      "normalized_address": "山形県山形県山形市落合町字二口１９６",
      "raw_prefecture": "山形県",
      "raw_address": "山形県山形市落合町字二口１９６",
      "status": "ok",
      "updated_at": "2026-03-30T04:00:44+00:00",
      "lat": 38.2844431,
      "lng": 140.3483771,
      "formatted_address": "Ochiaimachi, Yamagata, 990-0075, Japan",
      "place_id": "ChIJRx_7A67Ji18RC16L1aXAgUQ"
    },
    "山形県山形県山形市馬見ケ崎２－１２－１９": {
      "normalized_address": "山形県山形県山形市馬見ケ崎２－１２－１９",
      "raw_prefecture": "山形県",
      "raw_address": "山形県山形市馬見ケ崎２－１２－１９",
      "status": "ok",
      "updated_at": "2026-03-30T04:00:44+00:00",
      "lat": 38.2823092,
      "lng": 140.3304824,
      "formatted_address": "Japan, 〒990-0810 Yamagata, Mamigasaki, 2-chōme−12−１９ イオン山形北店",
      "place_id": "ChIJgdAlekrIi18RZY9fr96O2Yg"
    },
    "山形県山形県山形市馬見ヶ崎４－３－３": {
      "normalized_address": "山形県山形県山形市馬見ヶ崎４－３－３",
      "raw_prefecture": "山形県",
      "raw_address": "山形県山形市馬見ヶ崎４－３－３",
      "status": "ok",
      "updated_at": "2026-03-30T04:00:44+00:00",
      "lat": 38.2842887,
      "lng": 140.3306702,
      "formatted_address": "4-chōme-3-3 Mamigasaki, Yamagata, 990-0810, Japan",
      "place_id": "ChIJv6i-gEnIi18RUhIsOhWQ1Ig"
    },
    "山形県山形県山形市高堂２－４－２０": {
      "normalized_address": "山形県山形県山形市高堂２－４－２０",
      "raw_prefecture": "山形県",
      "raw_address": "山形県山形市高堂２－４－２０",
      "status": "ok",
      "updated_at": "2026-03-30T04:00:44+00:00",
      "lat": 38.2393545,
      "lng": 140.3073832,
      "formatted_address": "2-chōme-4-20 Takadō, Yamagata, 990-2464, Japan",
      "place_id": "ChIJ7zq5k3u2i18RPXXbKc5KDU8"
    },
    "山形県山形県新庄市五日町字上小月野１４００－４": {
      "normalized_address": "山形県山形県新庄市五日町字上小月野１４００－４",
      "raw_prefecture": "山形県",
      "raw_address": "山形県新庄市五日町字上小月野１４００－４",
      "status": "ok",
      "updated_at": "2026-03-30T04:00:45+00:00",
      "lat": 38.77543,
      "lng": 140.313201,
      "formatted_address": "Japan, 〒996-0001 Yamagata, Shinjo City, Itsukamachi, 小月野",
      "place_id": "ChIJO1cwpJ-yjl8Rxg4vhhtaxGo"
    },
    "山形県山形県新庄市五日町１２９４－３": {
      "normalized_address": "山形県山形県新庄市五日町１２９４－３",
      "raw_prefecture": "山形県",
      "raw_address": "山形県新庄市五日町１２９４－３",
      "status": "ok",
      "updated_at": "2026-03-30T04:00:45+00:00",
      "lat": 38.7734431,
      "lng": 140.3096677,
      "formatted_address": "1294-3 Itsukamachi, Shinjo City, Yamagata 996-0001, Japan",
      "place_id": "ChIJKTJNaGCtjl8RpPrF9y0eKQ8"
    },
    "山形県山形県新庄市金沢字南沢１８１４－２": {
      "normalized_address": "山形県山形県新庄市金沢字南沢１８１４－２",
      "raw_prefecture": "山形県",
      "raw_address": "山形県新庄市金沢字南沢１８１４－２",
      "status": "ok",
      "updated_at": "2026-03-30T04:00:45+00:00",
      "lat": 38.7572493,
      "lng": 140.3087381,
      "formatted_address": "Kanazawa, Shinjo City, Yamagata 996-0002, Japan",
      "place_id": "ChIJi-HEr7Syjl8RrlX0xY4mZ2k"
    },
    "山形県山形県東村山郡山辺町大字山辺１２７２－４": {
      "normalized_address": "山形県山形県東村山郡山辺町大字山辺１２７２－４",
      "raw_prefecture": "山形県",
      "raw_address": "山形県東村山郡山辺町大字山辺１２７２－４",
      "status": "ok",
      "updated_at": "2026-03-30T04:00:46+00:00",
      "lat": 38.2951562,
      "lng": 140.2704859,
      "formatted_address": "1272-4 Yamanobe, Higashimurayama District, Yamagata 990-0301, Japan",
      "place_id": "ChIJAT_kkgC4i18R4xVvMyFHK-s"
    },
    "山形県山形県東根市さくらんぼ駅前３－７－１５": {
      "normalized_address": "山形県山形県東根市さくらんぼ駅前３－７－１５",
      "raw_prefecture": "山形県",
      "raw_address": "山形県東根市さくらんぼ駅前３－７－１５",
      "status": "ok",
      "updated_at": "2026-03-30T04:00:46+00:00",
      "lat": 38.4270706,
      "lng": 140.3875216,
      "formatted_address": "3-chōme-7-15 Sakuranbo Ekimae, Higashine, Yamagata 999-3720, Japan",
      "place_id": "ChIJ6R7N2I3ci18RNMc0xAiINJ0"
    },
    "山形県山形県東根市さくらんぼ駅前３－９－１": {
      "normalized_address": "山形県山形県東根市さくらんぼ駅前３－９－１",
      "raw_prefecture": "山形県",
      "raw_address": "山形県東根市さくらんぼ駅前３－９－１",
      "status": "ok",
      "updated_at": "2026-03-30T04:00:46+00:00",
      "lat": 38.4262555,
      "lng": 140.3851382,
      "formatted_address": "3-chōme-9-1 Sakuranbo Ekimae, Higashine, Yamagata 999-3720, Japan",
      "place_id": "ChIJM-qSApLci18Rjr4H1c44PTw"
    },
    "山形県山形県東根市中央南２－１１－１": {
      "normalized_address": "山形県山形県東根市中央南２－１１－１",
      "raw_prefecture": "山形県",
      "raw_address": "山形県東根市中央南２－１１－１",
      "status": "ok",
      "updated_at": "2026-03-30T04:00:46+00:00",
      "lat": 38.4259147,
      "lng": 140.3889282,
      "formatted_address": "2-chōme-11-1 Chūōminami, Higashine, Yamagata 999-3730, Japan",
      "place_id": "ChIJkzG4R47ci18R6-0Tgl484ag"
    },
    "山形県山形県東根市小林１－２－５０": {
      "normalized_address": "山形県山形県東根市小林１－２－５０",
      "raw_prefecture": "山形県",
      "raw_address": "山形県東根市小林１－２－５０",
      "status": "ok",
      "updated_at": "2026-03-30T04:00:47+00:00",
      "lat": 38.4318433,
      "lng": 140.3966021,
      "formatted_address": "Japan, 〒999-3710 Yamagata, Higashine, Kobayashi, 1-chōme−2−５０ 2番50号",
      "place_id": "ChIJyX4WlWHci18RS3aMJfeXRyc"
    },
    "山形県山形県東根市温泉町３－１－５": {
      "normalized_address": "山形県山形県東根市温泉町３－１－５",
      "raw_prefecture": "山形県",
      "raw_address": "山形県東根市温泉町３－１－５",
      "status": "ok",
      "updated_at": "2026-03-30T04:00:47+00:00",
      "lat": 38.4578022,
      "lng": 140.3858896,
      "formatted_address": "3-chōme-1-5 Onsenmachi, Higashine, Yamagata 999-3702, Japan",
      "place_id": "ChIJ4XSgH8jdi18RMM4ZeWrKKro"
    },
    "山形県山形県東田川郡三川町大字猪子字大堰端３６４－２": {
      "normalized_address": "山形県山形県東田川郡三川町大字猪子字大堰端３６４－２",
      "raw_prefecture": "山形県",
      "raw_address": "山形県東田川郡三川町大字猪子字大堰端３６４－２",
      "status": "ok",
      "updated_at": "2026-03-30T04:00:47+00:00",
      "lat": 38.8173831,
      "lng": 139.8365794,
      "formatted_address": "Ōzekibata-364-2 Inoko, Mikawa, Higashitagawa District, Yamagata 997-1316, Japan",
      "place_id": "ChIJFVlmM9wejF8R1LtzftCVk2Y"
    },
    "山形県山形県東田川郡三川町猪子字和田庫１２８－１": {
      "normalized_address": "山形県山形県東田川郡三川町猪子字和田庫１２８－１",
      "raw_prefecture": "山形県",
      "raw_address": "山形県東田川郡三川町猪子字和田庫１２８－１",
      "status": "ok",
      "updated_at": "2026-03-30T04:00:48+00:00",
      "lat": 38.8168691,
      "lng": 139.8379034,
      "formatted_address": "Wadako-128-1 Inoko, Mikawa, Higashitagawa District, Yamagata 997-1316, Japan",
      "place_id": "ChIJCVdarN0ejF8RqejhgsefXkA"
    },
    "山形県山形県東田川郡庄内町余目字町１３２－１": {
      "normalized_address": "山形県山形県東田川郡庄内町余目字町１３２－１",
      "raw_prefecture": "山形県",
      "raw_address": "山形県東田川郡庄内町余目字町１３２－１",
      "status": "ok",
      "updated_at": "2026-03-30T04:00:48+00:00",
      "lat": 38.849721,
      "lng": 139.904855,
      "formatted_address": "Machi-132 Amarume, Shonai, Higashitagawa District, Yamagata 999-7781, Japan",
      "place_id": "ChIJKUqdQIegjl8RTahmrr_0m_s"
    },
    "山形県山形県東置賜郡川西町大字上小松字美女木１０７８－６": {
      "normalized_address": "山形県山形県東置賜郡川西町大字上小松字美女木１０７８－６",
      "raw_prefecture": "山形県",
      "raw_address": "山形県東置賜郡川西町大字上小松字美女木１０７８－６",
      "status": "ok",
      "updated_at": "2026-03-30T04:00:48+00:00",
      "lat": 38.0023438,
      "lng": 140.051964,
      "formatted_address": "Bijogi Bus Stop, Kamikomatsu, Kawanishi, Higashiokitama District, Yamagata 999-0121, Japan",
      "place_id": "ChIJdcgnoyL8il8RIPfm7twA89s"
    },
    "山形県山形県東置賜郡高畠町大字深沼字押出１３０６": {
      "normalized_address": "山形県山形県東置賜郡高畠町大字深沼字押出１３０６",
      "raw_prefecture": "山形県",
      "raw_address": "山形県東置賜郡高畠町大字深沼字押出１３０６",
      "status": "ok",
      "updated_at": "2026-03-30T04:00:49+00:00",
      "lat": 38.0296132,
      "lng": 140.1702567,
      "formatted_address": "Fukanuma, Takahata, Higashiokitama District, Yamagata 992-0344, Japan",
      "place_id": "ChIJyXi-6AZWil8RRzMGFVJXlEg"
    },
    "山形県山形県東置賜郡高畠町大字福沢５９０－３": {
      "normalized_address": "山形県山形県東置賜郡高畠町大字福沢５９０－３",
      "raw_prefecture": "山形県",
      "raw_address": "山形県東置賜郡高畠町大字福沢５９０－３",
      "status": "ok",
      "updated_at": "2026-03-30T04:00:49+00:00",
      "lat": 37.9928049,
      "lng": 140.1479299,
      "formatted_address": "590-3 Fukuzawa, Takahata, Higashiokitama District, Yamagata 999-2174, Japan",
      "place_id": "ChIJR1HeDQP5il8RCvDCuzleM0o"
    },
    "山形県山形県東置賜郡高畠町大字高畠４３６": {
      "normalized_address": "山形県山形県東置賜郡高畠町大字高畠４３６",
      "raw_prefecture": "山形県",
      "raw_address": "山形県東置賜郡高畠町大字高畠４３６",
      "status": "ok",
      "updated_at": "2026-03-30T04:00:49+00:00",
      "lat": 38.0027403,
      "lng": 140.1896228,
      "formatted_address": "436 Takahata, Higashiokitama District, Yamagata 992-0351, Japan",
      "place_id": "ChIJ9dZ_BYj4il8R7QiTTLT9UwQ"
    },
    "山形県山形県米沢市塩井町塩野２－１": {
      "normalized_address": "山形県山形県米沢市塩井町塩野２－１",
      "raw_prefecture": "山形県",
      "raw_address": "山形県米沢市塩井町塩野２－１",
      "status": "ok",
      "updated_at": "2026-03-30T04:00:50+00:00",
      "lat": 37.9263621,
      "lng": 140.1084371,
      "formatted_address": "Shiono-2-1 Shioimachi, Yonezawa, Yamagata 992-0042, Japan",
      "place_id": "ChIJ111Bj3Dwil8RCxvstbv63v8"
    },
    "山形県山形県米沢市徳町２－６７": {
      "normalized_address": "山形県山形県米沢市徳町２－６７",
      "raw_prefecture": "山形県",
      "raw_address": "山形県米沢市徳町２－６７",
      "status": "ok",
      "updated_at": "2026-03-30T04:00:50+00:00",
      "lat": 37.923046,
      "lng": 140.1036679,
      "formatted_address": "2-67 Tokumachi, Yonezawa, Yamagata 992-0047, Japan",
      "place_id": "ChIJnyg-QnLwil8RmkTKN2rkDQE"
    },
    "山形県山形県米沢市春日２－１３－４": {
      "normalized_address": "山形県山形県米沢市春日２－１３－４",
      "raw_prefecture": "山形県",
      "raw_address": "山形県米沢市春日２－１３－４",
      "status": "ok",
      "updated_at": "2026-03-30T04:00:50+00:00",
      "lat": 37.9232276,
      "lng": 140.1087996,
      "formatted_address": "2-chōme-13-4 Kasuga, Yonezawa, Yamagata 992-0044, Japan",
      "place_id": "ChIJu-ezIm7wil8R39rpACt00Do"
    },
    "山形県山形県西村山郡河北町谷地字月山堂１１１８": {
      "normalized_address": "山形県山形県西村山郡河北町谷地字月山堂１１１８",
      "raw_prefecture": "山形県",
      "raw_address": "山形県西村山郡河北町谷地字月山堂１１１８",
      "status": "ok",
      "updated_at": "2026-03-30T04:00:50+00:00",
      "lat": 38.4142135,
      "lng": 140.3131459,
      "formatted_address": "Gassandō-1118 Yachi, Kahoku, Nishimurayama District, Yamagata 999-3511, Japan",
      "place_id": "ChIJOTDEEBnDi18Rb2AZyT8oa9Q"
    },
    "山形県山形県西村山郡河北町谷地所岡３－１－７": {
      "normalized_address": "山形県山形県西村山郡河北町谷地所岡３－１－７",
      "raw_prefecture": "山形県",
      "raw_address": "山形県西村山郡河北町谷地所岡３－１－７",
      "status": "ok",
      "updated_at": "2026-03-30T04:00:51+00:00",
      "lat": 38.4299279,
      "lng": 140.3090113,
      "formatted_address": "3-chōme-1-7 Yachi, Kahoku, Nishimurayama District, Yamagata 999-3513, Japan",
      "place_id": "ChIJs9nMhs_Ci18R7ljNmZqUiD4"
    },
    "山形県山形県酒田市あきほ町１２０－１": {
      "normalized_address": "山形県山形県酒田市あきほ町１２０－１",
      "raw_prefecture": "山形県",
      "raw_address": "山形県酒田市あきほ町１２０－１",
      "status": "ok",
      "updated_at": "2026-03-30T04:00:51+00:00",
      "lat": 38.8917628,
      "lng": 139.8523938,
      "formatted_address": "120-1 Akihochō, Sakata, Yamagata 998-0828, Japan",
      "place_id": "ChIJKRIu3safjl8RRS_-oeOU8eE"
    },
    "山形県山形県酒田市こあら２－１－２": {
      "normalized_address": "山形県山形県酒田市こあら２－１－２",
      "raw_prefecture": "山形県",
      "raw_address": "山形県酒田市こあら２－１－２",
      "status": "ok",
      "updated_at": "2026-03-30T04:00:51+00:00",
      "lat": 38.9149387,
      "lng": 139.8587512,
      "formatted_address": "2-chōme-1-2 Koara, Sakata, Yamagata 998-0878, Japan",
      "place_id": "ChIJMeFtrfmejl8RqUSnGEi9nVs"
    },
    "山形県山形県酒田市一番町１－１５酒デンビル１階": {
      "normalized_address": "山形県山形県酒田市一番町１－１５酒デンビル１階",
      "raw_prefecture": "山形県",
      "raw_address": "山形県酒田市一番町１－１５酒デンビル１階",
      "status": "ok",
      "updated_at": "2026-03-30T04:00:52+00:00",
      "lat": 38.916504,
      "lng": 139.8426551,
      "formatted_address": "1階, 1-15 Ichibanchō, Sakata, Yamagata 998-0046, Japan",
      "place_id": "Ejgx6ZqOLCAxLTE1IEljaGliYW5jaMWNLCBTYWthdGEsIFlhbWFnYXRhIDk5OC0wMDQ2LCBKYXBhbiIgGh4KFgoUChIJqc0znF6ejl8R9YZS9b5arn0SBDHpmo4"
    },
    "山形県山形県長井市久野本字館野７６２－４": {
      "normalized_address": "山形県山形県長井市久野本字館野７６２－４",
      "raw_prefecture": "山形県",
      "raw_address": "山形県長井市久野本字館野７６２－４",
      "status": "ok",
      "updated_at": "2026-03-30T04:00:52+00:00",
      "lat": 38.1074728,
      "lng": 140.0405256,
      "formatted_address": "Nagai, Yamagata, Japan",
      "place_id": "ChIJwexM6DSoi18R4GEvtH8x32g"
    },
    "山形県山形県長井市館町北６－６": {
      "normalized_address": "山形県山形県長井市館町北６－６",
      "raw_prefecture": "山形県",
      "raw_address": "山形県長井市館町北６－６",
      "status": "ok",
      "updated_at": "2026-03-30T04:00:52+00:00",
      "lat": 38.0998516,
      "lng": 140.0435576,
      "formatted_address": "6-6 Tatemachikita, Nagai, Yamagata 993-0011, Japan",
      "place_id": "ChIJedEjl3eqi18Rq9p6JOadNUw"
    },
    "山形県山形県長井市館町南１０－４５": {
      "normalized_address": "山形県山形県長井市館町南１０－４５",
      "raw_prefecture": "山形県",
      "raw_address": "山形県長井市館町南１０－４５",
      "status": "ok",
      "updated_at": "2026-03-30T04:00:52+00:00",
      "lat": 38.089844,
      "lng": 140.0431472,
      "formatted_address": "10-45 Tatemachiminami, Nagai, Yamagata 993-0013, Japan",
      "place_id": "ChIJNQHMiIcAi18RchUkhdPUFS0"
    },
    "山形県山形県飽海郡遊佐町遊佐字舞鶴２０２": {
      "normalized_address": "山形県山形県飽海郡遊佐町遊佐字舞鶴２０２",
      "raw_prefecture": "山形県",
      "raw_address": "山形県飽海郡遊佐町遊佐字舞鶴２０２",
      "status": "ok",
      "updated_at": "2026-03-30T04:00:53+00:00",
      "lat": 39.0148113,
      "lng": 139.9087352,
      "formatted_address": "Maizuru-202 Yuza, Akumi District, Yamagata 999-8301, Japan",
      "place_id": "ChIJO56OMneQjl8R5jisYrYJ-xY"
    },
    "山形県山形県鶴岡市ほなみ町９－２０": {
      "normalized_address": "山形県山形県鶴岡市ほなみ町９－２０",
      "raw_prefecture": "山形県",
      "raw_address": "山形県鶴岡市ほなみ町９－２０",
      "status": "ok",
      "updated_at": "2026-03-30T04:00:53+00:00",
      "lat": 38.7164754,
      "lng": 139.8453181,
      "formatted_address": "Japan, 〒997-0862 Yamagata, Tsuruoka, Honamimachi, 9−２０ ９番２０号",
      "place_id": "ChIJAVBqZKwajF8RfZjjCKAC6Xs"
    },
    "山形県山形県鶴岡市丸岡字鳥飼１２０－８": {
      "normalized_address": "山形県山形県鶴岡市丸岡字鳥飼１２０－８",
      "raw_prefecture": "山形県",
      "raw_address": "山形県鶴岡市丸岡字鳥飼１２０－８",
      "status": "ok",
      "updated_at": "2026-03-30T04:00:53+00:00",
      "lat": 38.6804682,
      "lng": 139.83671,
      "formatted_address": "Torikai-120-8 Maruoka, Tsuruoka, Yamagata 997-0334, Japan",
      "place_id": "ChIJwy--Xq4PjF8RPZDqBBam1s0"
    },
    "山形県山形県鶴岡市大東町４－３６": {
      "normalized_address": "山形県山形県鶴岡市大東町４－３６",
      "raw_prefecture": "山形県",
      "raw_address": "山形県鶴岡市大東町４－３６",
      "status": "ok",
      "updated_at": "2026-03-30T04:00:54+00:00",
      "lat": 38.7256969,
      "lng": 139.8367002,
      "formatted_address": "4-36 Daitōmachi, Tsuruoka, Yamagata 997-0026, Japan",
      "place_id": "ChIJX_U8NaMajF8RVUeP-xVIimk"
    },
    "山形県山形県鶴岡市宝田３－２０－６０": {
      "normalized_address": "山形県山形県鶴岡市宝田３－２０－６０",
      "raw_prefecture": "山形県",
      "raw_address": "山形県鶴岡市宝田３－２０－６０",
      "status": "ok",
      "updated_at": "2026-03-30T04:00:54+00:00",
      "lat": 38.7562925,
      "lng": 139.8450219,
      "formatted_address": "3-chōme-20-60 Takarada, Tsuruoka, Yamagata 997-0011, Japan",
      "place_id": "ChIJRUOvDKwbjF8Rx4F70sUj3Lk"
    },
    "山形県山形県鶴岡市家中新町１７－４": {
      "normalized_address": "山形県山形県鶴岡市家中新町１７－４",
      "raw_prefecture": "山形県",
      "raw_address": "山形県鶴岡市家中新町１７－４",
      "status": "ok",
      "updated_at": "2026-03-30T04:00:54+00:00",
      "lat": 38.7276888,
      "lng": 139.8209752,
      "formatted_address": "17-4 Kachūshinmachi, Tsuruoka, Yamagata 997-0036, Japan",
      "place_id": "ChIJQWyIJZwajF8R4erc9_pMRQ8"
    },
    "山形県山形県鶴岡市斉藤川原間々下９３－３": {
      "normalized_address": "山形県山形県鶴岡市斉藤川原間々下９３－３",
      "raw_prefecture": "山形県",
      "raw_address": "山形県鶴岡市斉藤川原間々下９３－３",
      "status": "ok",
      "updated_at": "2026-03-30T04:00:55+00:00",
      "lat": 38.7087507,
      "lng": 139.8462965,
      "formatted_address": "Mamashita-93-3 Saitōgawara, Tsuruoka, Yamagata 997-0804, Japan",
      "place_id": "ChIJVRJDufgPjF8R2eIsjUZPUUI"
    },
    "山形県山形県鶴岡市本町２－１－１１": {
      "normalized_address": "山形県山形県鶴岡市本町２－１－１１",
      "raw_prefecture": "山形県",
      "raw_address": "山形県鶴岡市本町２－１－１１",
      "status": "ok",
      "updated_at": "2026-03-30T04:00:55+00:00",
      "lat": 38.7249842,
      "lng": 139.8285153,
      "formatted_address": "2-chōme-1-11 Honchō, Tsuruoka, Yamagata 997-0034, Japan",
      "place_id": "ChIJ2e4y96EajF8R1gsd8TLfrWc"
    },
    "山形県山形県鶴岡市美咲町２１－１": {
      "normalized_address": "山形県山形県鶴岡市美咲町２１－１",
      "raw_prefecture": "山形県",
      "raw_address": "山形県鶴岡市美咲町２１－１",
      "status": "ok",
      "updated_at": "2026-03-30T04:00:55+00:00",
      "lat": 38.7389639,
      "lng": 139.8002729,
      "formatted_address": "21-1 Misakimachi, Tsuruoka, Yamagata 997-0857, Japan",
      "place_id": "ChIJbyotHHkajF8RrVTnsIxwqGg"
    },
    "山形県山形県鶴岡市羽黒町十文字字十文字１５７－２": {
      "normalized_address": "山形県山形県鶴岡市羽黒町十文字字十文字１５７－２",
      "raw_prefecture": "山形県",
      "raw_address": "山形県鶴岡市羽黒町十文字字十文字１５７－２",
      "status": "ok",
      "updated_at": "2026-03-30T04:00:55+00:00",
      "lat": 38.7185833,
      "lng": 139.9222269,
      "formatted_address": "Jumonji Bus Stop, Haguromachi Jūmonji, Tsuruoka, Yamagata 997-0127, Japan",
      "place_id": "ChIJaVlxjO8EjF8RPT-D5Zb3c7o"
    },
    "山形県山形県鶴岡市藤浪５－１－１": {
      "normalized_address": "山形県山形県鶴岡市藤浪５－１－１",
      "raw_prefecture": "山形県",
      "raw_address": "山形県鶴岡市藤浪５－１－１",
      "status": "ok",
      "updated_at": "2026-03-30T04:00:56+00:00",
      "lat": 38.7616507,
      "lng": 139.9063214,
      "formatted_address": "5-chōme-1-1 Fujinami, Tsuruoka, Yamagata 999-7604, Japan",
      "place_id": "ChIJ927Ujp4cjF8RGJKc1Omi-jQ"
    },
    "山形県山形県鶴岡市鼠ヶ関字奥田１７": {
      "normalized_address": "山形県山形県鶴岡市鼠ヶ関字奥田１７",
      "raw_prefecture": "山形県",
      "raw_address": "山形県鶴岡市鼠ヶ関字奥田１７",
      "status": "ok",
      "updated_at": "2026-03-30T04:00:56+00:00",
      "lat": 38.5532495,
      "lng": 139.5527814,
      "formatted_address": "Okuda-17 Nezugaseki, Tsuruoka, Yamagata 999-7126, Japan",
      "place_id": "ChIJd4ziAIdwjF8RIge4rsA9Dhc"
    }
  }
}
