{
  "version": 1,
  "generated_at": "2026-03-30T04:01:54+00:00",
  "source_file": "docs/data/1-08.json",
  "entries": {
    "茨城県茨城県かすみがうら市下稲吉２６３３－４": {
      "normalized_address": "茨城県茨城県かすみがうら市下稲吉２６３３－４",
      "raw_prefecture": "茨城県",
      "raw_address": "茨城県かすみがうら市下稲吉２６３３－４",
      "status": "ok",
      "updated_at": "2026-03-30T04:01:19+00:00",
      "lat": 36.1250547,
      "lng": 140.2296291,
      "formatted_address": "2633-4 Shimoinayoshi, Kasumigaura, Ibaraki 315-0052, Japan",
      "place_id": "ChIJ1SNTKgcTImARBhu8VPLV_Go"
    },
    "茨城県茨城県つくばみらい市加藤２３７": {
      "normalized_address": "茨城県茨城県つくばみらい市加藤２３７",
      "raw_prefecture": "茨城県",
      "raw_address": "茨城県つくばみらい市加藤２３７",
      "status": "ok",
      "updated_at": "2026-03-30T04:01:19+00:00",
      "lat": 35.9899484,
      "lng": 140.0103743,
      "formatted_address": "237 Katō, Tsukubamirai, Ibaraki 300-2424, Japan",
      "place_id": "ChIJu6pvd-afGGAR7L4JbCxhVjU"
    },
    "茨城県茨城県つくばみらい市小絹字東中宿７０８－１": {
      "normalized_address": "茨城県茨城県つくばみらい市小絹字東中宿７０８－１",
      "raw_prefecture": "茨城県",
      "raw_address": "茨城県つくばみらい市小絹字東中宿７０８－１",
      "status": "ok",
      "updated_at": "2026-03-30T04:01:19+00:00",
      "lat": 35.9856387,
      "lng": 139.9789961,
      "formatted_address": "Kokinu, Tsukubamirai, Ibaraki 300-2445, Japan",
      "place_id": "ChIJw90RWYKfGGARffBrgmC8DKY"
    },
    "茨城県茨城県つくばみらい市筒戸２１８９－１": {
      "normalized_address": "茨城県茨城県つくばみらい市筒戸２１８９－１",
      "raw_prefecture": "茨城県",
      "raw_address": "茨城県つくばみらい市筒戸２１８９－１",
      "status": "ok",
      "updated_at": "2026-03-30T04:01:20+00:00",
      "lat": 35.9781275,
      "lng": 139.9832298,
      "formatted_address": "2189-1 Tsutsudo, Tsukubamirai, Ibaraki 300-2435, Japan",
      "place_id": "ChIJJRY5SpmfGGARqMTpkv5oS4E"
    },
    "茨城県茨城県つくばみらい市絹の台６－２０－１": {
      "normalized_address": "茨城県茨城県つくばみらい市絹の台６－２０－１",
      "raw_prefecture": "茨城県",
      "raw_address": "茨城県つくばみらい市絹の台６－２０－１",
      "status": "ok",
      "updated_at": "2026-03-30T04:01:20+00:00",
      "lat": 35.9761071,
      "lng": 139.9731718,
      "formatted_address": "Japan, 〒300-2436 Ibaraki, Tsukubamirai, Kinunodai, 6-chōme−２０−１",
      "place_id": "ChIJbQ-5sHafGGAR1XMdzAIUrFE"
    },
    "茨城県茨城県つくば市下原３７７－１": {
      "normalized_address": "茨城県茨城県つくば市下原３７７－１",
      "raw_prefecture": "茨城県",
      "raw_address": "茨城県つくば市下原３７７－１",
      "status": "ok",
      "updated_at": "2026-03-30T04:01:20+00:00",
      "lat": 36.0500409,
      "lng": 140.1365593,
      "formatted_address": "377-1 Shimohara, Tsukuba, Ibaraki 305-0063, Japan",
      "place_id": "ChIJhznDBSxzImARK_8dzR5eC98"
    },
    "茨城県茨城県つくば市台町三丁目６番１８": {
      "normalized_address": "茨城県茨城県つくば市台町三丁目６番１８",
      "raw_prefecture": "茨城県",
      "raw_address": "茨城県つくば市台町三丁目６番１８",
      "status": "ok",
      "updated_at": "2026-03-30T04:01:20+00:00",
      "lat": 36.0357898,
      "lng": 140.0851787,
      "formatted_address": "Japan, 〒305-0868 Ibaraki, Tsukuba, Daimachi, 3-chōme−６−１８ Ｓ－ＰＡＲＫ",
      "place_id": "ChIJK8gweUsLImARTtRxz3iI028"
    },
    "茨城県茨城県つくば市吾妻１－７－１": {
      "normalized_address": "茨城県茨城県つくば市吾妻１－７－１",
      "raw_prefecture": "茨城県",
      "raw_address": "茨城県つくば市吾妻１－７－１",
      "status": "ok",
      "updated_at": "2026-03-30T04:01:21+00:00",
      "lat": 36.0805071,
      "lng": 140.1117159,
      "formatted_address": "Japan, 〒305-0031 Ibaraki, Tsukuba, Azuma, 1-chōme−７−１ つくばクレオ",
      "place_id": "ChIJxc3OGogMImAR2OyJ3y9x6bw"
    },
    "茨城県茨城県つくば市大字下原字池向３７０－１": {
      "normalized_address": "茨城県茨城県つくば市大字下原字池向３７０－１",
      "raw_prefecture": "茨城県",
      "raw_address": "茨城県つくば市大字下原字池向３７０－１",
      "status": "ok",
      "updated_at": "2026-03-30T04:01:21+00:00",
      "lat": 36.0181777,
      "lng": 140.1334088,
      "formatted_address": "Ikemukai, Tsukuba, Ibaraki 300-1269, Japan",
      "place_id": "ChIJObRJCgdzImAR33WeJYo3Wls"
    },
    "茨城県茨城県つくば市学園の森３－４－１": {
      "normalized_address": "茨城県茨城県つくば市学園の森３－４－１",
      "raw_prefecture": "茨城県",
      "raw_address": "茨城県つくば市学園の森３－４－１",
      "status": "ok",
      "updated_at": "2026-03-30T04:01:21+00:00",
      "lat": 36.0896078,
      "lng": 140.0854537,
      "formatted_address": "Japan, 〒305-0816 Ibaraki, Tsukuba, Gakuennomori, 3-chōme−４−１",
      "place_id": "ChIJOzRcWOsLImARODtKT1efWBE"
    },
    "茨城県茨城県つくば市水守２３３９": {
      "normalized_address": "茨城県茨城県つくば市水守２３３９",
      "raw_prefecture": "茨城県",
      "raw_address": "茨城県つくば市水守２３３９",
      "status": "ok",
      "updated_at": "2026-03-30T04:01:22+00:00",
      "lat": 36.1598321,
      "lng": 140.0691745,
      "formatted_address": "Japan, 〒300-4245 Ibaraki, Tsukuba, Mimori, ２３３９ つくば市クリーンセンター",
      "place_id": "ChIJ4Tu95o0IImARWNvCKew_eXY"
    },
    "茨城県茨城県つくば市研究学園１－１－１": {
      "normalized_address": "茨城県茨城県つくば市研究学園１－１－１",
      "raw_prefecture": "茨城県",
      "raw_address": "茨城県つくば市研究学園１－１－１",
      "status": "ok",
      "updated_at": "2026-03-30T04:01:22+00:00",
      "lat": 36.0835829,
      "lng": 140.0762307,
      "formatted_address": "Japan, 〒305-8555 Ibaraki, Tsukuba, Kenkyūgakuen, 1-chōme−１−１",
      "place_id": "ChIJrTSGIr8LImAR8LKLwFl6hxE"
    },
    "茨城県茨城県つくば市研究学園４－４－１": {
      "normalized_address": "茨城県茨城県つくば市研究学園４－４－１",
      "raw_prefecture": "茨城県",
      "raw_address": "茨城県つくば市研究学園４－４－１",
      "status": "ok",
      "updated_at": "2026-03-30T04:01:22+00:00",
      "lat": 36.08766019999999,
      "lng": 140.0751256,
      "formatted_address": "Japan, 〒305-0817 Ibaraki, Tsukuba, Kenkyūgakuen, 4-chōme−４−１",
      "place_id": "ChIJ27-_w8ALImARUNbWpW7EEmU"
    },
    "茨城県茨城県つくば市筑穂１－８－８": {
      "normalized_address": "茨城県茨城県つくば市筑穂１－８－８",
      "raw_prefecture": "茨城県",
      "raw_address": "茨城県つくば市筑穂１－８－８",
      "status": "ok",
      "updated_at": "2026-03-30T04:01:22+00:00",
      "lat": 36.1345634,
      "lng": 140.0806528,
      "formatted_address": "Japan, 〒300-3257 Ibaraki, Tsukuba, Tsukuho, 1-chōme−８−８",
      "place_id": "ChIJrcv9giIJImARytTik_J6gXk"
    },
    "茨城県茨城県ひたちなか市新光町３０－１": {
      "normalized_address": "茨城県茨城県ひたちなか市新光町３０－１",
      "raw_prefecture": "茨城県",
      "raw_address": "茨城県ひたちなか市新光町３０－１",
      "status": "ok",
      "updated_at": "2026-03-30T04:01:23+00:00",
      "lat": 36.40490430000001,
      "lng": 140.5821298,
      "formatted_address": "30-1 Shinkōchō, Hitachinaka, Ibaraki 312-0005, Japan",
      "place_id": "ChIJ4cyB8mUuImARQ6DlgPRINuw"
    },
    "茨城県茨城県ひたちなか市新光町３４－１": {
      "normalized_address": "茨城県茨城県ひたちなか市新光町３４－１",
      "raw_prefecture": "茨城県",
      "raw_address": "茨城県ひたちなか市新光町３４－１",
      "status": "ok",
      "updated_at": "2026-03-30T04:01:23+00:00",
      "lat": 36.4050503,
      "lng": 140.5885586,
      "formatted_address": "34-1 Shinkōchō, Hitachinaka, Ibaraki 312-0005, Japan",
      "place_id": "ChIJlck3VnAuImAR973X_d6z9Qg"
    },
    "茨城県茨城県ひたちなか市新光町３９－２": {
      "normalized_address": "茨城県茨城県ひたちなか市新光町３９－２",
      "raw_prefecture": "茨城県",
      "raw_address": "茨城県ひたちなか市新光町３９－２",
      "status": "ok",
      "updated_at": "2026-03-30T04:01:23+00:00",
      "lat": 36.4022862,
      "lng": 140.5850304,
      "formatted_address": "39-2 Shinkōchō, Hitachinaka, Ibaraki 312-0005, Japan",
      "place_id": "ChIJrboqFG4uImARsYN_p3bcp-w"
    },
    "茨城県茨城県ひたちなか市稲田１４２４－１": {
      "normalized_address": "茨城県茨城県ひたちなか市稲田１４２４－１",
      "raw_prefecture": "茨城県",
      "raw_address": "茨城県ひたちなか市稲田１４２４－１",
      "status": "ok",
      "updated_at": "2026-03-30T04:01:24+00:00",
      "lat": 36.4258896,
      "lng": 140.519947,
      "formatted_address": "1424-1 Inada, Hitachinaka, Ibaraki 312-0061, Japan",
      "place_id": "ChIJN7YDtawoImAR-x1nWN_ZnMI"
    },
    "茨城県茨城県ひたちなか市青葉町３－３": {
      "normalized_address": "茨城県茨城県ひたちなか市青葉町３－３",
      "raw_prefecture": "茨城県",
      "raw_address": "茨城県ひたちなか市青葉町３－３",
      "status": "ok",
      "updated_at": "2026-03-30T04:01:24+00:00",
      "lat": 36.3859051,
      "lng": 140.5290047,
      "formatted_address": "3-3 Aobachō, Hitachinaka, Ibaraki 312-0056, Japan",
      "place_id": "ChIJh1L-1JsvImARWwmc8C4TfiQ"
    },
    "茨城県茨城県下妻市横根５５７": {
      "normalized_address": "茨城県茨城県下妻市横根５５７",
      "raw_prefecture": "茨城県",
      "raw_address": "茨城県下妻市横根５５７",
      "status": "ok",
      "updated_at": "2026-03-30T04:01:24+00:00",
      "lat": 36.1986271,
      "lng": 139.986025,
      "formatted_address": "557 Yokone, Shimotsuma, Ibaraki 304-0035, Japan",
      "place_id": "ChIJ9-z3pJmpGGARurxXxEO03ZA"
    },
    "茨城県茨城県久慈郡大子町池田字横峯５７７－１": {
      "normalized_address": "茨城県茨城県久慈郡大子町池田字横峯５７７－１",
      "raw_prefecture": "茨城県",
      "raw_address": "茨城県久慈郡大子町池田字横峯５７７－１",
      "status": "ok",
      "updated_at": "2026-03-30T04:01:24+00:00",
      "lat": 36.779845,
      "lng": 140.3636686,
      "formatted_address": "Ikeda, Daigo, Kuji District, Ibaraki 319-3551, Japan",
      "place_id": "ChIJkUjR9BS_IWARgxSFPGxENs0"
    },
    "茨城県茨城県北相馬郡利根町布川８４１－１": {
      "normalized_address": "茨城県茨城県北相馬郡利根町布川８４１－１",
      "raw_prefecture": "茨城県",
      "raw_address": "茨城県北相馬郡利根町布川８４１－１",
      "status": "ok",
      "updated_at": "2026-03-30T04:01:25+00:00",
      "lat": 35.8577404,
      "lng": 140.1391542,
      "formatted_address": "841-1 Fukawa, Tone, Kitasoma District, Ibaraki 300-1622, Japan",
      "place_id": "ChIJa35f06Z7ImARZygC3RLt8uw"
    },
    "茨城県茨城県北茨城市中郷町上桜井２１７７": {
      "normalized_address": "茨城県茨城県北茨城市中郷町上桜井２１７７",
      "raw_prefecture": "茨城県",
      "raw_address": "茨城県北茨城市中郷町上桜井２１７７",
      "status": "ok",
      "updated_at": "2026-03-30T04:01:25+00:00",
      "lat": 36.7854329,
      "lng": 140.7357459,
      "formatted_address": "Kamisakurai-2177 Nakagōchō, Kitaibaraki, Ibaraki 319-1559, Japan",
      "place_id": "ChIJhQbGTZN2IWAR_ABPuLFvt_s"
    },
    "茨城県茨城県北茨城市中郷町上桜井２９１５": {
      "normalized_address": "茨城県茨城県北茨城市中郷町上桜井２９１５",
      "raw_prefecture": "茨城県",
      "raw_address": "茨城県北茨城市中郷町上桜井２９１５",
      "status": "ok",
      "updated_at": "2026-03-30T04:01:25+00:00",
      "lat": 36.7806534,
      "lng": 140.7343825,
      "formatted_address": "Kamisakurai-2915 Nakagōchō, Kitaibaraki, Ibaraki 319-1559, Japan",
      "place_id": "ChIJzWPIMex2IWAR1ojFtwtlpns"
    },
    "茨城県茨城県北茨城市平潟町３０３": {
      "normalized_address": "茨城県茨城県北茨城市平潟町３０３",
      "raw_prefecture": "茨城県",
      "raw_address": "茨城県北茨城市平潟町３０３",
      "status": "ok",
      "updated_at": "2026-03-30T04:01:26+00:00",
      "lat": 36.8555774,
      "lng": 140.7926719,
      "formatted_address": "303 Hirakatachō, Kitaibaraki, Ibaraki 319-1701, Japan",
      "place_id": "ChIJ6xncnaVzIWARV-FLvOxQfAU"
    },
    "茨城県茨城県取手市寺田５１３９": {
      "normalized_address": "茨城県茨城県取手市寺田５１３９",
      "raw_prefecture": "茨城県",
      "raw_address": "茨城県取手市寺田５１３９",
      "status": "ok",
      "updated_at": "2026-03-30T04:01:26+00:00",
      "lat": 35.9110784,
      "lng": 140.0495373,
      "formatted_address": "5139 Terada, Toride, Ibaraki 302-0021, Japan",
      "place_id": "ChIJYzWuYk12ImARBXlU9trXDyg"
    },
    "茨城県茨城県取手市戸頭字長町１２９９－４": {
      "normalized_address": "茨城県茨城県取手市戸頭字長町１２９９－４",
      "raw_prefecture": "茨城県",
      "raw_address": "茨城県取手市戸頭字長町１２９９－４",
      "status": "ok",
      "updated_at": "2026-03-30T04:01:26+00:00",
      "lat": 35.8914651,
      "lng": 140.0797136,
      "formatted_address": "Nagamachi Park, 376-6 Aoyanagi, Toride, Ibaraki 302-0006, Japan",
      "place_id": "ChIJ6cy8nGd3ImARqjgcu7kLs6w"
    },
    "茨城県茨城県取手市東４－５－１": {
      "normalized_address": "茨城県茨城県取手市東４－５－１",
      "raw_prefecture": "茨城県",
      "raw_address": "茨城県取手市東４－５－１",
      "status": "ok",
      "updated_at": "2026-03-30T04:01:27+00:00",
      "lat": 35.8902872,
      "lng": 140.0747754,
      "formatted_address": "4-chōme-5-1 Higashi, Toride, Ibaraki 302-0005, Japan",
      "place_id": "ChIJNRL62WV3ImARBKVxkqTtWlk"
    },
    "茨城県茨城県取手市青柳１１５－１": {
      "normalized_address": "茨城県茨城県取手市青柳１１５－１",
      "raw_prefecture": "茨城県",
      "raw_address": "茨城県取手市青柳１１５－１",
      "status": "ok",
      "updated_at": "2026-03-30T04:01:27+00:00",
      "lat": 35.8967736,
      "lng": 140.081901,
      "formatted_address": "115-1 Aoyanagi, Toride, Ibaraki 302-0006, Japan",
      "place_id": "ChIJMWFB9EJ3ImARtZ6ZTBT53YM"
    },
    "茨城県茨城県古河市久能１２１４": {
      "normalized_address": "茨城県茨城県古河市久能１２１４",
      "raw_prefecture": "茨城県",
      "raw_address": "茨城県古河市久能１２１４",
      "status": "ok",
      "updated_at": "2026-03-30T04:01:27+00:00",
      "lat": 36.1625385,
      "lng": 139.7674342,
      "formatted_address": "1214 Kunō, Koga, Ibaraki 306-0212, Japan",
      "place_id": "ChIJbx7O_n20GGARjdyelWToTog"
    },
    "茨城県茨城県古河市原町６６０番１": {
      "normalized_address": "茨城県茨城県古河市原町６６０番１",
      "raw_prefecture": "茨城県",
      "raw_address": "茨城県古河市原町６６０番１",
      "status": "ok",
      "updated_at": "2026-03-30T04:01:27+00:00",
      "lat": 36.1809694,
      "lng": 139.7076633,
      "formatted_address": "13-660-1 Haramachi, Koga, Ibaraki 306-0025, Japan",
      "place_id": "ChIJ01bGwbZKH2ARRDjT5FHz2lc"
    },
    "茨城県茨城県古河市旭町１－２－３": {
      "normalized_address": "茨城県茨城県古河市旭町１－２－３",
      "raw_prefecture": "茨城県",
      "raw_address": "茨城県古河市旭町１－２－３",
      "status": "ok",
      "updated_at": "2026-03-30T04:01:28+00:00",
      "lat": 36.1957446,
      "lng": 139.7194745,
      "formatted_address": "1-chōme-2-3 Asahichō, Koga, Ibaraki 306-0012, Japan",
      "place_id": "ChIJUdPUA8NKH2AR7IvQNYPFwOs"
    },
    "茨城県茨城県古河市本町４－６－４": {
      "normalized_address": "茨城県茨城県古河市本町４－６－４",
      "raw_prefecture": "茨城県",
      "raw_address": "茨城県古河市本町４－６－４",
      "status": "ok",
      "updated_at": "2026-03-30T04:01:28+00:00",
      "lat": 36.1920954,
      "lng": 139.7092017,
      "formatted_address": "4-chōme-6-4 Honchō, Koga, Ibaraki 306-0023, Japan",
      "place_id": "ChIJIfqnrb9KH2ARuUSVVoQGz_U"
    },
    "茨城県茨城県古河市西牛谷１００２－１": {
      "normalized_address": "茨城県茨城県古河市西牛谷１００２－１",
      "raw_prefecture": "茨城県",
      "raw_address": "茨城県古河市西牛谷１００２－１",
      "status": "ok",
      "updated_at": "2026-03-30T04:01:28+00:00",
      "lat": 36.2023369,
      "lng": 139.7365116,
      "formatted_address": "1002-1 Nishiushigaya, Koga, Ibaraki 306-0233, Japan",
      "place_id": "ChIJt9rOcCFLH2ARjIhn8oV3g_8"
    },
    "茨城県茨城県古河市西牛谷３４７": {
      "normalized_address": "茨城県茨城県古河市西牛谷３４７",
      "raw_prefecture": "茨城県",
      "raw_address": "茨城県古河市西牛谷３４７",
      "status": "ok",
      "updated_at": "2026-03-30T04:01:29+00:00",
      "lat": 36.2039116,
      "lng": 139.7417764,
      "formatted_address": "Joyful Honda - Koga, 347 Nishiushigaya, Koga, Ibaraki 306-0233, Japan",
      "place_id": "ChIJ_0LDNiNLH2ARWhUA9Y09wIs"
    },
    "茨城県茨城県古河市西牛谷６０３－１": {
      "normalized_address": "茨城県茨城県古河市西牛谷６０３－１",
      "raw_prefecture": "茨城県",
      "raw_address": "茨城県古河市西牛谷６０３－１",
      "status": "ok",
      "updated_at": "2026-03-30T04:01:29+00:00",
      "lat": 36.2031981,
      "lng": 139.7394875,
      "formatted_address": "603-1 Nishiushigaya, Koga, Ibaraki 306-0233, Japan",
      "place_id": "ChIJXSPlpSNLH2ARFoDL0n5tGdA"
    },
    "茨城県茨城県古河市諸川１６５９－１": {
      "normalized_address": "茨城県茨城県古河市諸川１６５９－１",
      "raw_prefecture": "茨城県",
      "raw_address": "茨城県古河市諸川１６５９－１",
      "status": "ok",
      "updated_at": "2026-03-30T04:01:29+00:00",
      "lat": 36.2016499,
      "lng": 139.8073129,
      "formatted_address": "1659-1 Morokawa, Koga, Ibaraki 306-0126, Japan",
      "place_id": "ChIJj_81dSSzGGAR4Y13i5K-0jc"
    },
    "茨城県茨城県土浦市北荒川沖町１－３０": {
      "normalized_address": "茨城県茨城県土浦市北荒川沖町１－３０",
      "raw_prefecture": "茨城県",
      "raw_address": "茨城県土浦市北荒川沖町１－３０",
      "status": "ok",
      "updated_at": "2026-03-30T04:01:29+00:00",
      "lat": 36.0372335,
      "lng": 140.16573,
      "formatted_address": "1-30 Kitaarakawaokimachi, Tsuchiura, Ibaraki 300-0876, Japan",
      "place_id": "ChIJM3jKnY1yImARXV4-ivOPmY4"
    },
    "茨城県茨城県土浦市真鍋１－１０８３－１": {
      "normalized_address": "茨城県茨城県土浦市真鍋１－１０８３－１",
      "raw_prefecture": "茨城県",
      "raw_address": "茨城県土浦市真鍋１－１０８３－１",
      "status": "ok",
      "updated_at": "2026-03-30T04:01:30+00:00",
      "lat": 36.0878907,
      "lng": 140.2056162,
      "formatted_address": "1-chōme-5-1083-1 Manabe, Tsuchiura, Ibaraki 300-0051, Japan",
      "place_id": "ChIJL8OJsMkSImARkSkz0MNsryk"
    },
    "茨城県茨城県土浦市荒川沖東２－１７－１": {
      "normalized_address": "茨城県茨城県土浦市荒川沖東２－１７－１",
      "raw_prefecture": "茨城県",
      "raw_address": "茨城県土浦市荒川沖東２－１７－１",
      "status": "ok",
      "updated_at": "2026-03-30T04:01:30+00:00",
      "lat": 36.0277761,
      "lng": 140.1696564,
      "formatted_address": "2-chōme-17-1 Arakawaokihigashi, Tsuchiura, Ibaraki 300-0871, Japan",
      "place_id": "ChIJecBAsGNyImAR0JdYnflkJBk"
    },
    "茨城県茨城県坂東市辺田１１０４－１": {
      "normalized_address": "茨城県茨城県坂東市辺田１１０４－１",
      "raw_prefecture": "茨城県",
      "raw_address": "茨城県坂東市辺田１１０４－１",
      "status": "ok",
      "updated_at": "2026-03-30T04:01:30+00:00",
      "lat": 36.0369964,
      "lng": 139.8927328,
      "formatted_address": "1104-1 Heta, Bando, Ibaraki 306-0632, Japan",
      "place_id": "ChIJsREgVoakGGARVu2Cgy1syoo"
    },
    "茨城県茨城県坂東市辺田１２１３－２６": {
      "normalized_address": "茨城県茨城県坂東市辺田１２１３－２６",
      "raw_prefecture": "茨城県",
      "raw_address": "茨城県坂東市辺田１２１３－２６",
      "status": "ok",
      "updated_at": "2026-03-30T04:01:31+00:00",
      "lat": 36.0425572,
      "lng": 139.8984958,
      "formatted_address": "1213-26 Heta, Bando, Ibaraki 306-0632, Japan",
      "place_id": "ChIJCSAXJmOkGGARr758QWz9xjo"
    },
    "茨城県茨城県守谷市久保ケ丘２－１－１守谷テラス内２階": {
      "normalized_address": "茨城県茨城県守谷市久保ケ丘２－１－１守谷テラス内２階",
      "raw_prefecture": "茨城県",
      "raw_address": "茨城県守谷市久保ケ丘２－１－１守谷テラス内２階",
      "status": "ok",
      "updated_at": "2026-03-30T04:01:31+00:00",
      "lat": 35.9675262,
      "lng": 139.9754058,
      "formatted_address": "内,2, 2-chōme-1-1 Kubogaoka, Moriya, Ibaraki 302-0104, Japan",
      "place_id": "Ej7lhoUsMiwgMi1jaMWNbWUtMS0xIEt1Ym9nYW9rYSwgTW9yaXlhLCBJYmFyYWtpIDMwMi0wMTA0LCBKYXBhbiIhGh8KFgoUChIJf7iULQqfGGARimaUvvGbM5oSBeWGhSwy"
    },
    "茨城県茨城県守谷市大柏９５０－１": {
      "normalized_address": "茨城県茨城県守谷市大柏９５０－１",
      "raw_prefecture": "茨城県",
      "raw_address": "茨城県守谷市大柏９５０－１",
      "status": "ok",
      "updated_at": "2026-03-30T04:01:31+00:00",
      "lat": 35.9509703,
      "lng": 139.9759109,
      "formatted_address": "950-1 Ōgashiwa, Moriya, Ibaraki 302-0116, Japan",
      "place_id": "ChIJT_PoCP-eGGARRO1gy2gDDuA"
    },
    "茨城県茨城県守谷市松ケ丘３－８": {
      "normalized_address": "茨城県茨城県守谷市松ケ丘３－８",
      "raw_prefecture": "茨城県",
      "raw_address": "茨城県守谷市松ケ丘３－８",
      "status": "ok",
      "updated_at": "2026-03-30T04:01:31+00:00",
      "lat": 35.9373253,
      "lng": 139.9879377,
      "formatted_address": "3-chōme-8 Matsugaoka, Moriya, Ibaraki 302-0127, Japan",
      "place_id": "ChIJWa-ugmieGGARr-SgEM_0OOk"
    },
    "茨城県茨城県常総市新石下字駒離１５６３": {
      "normalized_address": "茨城県茨城県常総市新石下字駒離１５６３",
      "raw_prefecture": "茨城県",
      "raw_address": "茨城県常総市新石下字駒離１５６３",
      "status": "ok",
      "updated_at": "2026-03-30T04:01:32+00:00",
      "lat": 36.1096626,
      "lng": 139.9808276,
      "formatted_address": "Shinishige, Joso, Ibaraki 300-2706, Japan",
      "place_id": "ChIJN8XDuqunGGARY81i-wDl6Vk"
    },
    "茨城県茨城県常総市新石下４３１０－１": {
      "normalized_address": "茨城県茨城県常総市新石下４３１０－１",
      "raw_prefecture": "茨城県",
      "raw_address": "茨城県常総市新石下４３１０－１",
      "status": "ok",
      "updated_at": "2026-03-30T04:01:32+00:00",
      "lat": 36.1149302,
      "lng": 139.9806793,
      "formatted_address": "4310-1 Shinishige, Joso, Ibaraki 300-2706, Japan",
      "place_id": "ChIJR3n8mbOnGGARoP2466VY0tU"
    },
    "茨城県茨城県常総市水海道森下町４１３８－１": {
      "normalized_address": "茨城県茨城県常総市水海道森下町４１３８－１",
      "raw_prefecture": "茨城県",
      "raw_address": "茨城県常総市水海道森下町４１３８－１",
      "status": "ok",
      "updated_at": "2026-03-30T04:01:32+00:00",
      "lat": 36.0336723,
      "lng": 139.9872888,
      "formatted_address": "4138-1 Mitsukaidō Morishitamachi, Joso, Ibaraki 303-0005, Japan",
      "place_id": "ChIJfX5AzfmgGGARW6e4GmM5HVs"
    },
    "茨城県茨城県常総市水海道諏訪町３２２２－３": {
      "normalized_address": "茨城県茨城県常総市水海道諏訪町３２２２－３",
      "raw_prefecture": "茨城県",
      "raw_address": "茨城県常総市水海道諏訪町３２２２－３",
      "status": "ok",
      "updated_at": "2026-03-30T04:01:33+00:00",
      "lat": 36.0235066,
      "lng": 139.9936784,
      "formatted_address": "3222-3 Mitsukaidō Suwamachi, Joso, Ibaraki 303-8501, Japan",
      "place_id": "ChIJh8nXYEOgGGARPv7JI1hCk58"
    },
    "茨城県茨城県常陸大宮市下村田２３７０－１": {
      "normalized_address": "茨城県茨城県常陸大宮市下村田２３７０－１",
      "raw_prefecture": "茨城県",
      "raw_address": "茨城県常陸大宮市下村田２３７０－１",
      "status": "ok",
      "updated_at": "2026-03-30T04:01:33+00:00",
      "lat": 36.522616,
      "lng": 140.4322216,
      "formatted_address": "2370-1 Shimomurata, Hitachiomiya, Ibaraki 319-2131, Japan",
      "place_id": "ChIJT5Yra1-JIWARSoNFSTY7akA"
    },
    "茨城県茨城県常陸大宮市泉字根本上１１６１": {
      "normalized_address": "茨城県茨城県常陸大宮市泉字根本上１１６１",
      "raw_prefecture": "茨城県",
      "raw_address": "茨城県常陸大宮市泉字根本上１１６１",
      "status": "ok",
      "updated_at": "2026-03-30T04:01:33+00:00",
      "lat": 36.5292684,
      "lng": 140.428232,
      "formatted_address": "Izumi, Hitachiomiya, Ibaraki 319-2144, Japan",
      "place_id": "ChIJOawosf2LIWAR39JTn8KHctU"
    },
    "茨城県茨城県常陸太田市馬場町５６－１": {
      "normalized_address": "茨城県茨城県常陸太田市馬場町５６－１",
      "raw_prefecture": "茨城県",
      "raw_address": "茨城県常陸太田市馬場町５６－１",
      "status": "ok",
      "updated_at": "2026-03-30T04:01:34+00:00",
      "lat": 36.5493948,
      "lng": 140.5286812,
      "formatted_address": "56-1 Babachō, Hitachiota, Ibaraki 313-0004, Japan",
      "place_id": "ChIJ63HJGDqGIWARtNRTLpGhhHY"
    },
    "茨城県茨城県日立市末広町２－４－１": {
      "normalized_address": "茨城県茨城県日立市末広町２－４－１",
      "raw_prefecture": "茨城県",
      "raw_address": "茨城県日立市末広町２－４－１",
      "status": "ok",
      "updated_at": "2026-03-30T04:01:34+00:00",
      "lat": 36.5587454,
      "lng": 140.6261075,
      "formatted_address": "2-chōme-4-1 Suehirochō, Hitachi, Ibaraki 316-0006, Japan",
      "place_id": "ChIJg_-tyZKAIWARY1pca0PGyfo"
    },
    "茨城県茨城県日立市東滑川町５丁目１－４ＳＥＡＭＡＲＫＳＱＵＡＲＥ内": {
      "normalized_address": "茨城県茨城県日立市東滑川町５丁目１－４ＳＥＡＭＡＲＫＳＱＵＡＲＥ内",
      "raw_prefecture": "茨城県",
      "raw_address": "茨城県日立市東滑川町５丁目１－４ＳＥＡ　ＭＡＲＫ　ＳＱＵＡＲＥ内",
      "status": "ok",
      "updated_at": "2026-03-30T04:01:34+00:00",
      "lat": 36.6170433,
      "lng": 140.6782777,
      "formatted_address": "内, 5-chōme-1-1 Higashinamekawachō, Hitachi, Ibaraki 317-0052, Japan",
      "place_id": "EkflhoUsIDUtY2jFjW1lLTEtMSBIaWdhc2hpbmFtZWthd2FjaMWNLCBIaXRhY2hpLCBJYmFyYWtpIDMxNy0wMDUyLCBKYXBhbiIfGh0KFgoUChIJqaSkE-CBIWARqEpBbUY6JxQSA-WGhQ"
    },
    "茨城県茨城県日立市滑川町１－１２－１５": {
      "normalized_address": "茨城県茨城県日立市滑川町１－１２－１５",
      "raw_prefecture": "茨城県",
      "raw_address": "茨城県日立市滑川町１－１２－１５",
      "status": "ok",
      "updated_at": "2026-03-30T04:01:34+00:00",
      "lat": 36.6113418,
      "lng": 140.6684321,
      "formatted_address": "1-chōme-12-15 Namekawachō, Hitachi, Ibaraki 317-0053, Japan",
      "place_id": "ChIJ0ZW2u8KBIWARPIf1RySPC24"
    },
    "茨城県茨城県日立市鮎川町１－３－１": {
      "normalized_address": "茨城県茨城県日立市鮎川町１－３－１",
      "raw_prefecture": "茨城県",
      "raw_address": "茨城県日立市鮎川町１－３－１",
      "status": "ok",
      "updated_at": "2026-03-30T04:01:35+00:00",
      "lat": 36.558255,
      "lng": 140.6384075,
      "formatted_address": "1-chōme-3-1 Ayukawachō, Hitachi, Ibaraki 316-0036, Japan",
      "place_id": "ChIJie4oc2KAIWARXTRyOGFs3qA"
    },
    "茨城県茨城県東茨城郡大洗町磯浜町４２４６": {
      "normalized_address": "茨城県茨城県東茨城郡大洗町磯浜町４２４６",
      "raw_prefecture": "茨城県",
      "raw_address": "茨城県東茨城郡大洗町磯浜町４２４６",
      "status": "ok",
      "updated_at": "2026-03-30T04:01:35+00:00",
      "lat": 36.3211306,
      "lng": 140.5740871,
      "formatted_address": "4246 Isohamachō, Oarai, Higashiibaraki District, Ibaraki 311-1301, Japan",
      "place_id": "ChIJ92Or4xQxImARgSOqPYTBJEs"
    },
    "茨城県茨城県東茨城郡茨城町長岡字住吉３６５２－３５": {
      "normalized_address": "茨城県茨城県東茨城郡茨城町長岡字住吉３６５２－３５",
      "raw_prefecture": "茨城県",
      "raw_address": "茨城県東茨城郡茨城町長岡字住吉３６５２－３５",
      "status": "ok",
      "updated_at": "2026-03-30T04:01:35+00:00",
      "lat": 36.3106815,
      "lng": 140.4461466,
      "formatted_address": "Nagaoka, Ibaraki, Higashiibaraki District, Ibaraki 311-3116, Japan",
      "place_id": "ChIJNYI282g7ImARsPvhEVH4D_8"
    },
    "茨城県茨城県桜川市友部８７８－１": {
      "normalized_address": "茨城県茨城県桜川市友部８７８－１",
      "raw_prefecture": "茨城県",
      "raw_address": "茨城県桜川市友部８７８－１",
      "status": "ok",
      "updated_at": "2026-03-30T04:01:36+00:00",
      "lat": 36.3573302,
      "lng": 140.1395968,
      "formatted_address": "878-1 Tomobe, Sakuragawa, Ibaraki 309-1453, Japan",
      "place_id": "ChIJk1-P1If4IWARx_efZxEzE2Q"
    },
    "茨城県茨城県水戸市元吉田町上千束１９４４－１２": {
      "normalized_address": "茨城県茨城県水戸市元吉田町上千束１９４４－１２",
      "raw_prefecture": "茨城県",
      "raw_address": "茨城県水戸市元吉田町上千束１９４４－１２",
      "status": "ok",
      "updated_at": "2026-03-30T04:01:36+00:00",
      "lat": 36.34241,
      "lng": 140.47994,
      "formatted_address": "Kamisenzoku, Motoyoshidachō, Mito, Ibaraki 310-0836, Japan",
      "place_id": "ChIJjRsdYC4lImAR5A8q7OhGSvM"
    },
    "茨城県茨城県水戸市元吉田町１３２２－１": {
      "normalized_address": "茨城県茨城県水戸市元吉田町１３２２－１",
      "raw_prefecture": "茨城県",
      "raw_address": "茨城県水戸市元吉田町１３２２－１",
      "status": "ok",
      "updated_at": "2026-03-30T04:01:36+00:00",
      "lat": 36.3457258,
      "lng": 140.4726988,
      "formatted_address": "1322-1 Motoyoshidachō, Mito, Ibaraki 310-0836, Japan",
      "place_id": "ChIJXz9PeiclImARZAC762ZQZZQ"
    },
    "茨城県茨城県水戸市内原１－２０８": {
      "normalized_address": "茨城県茨城県水戸市内原１－２０８",
      "raw_prefecture": "茨城県",
      "raw_address": "茨城県水戸市内原１－２０８",
      "status": "ok",
      "updated_at": "2026-03-30T04:01:37+00:00",
      "lat": 36.3734298,
      "lng": 140.3554497,
      "formatted_address": "Japan, 〒319-0317 Ibaraki, Mito, Uchihara, 1-chōme−２０８ 208番地",
      "place_id": "ChIJx8nNSeQhImARumjpmclvvCU"
    },
    "茨城県茨城県水戸市内原１－２２５": {
      "normalized_address": "茨城県茨城県水戸市内原１－２２５",
      "raw_prefecture": "茨城県",
      "raw_address": "茨城県水戸市内原１－２２５",
      "status": "ok",
      "updated_at": "2026-03-30T04:01:37+00:00",
      "lat": 36.3718007,
      "lng": 140.354018,
      "formatted_address": "1-chōme-225 Uchihara, Mito, Ibaraki 319-0317, Japan",
      "place_id": "ChIJVV-AiOQhImAR1M6CTaVcmbE"
    },
    "茨城県茨城県水戸市内原２－１": {
      "normalized_address": "茨城県茨城県水戸市内原２－１",
      "raw_prefecture": "茨城県",
      "raw_address": "茨城県水戸市内原２－１",
      "status": "ok",
      "updated_at": "2026-03-30T04:01:37+00:00",
      "lat": 36.3748023,
      "lng": 140.3595087,
      "formatted_address": "Japan, 〒319-0317 茨城県水戸市内原２丁目１",
      "place_id": "ChIJJ8tOYe8hImARJJUHI2Imzpg"
    },
    "茨城県茨城県水戸市宮町１－７－３１エクセルみなみ（ＪＲ水戸駅ビル）": {
      "normalized_address": "茨城県茨城県水戸市宮町１－７－３１エクセルみなみ（ＪＲ水戸駅ビル）",
      "raw_prefecture": "茨城県",
      "raw_address": "茨城県水戸市宮町１－７－３１エクセルみなみ（ＪＲ水戸駅ビル）",
      "status": "ok",
      "updated_at": "2026-03-30T04:01:37+00:00",
      "lat": 36.3700643,
      "lng": 140.4766399,
      "formatted_address": "1-chōme-7-31 Miyamachi, Mito, Ibaraki 310-0015, Japan",
      "place_id": "ChIJVVUV1wAlImARaigvgTpcxSo"
    },
    "茨城県茨城県水戸市新原１－１９－１２": {
      "normalized_address": "茨城県茨城県水戸市新原１－１９－１２",
      "raw_prefecture": "茨城県",
      "raw_address": "茨城県水戸市新原１－１９－１２",
      "status": "ok",
      "updated_at": "2026-03-30T04:01:38+00:00",
      "lat": 36.3915654,
      "lng": 140.4369941,
      "formatted_address": "Japan, 〒310-0045 Ibaraki, Mito, Shinhara, 1-chōme−19−１２ セイエーデンキ",
      "place_id": "ChIJ96vEOwIkImARvGdNYZPTFtU"
    },
    "茨城県茨城県水戸市河和田２－２２３０－２": {
      "normalized_address": "茨城県茨城県水戸市河和田２－２２３０－２",
      "raw_prefecture": "茨城県",
      "raw_address": "茨城県水戸市河和田２－２２３０－２",
      "status": "ok",
      "updated_at": "2026-03-30T04:01:38+00:00",
      "lat": 36.3767251,
      "lng": 140.404009,
      "formatted_address": "2-chōme-2230-2 Kawawada, Mito, Ibaraki 311-4152, Japan",
      "place_id": "ChIJTVlLP9kjImAR4tAPkz2JXvg"
    },
    "茨城県茨城県水戸市渡里町２６９０－２": {
      "normalized_address": "茨城県茨城県水戸市渡里町２６９０－２",
      "raw_prefecture": "茨城県",
      "raw_address": "茨城県水戸市渡里町２６９０－２",
      "status": "ok",
      "updated_at": "2026-03-30T04:01:38+00:00",
      "lat": 36.4034347,
      "lng": 140.4339407,
      "formatted_address": "2690-2 Watarichō, Mito, Ibaraki 310-0902, Japan",
      "place_id": "ChIJA6QQrbMmImARdX-7H5N6DUE"
    },
    "茨城県茨城県水戸市笠原町２０９": {
      "normalized_address": "茨城県茨城県水戸市笠原町２０９",
      "raw_prefecture": "茨城県",
      "raw_address": "茨城県水戸市笠原町２０９",
      "status": "ok",
      "updated_at": "2026-03-30T04:01:39+00:00",
      "lat": 36.34789050000001,
      "lng": 140.458843,
      "formatted_address": "209 Kasaharachō, Mito, Ibaraki 310-0852, Japan",
      "place_id": "ChIJ42OsyekkImARxr2b4tfxO2U"
    },
    "茨城県茨城県水戸市笠原町９７８－４１": {
      "normalized_address": "茨城県茨城県水戸市笠原町９７８－４１",
      "raw_prefecture": "茨城県",
      "raw_address": "茨城県水戸市笠原町９７８－４１",
      "status": "ok",
      "updated_at": "2026-03-30T04:01:39+00:00",
      "lat": 36.3397082,
      "lng": 140.4494627,
      "formatted_address": "978-41 Kasaharachō, Mito, Ibaraki 310-0852, Japan",
      "place_id": "ChIJFx4FGb8kImARVGWQYB9qoX8"
    },
    "茨城県茨城県潮来市宮前２－３８－１０": {
      "normalized_address": "茨城県茨城県潮来市宮前２－３８－１０",
      "raw_prefecture": "茨城県",
      "raw_address": "茨城県潮来市宮前２－３８－１０",
      "status": "ok",
      "updated_at": "2026-03-30T04:01:39+00:00",
      "lat": 35.9601629,
      "lng": 140.5885233,
      "formatted_address": "Japan, 〒311-2412 Ibaraki, Itako, Miyamae, 2-chōme−３８−１０",
      "place_id": "ChIJ3aKKMnJWImARZ_mN5X0i2w8"
    },
    "茨城県茨城県牛久市ひたち野東２－６－３": {
      "normalized_address": "茨城県茨城県牛久市ひたち野東２－６－３",
      "raw_prefecture": "茨城県",
      "raw_address": "茨城県牛久市ひたち野東２－６－３",
      "status": "ok",
      "updated_at": "2026-03-30T04:01:39+00:00",
      "lat": 36.0087082,
      "lng": 140.1641136,
      "formatted_address": "2-chōme-6-3 Hitachinohigashi, Ushiku, Ibaraki 300-1207, Japan",
      "place_id": "ChIJ2zrxFBVyImARAW7ZpezCIHE"
    },
    "茨城県茨城県牛久市ひたち野西４－１－２": {
      "normalized_address": "茨城県茨城県牛久市ひたち野西４－１－２",
      "raw_prefecture": "茨城県",
      "raw_address": "茨城県牛久市ひたち野西４－１－２",
      "status": "ok",
      "updated_at": "2026-03-30T04:01:40+00:00",
      "lat": 36.0114154,
      "lng": 140.1457541,
      "formatted_address": "4-chōme-1-2 Hitachinonishi, Ushiku, Ibaraki 300-1206, Japan",
      "place_id": "ChIJOfgQjE1yImARTw-DACLpG8k"
    },
    "茨城県茨城県牛久市中央３－２": {
      "normalized_address": "茨城県茨城県牛久市中央３－２",
      "raw_prefecture": "茨城県",
      "raw_address": "茨城県牛久市中央３－２",
      "status": "ok",
      "updated_at": "2026-03-30T04:01:40+00:00",
      "lat": 35.98069520000001,
      "lng": 140.1463752,
      "formatted_address": "3-chōme-2 Chūō, Ushiku, Ibaraki 300-1234, Japan",
      "place_id": "ChIJbxWPQ4FxImAR2lcoOCavYTs"
    },
    "茨城県茨城県猿島郡境町１１５６－１": {
      "normalized_address": "茨城県茨城県猿島郡境町１１５６－１",
      "raw_prefecture": "茨城県",
      "raw_address": "茨城県猿島郡境町１１５６－１",
      "status": "ok",
      "updated_at": "2026-03-30T04:01:40+00:00",
      "lat": 36.1589393,
      "lng": 139.7594687,
      "formatted_address": "1, 1894-1 Komahane, Sakai, Sashima District, Ibaraki 306-0221, Japan",
      "place_id": "ChIJB8ENcGK0GGARNTRBpulWVJE"
    },
    "茨城県茨城県猿島郡境町１１６４－９": {
      "normalized_address": "茨城県茨城県猿島郡境町１１６４－９",
      "raw_prefecture": "茨城県",
      "raw_address": "茨城県猿島郡境町１１６４－９",
      "status": "ok",
      "updated_at": "2026-03-30T04:01:41+00:00",
      "lat": 36.1084158,
      "lng": 139.7950318,
      "formatted_address": "Sakai, Sashima District, Ibaraki, Japan",
      "place_id": "ChIJv0i5QwKxGGARmmEU7nIrIjk"
    },
    "茨城県茨城県石岡市東大橋字中峯１９３７－１": {
      "normalized_address": "茨城県茨城県石岡市東大橋字中峯１９３７－１",
      "raw_prefecture": "茨城県",
      "raw_address": "茨城県石岡市東大橋字中峯１９３７－１",
      "status": "ok",
      "updated_at": "2026-03-30T04:01:41+00:00",
      "lat": 36.1910326,
      "lng": 140.2871252,
      "formatted_address": "Ishioka, Ibaraki, Japan",
      "place_id": "ChIJU1wwPowQImAR7D_XNfO4GRQ"
    },
    "茨城県茨城県石岡市石岡１－１－１本庁舎１Ｆ": {
      "normalized_address": "茨城県茨城県石岡市石岡１－１－１本庁舎１Ｆ",
      "raw_prefecture": "茨城県",
      "raw_address": "茨城県石岡市石岡１－１－１本庁舎１Ｆ",
      "status": "ok",
      "updated_at": "2026-03-30T04:01:41+00:00",
      "lat": 36.190424,
      "lng": 140.2870542,
      "formatted_address": "1-chōme-1-1 Ishioka, Ibaraki 315-0001, Japan",
      "place_id": "ChIJzYHSQ58WImARSFx0d7Lqad8"
    },
    "茨城県茨城県石岡市石岡１２８８６フォレストモール石岡内": {
      "normalized_address": "茨城県茨城県石岡市石岡１２８８６フォレストモール石岡内",
      "raw_prefecture": "茨城県",
      "raw_address": "茨城県石岡市石岡１２８８６フォレストモール石岡内",
      "status": "ok",
      "updated_at": "2026-03-30T04:01:42+00:00",
      "lat": 36.2042458,
      "lng": 140.2891634,
      "formatted_address": "Japan, 〒315-0001 Ibaraki, Ishioka, １２８８６ フォレストモール石岡 内",
      "place_id": "EldKYXBhbiwg44CSMzE1LTAwMDEgSWJhcmFraSwgSXNoaW9rYSwg77yR77yS77yY77yY77yWIOODleOCqeODrOOCueODiOODouODvOODq-efs-WyoSDlhoUiHxodChYKFAoSCWs2zP6UFiJgEebLI-ePiXK_EgPlhoU"
    },
    "茨城県茨城県神栖市土合北１－７－６０": {
      "normalized_address": "茨城県茨城県神栖市土合北１－７－６０",
      "raw_prefecture": "茨城県",
      "raw_address": "茨城県神栖市土合北１－７－６０",
      "status": "ok",
      "updated_at": "2026-03-30T04:01:42+00:00",
      "lat": 35.7924231,
      "lng": 140.7858187,
      "formatted_address": "1-chōme-7-60 Doaikita, Kamisu, Ibaraki 314-0342, Japan",
      "place_id": "ChIJ5-5NK2AZI2ARI9uWutJvung"
    },
    "茨城県茨城県神栖市土合本町３－９８０９－１５": {
      "normalized_address": "茨城県茨城県神栖市土合本町３－９８０９－１５",
      "raw_prefecture": "茨城県",
      "raw_address": "茨城県神栖市土合本町３－９８０９－１５",
      "status": "ok",
      "updated_at": "2026-03-30T04:01:42+00:00",
      "lat": 35.79391,
      "lng": 140.7766856,
      "formatted_address": "3-chōme-9809-15 Doaihonchō, Kamisu, Ibaraki 314-0343, Japan",
      "place_id": "ChIJSeUsdeQbI2ARlDJUNNkhpRk"
    },
    "茨城県茨城県神栖市大野原４－４－３０": {
      "normalized_address": "茨城県茨城県神栖市大野原４－４－３０",
      "raw_prefecture": "茨城県",
      "raw_address": "茨城県神栖市大野原４－４－３０",
      "status": "ok",
      "updated_at": "2026-03-30T04:01:42+00:00",
      "lat": 35.8976399,
      "lng": 140.6400617,
      "formatted_address": "30, 4-chōme-4-30 Ōnohara, Kamisu, Ibaraki 314-0144, Japan",
      "place_id": "ChIJIY03KWL-ImARrajpiIhqf1c"
    },
    "茨城県茨城県神栖市大野原４－８－１": {
      "normalized_address": "茨城県茨城県神栖市大野原４－８－１",
      "raw_prefecture": "茨城県",
      "raw_address": "茨城県神栖市大野原４－８－１",
      "status": "ok",
      "updated_at": "2026-03-30T04:01:43+00:00",
      "lat": 35.8975601,
      "lng": 140.6366119,
      "formatted_address": "4-chōme-8-1 Ōnohara, Kamisu, Ibaraki 314-0144, Japan",
      "place_id": "ChIJh0xdFYr-ImARtGTOE932Icc"
    },
    "茨城県茨城県神栖市大野原７－５－５９": {
      "normalized_address": "茨城県茨城県神栖市大野原７－５－５９",
      "raw_prefecture": "茨城県",
      "raw_address": "茨城県神栖市大野原７－５－５９",
      "status": "ok",
      "updated_at": "2026-03-30T04:01:43+00:00",
      "lat": 35.8897511,
      "lng": 140.644671,
      "formatted_address": "7-chōme-5-59 Ōnohara, Kamisu, Ibaraki 314-0144, Japan",
      "place_id": "ChIJy_TRaHn-ImARicftYjBTBc8"
    },
    "茨城県茨城県神栖市平泉字北口５２７－２４": {
      "normalized_address": "茨城県茨城県神栖市平泉字北口５２７－２４",
      "raw_prefecture": "茨城県",
      "raw_address": "茨城県神栖市平泉字北口５２７－２４",
      "status": "ok",
      "updated_at": "2026-03-30T04:01:43+00:00",
      "lat": 35.912179,
      "lng": 140.6352878,
      "formatted_address": "Hiraizumi, Kamisu, Ibaraki 314-0146, Japan",
      "place_id": "ChIJvQ_Zwfj-ImARSZthu6XOtKU"
    },
    "茨城県茨城県神栖市平泉２－１２０": {
      "normalized_address": "茨城県茨城県神栖市平泉２－１２０",
      "raw_prefecture": "茨城県",
      "raw_address": "茨城県神栖市平泉２－１２０",
      "status": "ok",
      "updated_at": "2026-03-30T04:01:44+00:00",
      "lat": 35.9136924,
      "lng": 140.6395007,
      "formatted_address": "2番120 Hiraizumi, Kamisu, Ibaraki 314-0146, Japan",
      "place_id": "ChIJ7eOZs1f-ImARjCDXIgN-XBI"
    },
    "茨城県茨城県神栖市平泉２７５１": {
      "normalized_address": "茨城県茨城県神栖市平泉２７５１",
      "raw_prefecture": "茨城県",
      "raw_address": "茨城県神栖市平泉２７５１",
      "status": "ok",
      "updated_at": "2026-03-30T04:01:44+00:00",
      "lat": 35.9057285,
      "lng": 140.6340356,
      "formatted_address": "2751 Hiraizumi, Kamisu, Ibaraki 314-0146, Japan",
      "place_id": "ChIJkweFlfb-ImAROt8j8URc7F0"
    },
    "茨城県茨城県神栖市波崎６５３０": {
      "normalized_address": "茨城県茨城県神栖市波崎６５３０",
      "raw_prefecture": "茨城県",
      "raw_address": "茨城県神栖市波崎６５３０",
      "status": "ok",
      "updated_at": "2026-03-30T04:01:44+00:00",
      "lat": 35.7568101,
      "lng": 140.812989,
      "formatted_address": "6530 Hasaki, Kamisu, Ibaraki 314-0408, Japan",
      "place_id": "ChIJMxWxn1oYI2AReiZTqJUQLsk"
    },
    "茨城県茨城県神栖市波崎７１２１": {
      "normalized_address": "茨城県茨城県神栖市波崎７１２１",
      "raw_prefecture": "茨城県",
      "raw_address": "茨城県神栖市波崎７１２１",
      "status": "ok",
      "updated_at": "2026-03-30T04:01:44+00:00",
      "lat": 35.7537983,
      "lng": 140.8144381,
      "formatted_address": "7121 Hasaki, Kamisu, Ibaraki 314-0408, Japan",
      "place_id": "ChIJPVXJtEQYI2ARjjPnD2v9O3Y"
    },
    "茨城県茨城県神栖市波崎８３６８": {
      "normalized_address": "茨城県茨城県神栖市波崎８３６８",
      "raw_prefecture": "茨城県",
      "raw_address": "茨城県神栖市波崎８３６８",
      "status": "ok",
      "updated_at": "2026-03-30T04:01:45+00:00",
      "lat": 35.7502586,
      "lng": 140.8218197,
      "formatted_address": "8368 Hasaki, Kamisu, Ibaraki 314-0408, Japan",
      "place_id": "ChIJ4RE1ZGoYI2AR-zQknt-xmOY"
    },
    "茨城県茨城県神栖市波崎９５９１": {
      "normalized_address": "茨城県茨城県神栖市波崎９５９１",
      "raw_prefecture": "茨城県",
      "raw_address": "茨城県神栖市波崎９５９１",
      "status": "ok",
      "updated_at": "2026-03-30T04:01:45+00:00",
      "lat": 35.7516849,
      "lng": 140.8299156,
      "formatted_address": "9591 Hasaki, Kamisu, Ibaraki 314-0408, Japan",
      "place_id": "ChIJWQs7gBYYI2AR8O7w5WhpODY"
    },
    "茨城県茨城県神栖市溝口１７４６－１": {
      "normalized_address": "茨城県茨城県神栖市溝口１７４６－１",
      "raw_prefecture": "茨城県",
      "raw_address": "茨城県神栖市溝口１７４６－１",
      "status": "ok",
      "updated_at": "2026-03-30T04:01:45+00:00",
      "lat": 35.8885495,
      "lng": 140.6630461,
      "formatted_address": "1746-1 Mizoguchi, Kamisu, Ibaraki 314-0121, Japan",
      "place_id": "ChIJC-vhTOH9ImAR6ubX9hN8Ac0"
    },
    "茨城県茨城県神栖市溝口４９９１－４": {
      "normalized_address": "茨城県茨城県神栖市溝口４９９１－４",
      "raw_prefecture": "茨城県",
      "raw_address": "茨城県神栖市溝口４９９１－４",
      "status": "ok",
      "updated_at": "2026-03-30T04:01:46+00:00",
      "lat": 35.8886767,
      "lng": 140.669024,
      "formatted_address": "4991-4 Mizoguchi, Kamisu, Ibaraki 314-0121, Japan",
      "place_id": "ChIJzwdy0uT9ImAROWgCbf-T3jM"
    },
    "茨城県茨城県神栖市溝口４９９１－５": {
      "normalized_address": "茨城県茨城県神栖市溝口４９９１－５",
      "raw_prefecture": "茨城県",
      "raw_address": "茨城県神栖市溝口４９９１－５",
      "status": "ok",
      "updated_at": "2026-03-30T04:01:46+00:00",
      "lat": 35.8899435,
      "lng": 140.6645662,
      "formatted_address": "4991-5 Mizoguchi, Kamisu, Ibaraki 314-0192, Japan",
      "place_id": "ChIJbRUF6eP9ImARRzEd4-eLlmg"
    },
    "茨城県茨城県稲敷市江戸崎字荒句甲３２５－３": {
      "normalized_address": "茨城県茨城県稲敷市江戸崎字荒句甲３２５－３",
      "raw_prefecture": "茨城県",
      "raw_address": "茨城県稲敷市江戸崎字荒句甲３２５－３",
      "status": "ok",
      "updated_at": "2026-03-30T04:01:46+00:00",
      "lat": 35.9598376,
      "lng": 140.3168612,
      "formatted_address": "Edosaki, Inashiki, Ibaraki 300-0504, Japan",
      "place_id": "ChIJLa7BGjNmImARcM-kmw1lvgU"
    },
    "茨城県茨城県稲敷市西代字東田１４９５": {
      "normalized_address": "茨城県茨城県稲敷市西代字東田１４９５",
      "raw_prefecture": "茨城県",
      "raw_address": "茨城県稲敷市西代字東田１４９５",
      "status": "ok",
      "updated_at": "2026-03-30T04:01:46+00:00",
      "lat": 35.9182162,
      "lng": 140.48935,
      "formatted_address": "Nishishiro, Inashiki, Ibaraki 300-0726, Japan",
      "place_id": "ChIJBS8DAUVYImARNdmsvvGxXho"
    },
    "茨城県茨城県稲敷市角崎１６２５": {
      "normalized_address": "茨城県茨城県稲敷市角崎１６２５",
      "raw_prefecture": "茨城県",
      "raw_address": "茨城県稲敷市角崎１６２５",
      "status": "ok",
      "updated_at": "2026-03-30T04:01:47+00:00",
      "lat": 35.9066795,
      "lng": 140.2841939,
      "formatted_address": "1625 Sumizaki, Inashiki, Ibaraki 300-1416, Japan",
      "place_id": "ChIJw6Z7I79mImARpZmzPZgsPqQ"
    },
    "茨城県茨城県稲敷郡阿見町中央７－５７６－３": {
      "normalized_address": "茨城県茨城県稲敷郡阿見町中央７－５７６－３",
      "raw_prefecture": "茨城県",
      "raw_address": "茨城県稲敷郡阿見町中央７－５７６－３",
      "status": "ok",
      "updated_at": "2026-03-30T04:01:47+00:00",
      "lat": 36.0330076,
      "lng": 140.2247949,
      "formatted_address": "7-chōme-23-576-3 Chūō, Ami, Inashiki District, Ibaraki 300-0332, Japan",
      "place_id": "ChIJh3WPSTVsImARpBcWY6NyF2U"
    },
    "茨城県茨城県稲敷郡阿見町島津１５３８": {
      "normalized_address": "茨城県茨城県稲敷郡阿見町島津１５３８",
      "raw_prefecture": "茨城県",
      "raw_address": "茨城県稲敷郡阿見町島津１５３８",
      "status": "ok",
      "updated_at": "2026-03-30T04:01:47+00:00",
      "lat": 36.0300517,
      "lng": 140.25625,
      "formatted_address": "1538 Shimazu, Ami, Inashiki District, Ibaraki 300-0311, Japan",
      "place_id": "ChIJV6Lo2wJsImAR3XSa9v0cni4"
    },
    "茨城県茨城県笠間市石井字南町２０９０": {
      "normalized_address": "茨城県茨城県笠間市石井字南町２０９０",
      "raw_prefecture": "茨城県",
      "raw_address": "茨城県笠間市石井字南町２０９０",
      "status": "ok",
      "updated_at": "2026-03-30T04:01:48+00:00",
      "lat": 36.3870552,
      "lng": 140.2424728,
      "formatted_address": "Ishii, Kasama, Ibaraki 309-1613, Japan",
      "place_id": "ChIJ1bjp8Sf2IWAR7nIA8YKI8nk"
    },
    "茨城県茨城県筑西市丙３６０": {
      "normalized_address": "茨城県茨城県筑西市丙３６０",
      "raw_prefecture": "茨城県",
      "raw_address": "茨城県筑西市丙３６０",
      "status": "ok",
      "updated_at": "2026-03-30T04:01:48+00:00",
      "lat": 36.3052655,
      "lng": 139.9794297,
      "formatted_address": "360 Hei, Chikusei, Ibaraki 308-8616, Japan",
      "place_id": "ChIJ5aijTh5VH2AR_ws3BJW8wCI"
    },
    "茨城県茨城県筑西市布川１２４９－２０": {
      "normalized_address": "茨城県茨城県筑西市布川１２４９－２０",
      "raw_prefecture": "茨城県",
      "raw_address": "茨城県筑西市布川１２４９－２０",
      "status": "ok",
      "updated_at": "2026-03-30T04:01:48+00:00",
      "lat": 36.293031,
      "lng": 139.9237145,
      "formatted_address": "1249-20 Nunogawa, Chikusei, Ibaraki 308-0846, Japan",
      "place_id": "ChIJp5pdIHFTH2ARo4p3oaJk5gE"
    },
    "茨城県茨城県筑西市布川１２４９－２１": {
      "normalized_address": "茨城県茨城県筑西市布川１２４９－２１",
      "raw_prefecture": "茨城県",
      "raw_address": "茨城県筑西市布川１２４９－２１",
      "status": "ok",
      "updated_at": "2026-03-30T04:01:48+00:00",
      "lat": 36.291985,
      "lng": 139.9241498,
      "formatted_address": "1249-21 Nunogawa, Chikusei, Ibaraki 308-0846, Japan",
      "place_id": "ChIJ9e1__nBTH2ARQQkyT8gx99Y"
    },
    "茨城県茨城県筑西市布川１２４９－８": {
      "normalized_address": "茨城県茨城県筑西市布川１２４９－８",
      "raw_prefecture": "茨城県",
      "raw_address": "茨城県筑西市布川１２４９－８",
      "status": "ok",
      "updated_at": "2026-03-30T04:01:49+00:00",
      "lat": 36.291861,
      "lng": 139.9217993,
      "formatted_address": "1249-8 Nunogawa, Chikusei, Ibaraki 308-0846, Japan",
      "place_id": "ChIJce52ZnFTH2ARukwYBEMni5Q"
    },
    "茨城県茨城県筑西市横島８３２": {
      "normalized_address": "茨城県茨城県筑西市横島８３２",
      "raw_prefecture": "茨城県",
      "raw_address": "茨城県筑西市横島８３２",
      "status": "ok",
      "updated_at": "2026-03-30T04:01:49+00:00",
      "lat": 36.3170492,
      "lng": 139.9935858,
      "formatted_address": "832 Yokoshima, Chikusei, Ibaraki 308-0802, Japan",
      "place_id": "ChIJH12jDxJVH2ARztXfahSy56Q"
    },
    "茨城県茨城県結城市下り松３丁目１番地５": {
      "normalized_address": "茨城県茨城県結城市下り松３丁目１番地５",
      "raw_prefecture": "茨城県",
      "raw_address": "茨城県結城市下り松３丁目１番地５",
      "status": "ok",
      "updated_at": "2026-03-30T04:01:49+00:00",
      "lat": 36.2870856,
      "lng": 139.8728866,
      "formatted_address": "Japan, 〒307-0008 Ibaraki, Yuki, Sagarimatsu, 3-chōme−１−５",
      "place_id": "ChIJqVUI1GdSH2AR3ouZAp3GNzY"
    },
    "茨城県茨城県結城郡八千代町大字菅谷１１７０": {
      "normalized_address": "茨城県茨城県結城郡八千代町大字菅谷１１７０",
      "raw_prefecture": "茨城県",
      "raw_address": "茨城県結城郡八千代町大字菅谷１１７０",
      "status": "ok",
      "updated_at": "2026-03-30T04:01:50+00:00",
      "lat": 36.181626,
      "lng": 139.8911792,
      "formatted_address": "1170 Sugenoya, Yachiyo, Yūki District, Ibaraki 300-3572, Japan",
      "place_id": "ChIJdZld3dOtGGARE8LjD_ju9KM"
    },
    "茨城県茨城県那珂市菅谷大字寄居１６２０－１": {
      "normalized_address": "茨城県茨城県那珂市菅谷大字寄居１６２０－１",
      "raw_prefecture": "茨城県",
      "raw_address": "茨城県那珂市菅谷大字寄居１６２０－１",
      "status": "ok",
      "updated_at": "2026-03-30T04:01:50+00:00",
      "lat": 36.4381036,
      "lng": 140.5122575,
      "formatted_address": "1474 Sugaya, Naka, Ibaraki 311-0105, Japan",
      "place_id": "ChIJu7MZQR4mImARJBMczDpn93k"
    },
    "茨城県茨城県那珂市菅谷１６１４": {
      "normalized_address": "茨城県茨城県那珂市菅谷１６１４",
      "raw_prefecture": "茨城県",
      "raw_address": "茨城県那珂市菅谷１６１４",
      "status": "ok",
      "updated_at": "2026-03-30T04:01:50+00:00",
      "lat": 36.4283158,
      "lng": 140.5150144,
      "formatted_address": "1614 Sugaya, Naka, Ibaraki 311-0105, Japan",
      "place_id": "ChIJwULE9akoImARebA0byuNeBw"
    },
    "茨城県茨城県那珂郡東海村村松２０８３": {
      "normalized_address": "茨城県茨城県那珂郡東海村村松２０８３",
      "raw_prefecture": "茨城県",
      "raw_address": "茨城県那珂郡東海村村松２０８３",
      "status": "ok",
      "updated_at": "2026-03-30T04:01:51+00:00",
      "lat": 36.4582816,
      "lng": 140.575844,
      "formatted_address": "2083 Muramatsu, Tokai, Naka District, Ibaraki 319-1112, Japan",
      "place_id": "ChIJ_QtEikcpImARXh3ApxUZl7g"
    },
    "茨城県茨城県鉾田市安房字水砂１４１８－１３": {
      "normalized_address": "茨城県茨城県鉾田市安房字水砂１４１８－１３",
      "raw_prefecture": "茨城県",
      "raw_address": "茨城県鉾田市安房字水砂１４１８－１３",
      "status": "ok",
      "updated_at": "2026-03-30T04:01:51+00:00",
      "lat": 36.1716252,
      "lng": 140.5213218,
      "formatted_address": "Anbo, Hokota, Ibaraki 311-1504, Japan",
      "place_id": "ChIJa-2smWJIImARZLhSBfJjhK0"
    },
    "茨城県茨城県高萩市安良川２３７－１": {
      "normalized_address": "茨城県茨城県高萩市安良川２３７－１",
      "raw_prefecture": "茨城県",
      "raw_address": "茨城県高萩市安良川２３７－１",
      "status": "ok",
      "updated_at": "2026-03-30T04:01:51+00:00",
      "lat": 36.7056149,
      "lng": 140.7104345,
      "formatted_address": "237-1 Arakawa, Takahagi, Ibaraki 318-0021, Japan",
      "place_id": "ChIJE8wY4Dl4IWARhefghbCnxnk"
    },
    "茨城県茨城県鹿嶋市宮中字東山３３３－４": {
      "normalized_address": "茨城県茨城県鹿嶋市宮中字東山３３３－４",
      "raw_prefecture": "茨城県",
      "raw_address": "茨城県鹿嶋市宮中字東山３３３－４",
      "status": "ok",
      "updated_at": "2026-03-30T04:01:52+00:00",
      "lat": 35.9638694,
      "lng": 140.6288069,
      "formatted_address": "Kyuchu, Kashima, Ibaraki 314-0031, Japan",
      "place_id": "ChIJ9zA8FptVImAR8qqeEw6bdi8"
    },
    "茨城県茨城県鹿嶋市宮中２００２": {
      "normalized_address": "茨城県茨城県鹿嶋市宮中２００２",
      "raw_prefecture": "茨城県",
      "raw_address": "茨城県鹿嶋市宮中２００２",
      "status": "ok",
      "updated_at": "2026-03-30T04:01:52+00:00",
      "lat": 35.9637461,
      "lng": 140.6429101,
      "formatted_address": "2002 Kyūchū, Kashima, Ibaraki 314-0031, Japan",
      "place_id": "ChIJGy36RXlVImARDMIKV1Av5us"
    },
    "茨城県茨城県鹿嶋市平井１１８７－１": {
      "normalized_address": "茨城県茨城県鹿嶋市平井１１８７－１",
      "raw_prefecture": "茨城県",
      "raw_address": "茨城県鹿嶋市平井１１８７－１",
      "status": "ok",
      "updated_at": "2026-03-30T04:01:52+00:00",
      "lat": 35.9666554,
      "lng": 140.6452448,
      "formatted_address": "1187-1 Hirai, Kashima, Ibaraki 314-0012, Japan",
      "place_id": "ChIJkcvlrXtVImARyBBDPzvH4Y0"
    },
    "茨城県茨城県龍ケ崎市中里２－１－１": {
      "normalized_address": "茨城県茨城県龍ケ崎市中里２－１－１",
      "raw_prefecture": "茨城県",
      "raw_address": "茨城県龍ケ崎市中里２－１－１",
      "status": "ok",
      "updated_at": "2026-03-30T04:01:52+00:00",
      "lat": 35.9294648,
      "lng": 140.2018727,
      "formatted_address": "Japan, 〒301-0854 Ibaraki, Ryugasaki, Nakazato, 2-chōme−１−１",
      "place_id": "ChIJe-bOZ15lImAR6MXR5mIfUhM"
    },
    "茨城県茨城県龍ケ崎市中里２－１－２": {
      "normalized_address": "茨城県茨城県龍ケ崎市中里２－１－２",
      "raw_prefecture": "茨城県",
      "raw_address": "茨城県龍ケ崎市中里２－１－２",
      "status": "ok",
      "updated_at": "2026-03-30T04:01:53+00:00",
      "lat": 35.9318743,
      "lng": 140.202565,
      "formatted_address": "2-chōme-1-2 Nakazato, Ryugasaki, Ibaraki 301-0854, Japan",
      "place_id": "ChIJnS5fx19lImARMpZeM0czeiE"
    },
    "茨城県茨城県龍ケ崎市小柴５－１－２サプラモール２Ｆ": {
      "normalized_address": "茨城県茨城県龍ケ崎市小柴５－１－２サプラモール２Ｆ",
      "raw_prefecture": "茨城県",
      "raw_address": "茨城県龍ケ崎市小柴５－１－２サプラモール２Ｆ",
      "status": "ok",
      "updated_at": "2026-03-30T04:01:53+00:00",
      "lat": 35.9328325,
      "lng": 140.1602545,
      "formatted_address": "Japan, 〒301-0044 Ibaraki, Ryugasaki, Koshiba, 5-chōme−１−２",
      "place_id": "ChIJK13Z_mpwImAR7tpO9-O0rVg"
    },
    "茨城県茨城県龍ケ崎市小通幸谷町２２８": {
      "normalized_address": "茨城県茨城県龍ケ崎市小通幸谷町２２８",
      "raw_prefecture": "茨城県",
      "raw_address": "茨城県龍ケ崎市小通幸谷町２２８",
      "status": "ok",
      "updated_at": "2026-03-30T04:01:53+00:00",
      "lat": 35.9287303,
      "lng": 140.1349803,
      "formatted_address": "228 Kotōrikōyamachi, Ryugasaki, Ibaraki 301-0034, Japan",
      "place_id": "ChIJ5TdFz_NwImARf5tw2PMwUBg"
    },
    "茨城県茨城県龍ケ崎市板橋町４３６－２": {
      "normalized_address": "茨城県茨城県龍ケ崎市板橋町４３６－２",
      "raw_prefecture": "茨城県",
      "raw_address": "茨城県龍ケ崎市板橋町４３６－２",
      "status": "ok",
      "updated_at": "2026-03-30T04:01:54+00:00",
      "lat": 35.9308832,
      "lng": 140.2495762,
      "formatted_address": "436-2 Itabashimachi, Ryugasaki, Ibaraki 301-0801, Japan",
      "place_id": "ChIJgztcesFlImAR7w_a4fy7ZI4"
    },
    "茨城県茨城県龍ケ崎市馴柴町２１－１": {
      "normalized_address": "茨城県茨城県龍ケ崎市馴柴町２１－１",
      "raw_prefecture": "茨城県",
      "raw_address": "茨城県龍ケ崎市馴柴町２１－１",
      "status": "ok",
      "updated_at": "2026-03-30T04:01:54+00:00",
      "lat": 35.928919,
      "lng": 140.1470924,
      "formatted_address": "21-1 Nareshibamachi, Ryugasaki, Ibaraki 301-0007, Japan",
      "place_id": "ChIJ3wh4s2BwImARNwdTf0fipFU"
    },
    "茨城県茨城県龍ケ崎市３７１０": {
      "normalized_address": "茨城県茨城県龍ケ崎市３７１０",
      "raw_prefecture": "茨城県",
      "raw_address": "茨城県龍ケ崎市３７１０",
      "status": "ok",
      "updated_at": "2026-03-30T04:01:54+00:00",
      "lat": 35.9116106,
      "lng": 140.1823263,
      "formatted_address": "Ryugasaki, Ibaraki, Japan",
      "place_id": "ChIJgQQ7pyJwImARC1GPux_vqDA"
    }
  }
}
