{
  "version": 1,
  "generated_at": "2026-03-31T03:44:15+00:00",
  "source_file": "docs/data/1-17.json",
  "entries": {
    "石川県石川県かほく市宇野気イ１０５－１": {
      "normalized_address": "石川県石川県かほく市宇野気イ１０５－１",
      "raw_prefecture": "石川県",
      "raw_address": "石川県かほく市宇野気イ１０５－１",
      "status": "ok",
      "updated_at": "2026-03-31T03:44:02+00:00",
      "lat": 36.7200864,
      "lng": 136.7043611,
      "formatted_address": "Unoke, Kahoku, Ishikawa 929-1125, Japan",
      "place_id": "ChIJncWgGPHW-V8RLk3WyoeGMFk"
    },
    "石川県石川県七尾市古府町か３１－１": {
      "normalized_address": "石川県石川県七尾市古府町か３１－１",
      "raw_prefecture": "石川県",
      "raw_address": "石川県七尾市古府町か３１－１",
      "status": "ok",
      "updated_at": "2026-03-31T03:44:02+00:00",
      "lat": 37.03304809999999,
      "lng": 136.9625033,
      "formatted_address": "Ka-31 Furukomachi, Nanao, Ishikawa 926-0031, Japan",
      "place_id": "ChIJy6laUYk9918RCNlQTIvGgzI"
    },
    "石川県石川県七尾市和倉町ラ部９－６": {
      "normalized_address": "石川県石川県七尾市和倉町ラ部９－６",
      "raw_prefecture": "石川県",
      "raw_address": "石川県七尾市和倉町ラ部９－６",
      "status": "ok",
      "updated_at": "2026-03-31T03:44:02+00:00",
      "lat": 37.0873944,
      "lng": 136.917478,
      "formatted_address": "Ra Wakuramachi, Nanao, Ishikawa 926-0175, Japan",
      "place_id": "ChIJnwrRF2c7918RCMHRSZiP9Zk"
    },
    "石川県石川県七尾市細口町ホ部４": {
      "normalized_address": "石川県石川県七尾市細口町ホ部４",
      "raw_prefecture": "石川県",
      "raw_address": "石川県七尾市細口町ホ部４",
      "status": "ok",
      "updated_at": "2026-03-31T03:44:02+00:00",
      "lat": 37.0296513,
      "lng": 136.9446781,
      "formatted_address": "Ho Hosoguchimachi, Nanao, Ishikawa 926-0822, Japan",
      "place_id": "ChIJQ6PaKfA9918RauVZxg5_GuM"
    },
    "石川県石川県七尾市藤橋町申部６": {
      "normalized_address": "石川県石川県七尾市藤橋町申部６",
      "raw_prefecture": "石川県",
      "raw_address": "石川県七尾市藤橋町申部６",
      "status": "ok",
      "updated_at": "2026-03-31T03:44:03+00:00",
      "lat": 37.0402152,
      "lng": 136.9554675,
      "formatted_address": "Saru Fujihashimachi, Nanao, Ishikawa 926-0816, Japan",
      "place_id": "ChIJn6N9QZc9918RzHNaMPdP_xs"
    },
    "石川県石川県七尾市藤橋町酉３９": {
      "normalized_address": "石川県石川県七尾市藤橋町酉３９",
      "raw_prefecture": "石川県",
      "raw_address": "石川県七尾市藤橋町酉３９",
      "status": "ok",
      "updated_at": "2026-03-31T03:44:03+00:00",
      "lat": 37.0417118,
      "lng": 136.9538653,
      "formatted_address": "Tori-39 Fujihashimachi, Nanao, Ishikawa 926-0816, Japan",
      "place_id": "ChIJ50RPiZc9918RzRKidx-BQI8"
    },
    "石川県石川県加賀市作見町ル２５－１": {
      "normalized_address": "石川県石川県加賀市作見町ル２５－１",
      "raw_prefecture": "石川県",
      "raw_address": "石川県加賀市作見町ル２５－１",
      "status": "ok",
      "updated_at": "2026-03-31T03:44:03+00:00",
      "lat": 36.3197734,
      "lng": 136.3523983,
      "formatted_address": "Ru-25 Sakumimachi, Kaga, Ishikawa 922-0423, Japan",
      "place_id": "ChIJT8FLVCD4-F8RGt2W5Wc08S4"
    },
    "石川県石川県加賀市作見町７４－１": {
      "normalized_address": "石川県石川県加賀市作見町７４－１",
      "raw_prefecture": "石川県",
      "raw_address": "石川県加賀市作見町７４－１",
      "status": "ok",
      "updated_at": "2026-03-31T03:44:03+00:00",
      "lat": 36.3220636,
      "lng": 136.3544624,
      "formatted_address": "Sakumimachi, Kaga, Ishikawa 922-0423, Japan",
      "place_id": "ChIJQVKU4SH4-F8Ry3DB1FhBDuI"
    },
    "石川県石川県加賀市加茂町チ２４": {
      "normalized_address": "石川県石川県加賀市加茂町チ２４",
      "raw_prefecture": "石川県",
      "raw_address": "石川県加賀市加茂町チ２４",
      "status": "ok",
      "updated_at": "2026-03-31T03:44:04+00:00",
      "lat": 36.3082233,
      "lng": 136.3621619,
      "formatted_address": "Chi-24 Kamomachi, Kaga, Ishikawa 922-0241, Japan",
      "place_id": "ChIJg0iEUJf3-F8RvjTElu0snMw"
    },
    "石川県石川県加賀市加茂町１１６－２": {
      "normalized_address": "石川県石川県加賀市加茂町１１６－２",
      "raw_prefecture": "石川県",
      "raw_address": "石川県加賀市加茂町１１６－２",
      "status": "ok",
      "updated_at": "2026-03-31T03:44:04+00:00",
      "lat": 36.3070005,
      "lng": 136.3581221,
      "formatted_address": "116-2 Kamomachi, Kaga, Ishikawa 922-0241, Japan",
      "place_id": "ChIJc8EzY5n3-F8Rzhuqm6IpXHM"
    },
    "石川県石川県加賀市塩浜町に８２": {
      "normalized_address": "石川県石川県加賀市塩浜町に８２",
      "raw_prefecture": "石川県",
      "raw_address": "石川県加賀市塩浜町に８２",
      "status": "ok",
      "updated_at": "2026-03-31T03:44:04+00:00",
      "lat": 36.3520812,
      "lng": 136.331495,
      "formatted_address": "Shiohamamachi, Kaga, Ishikawa 922-0446, Japan",
      "place_id": "ChIJqZvwVChW-F8RHMC_qs4o1hA"
    },
    "石川県石川県小松市不動島町１": {
      "normalized_address": "石川県石川県小松市不動島町１",
      "raw_prefecture": "石川県",
      "raw_address": "石川県小松市不動島町１",
      "status": "ok",
      "updated_at": "2026-03-31T03:44:04+00:00",
      "lat": 36.3946107,
      "lng": 136.4584063,
      "formatted_address": "Fudojimamachi, Komatsu, Ishikawa 923-0863, Japan",
      "place_id": "ChIJg-Js9PlQ-F8R9rBIK-hg9wg"
    },
    "石川県石川県小松市不動島町６８番地": {
      "normalized_address": "石川県石川県小松市不動島町６８番地",
      "raw_prefecture": "石川県",
      "raw_address": "石川県小松市不動島町６８番地",
      "status": "ok",
      "updated_at": "2026-03-31T03:44:05+00:00",
      "lat": 36.395095,
      "lng": 136.460496,
      "formatted_address": "68 Fudōjimamachi, Komatsu, Ishikawa 923-0863, Japan",
      "place_id": "ChIJB625tflQ-F8RHNMuOCUsr7w"
    },
    "石川県石川県小松市園町ハ２３－１": {
      "normalized_address": "石川県石川県小松市園町ハ２３－１",
      "raw_prefecture": "石川県",
      "raw_address": "石川県小松市園町ハ２３－１",
      "status": "ok",
      "updated_at": "2026-03-31T03:44:05+00:00",
      "lat": 36.4064376,
      "lng": 136.4605976,
      "formatted_address": "Ha-23-1 Sonomachi, Komatsu, Ishikawa 923-0801, Japan",
      "place_id": "ChIJs5c2961R-F8RUQDBFUrS7oA"
    },
    "石川県石川県小松市打越町乙６８": {
      "normalized_address": "石川県石川県小松市打越町乙６８",
      "raw_prefecture": "石川県",
      "raw_address": "石川県小松市打越町乙６８",
      "status": "ok",
      "updated_at": "2026-03-31T03:44:05+00:00",
      "lat": 36.3984523,
      "lng": 136.4766824,
      "formatted_address": "Otsu-68 Uchikoshimachi, Komatsu, Ishikawa 923-0831, Japan",
      "place_id": "ChIJWewULltQ-F8RS8V5TMLHoBY"
    },
    "石川県石川県小松市沖町６１１": {
      "normalized_address": "石川県石川県小松市沖町６１１",
      "raw_prefecture": "石川県",
      "raw_address": "石川県小松市沖町６１１",
      "status": "ok",
      "updated_at": "2026-03-31T03:44:05+00:00",
      "lat": 36.3972366,
      "lng": 136.469807,
      "formatted_address": "611 Okimachi, Komatsu, Ishikawa 923-0861, Japan",
      "place_id": "ChIJpcng81lQ-F8RGKCCtfl6EYg"
    },
    "石川県石川県小松市清六町３１５番地イオンモール新小松１Ｆ": {
      "normalized_address": "石川県石川県小松市清六町３１５番地イオンモール新小松１Ｆ",
      "raw_prefecture": "石川県",
      "raw_address": "石川県小松市清六町３１５番地イオンモール新小松１Ｆ",
      "status": "ok",
      "updated_at": "2026-03-31T03:44:06+00:00",
      "lat": 36.3949812,
      "lng": 136.4670586,
      "formatted_address": "315 Seirokumachi, Komatsu, Ishikawa 923-8565, Japan",
      "place_id": "ChIJxfVfFlhQ-F8RkoRAMFgwyyg"
    },
    "石川県石川県河北郡津幡町北中条１－１": {
      "normalized_address": "石川県石川県河北郡津幡町北中条１－１",
      "raw_prefecture": "石川県",
      "raw_address": "石川県河北郡津幡町北中条１－１",
      "status": "ok",
      "updated_at": "2026-03-31T03:44:06+00:00",
      "lat": 36.6612083,
      "lng": 136.7255287,
      "formatted_address": "1-chōme-1 Kitachūjō, Tsubata, Kahoku District, Ishikawa 929-0342, Japan",
      "place_id": "ChIJRSkfY3HT-V8R4Q-Gs2XiP2M"
    },
    "石川県石川県河北郡津幡町北中条１－２": {
      "normalized_address": "石川県石川県河北郡津幡町北中条１－２",
      "raw_prefecture": "石川県",
      "raw_address": "石川県河北郡津幡町北中条１－２",
      "status": "ok",
      "updated_at": "2026-03-31T03:44:06+00:00",
      "lat": 36.6605187,
      "lng": 136.7275517,
      "formatted_address": "1-chōme-2 Kitachūjō, Tsubata, Kahoku District, Ishikawa 929-0342, Japan",
      "place_id": "ChIJ6TQzjHHT-V8RosWTqXC01gI"
    },
    "石川県石川県河北郡津幡町字領家ル９－１": {
      "normalized_address": "石川県石川県河北郡津幡町字領家ル９－１",
      "raw_prefecture": "石川県",
      "raw_address": "石川県河北郡津幡町字領家ル９－１",
      "status": "ok",
      "updated_at": "2026-03-31T03:44:06+00:00",
      "lat": 36.6978188,
      "lng": 136.7055984,
      "formatted_address": "Ru Ryoke, Tsubata, Kahoku District, Ishikawa 929-0318, Japan",
      "place_id": "ChIJzQyi7KbW-V8RgUdAMKgJ28Q"
    },
    "石川県石川県白山市倉光６－２": {
      "normalized_address": "石川県石川県白山市倉光６－２",
      "raw_prefecture": "石川県",
      "raw_address": "石川県白山市倉光６－２",
      "status": "ok",
      "updated_at": "2026-03-31T03:44:07+00:00",
      "lat": 36.5155229,
      "lng": 136.5689193,
      "formatted_address": "6-chōme-2 Kuramitsu, Hakusan, Ishikawa 924-0865, Japan",
      "place_id": "ChIJe3Lb_WVK-F8RhbvjQHVnlDQ"
    },
    "石川県石川県白山市八ツ矢町５２２－１": {
      "normalized_address": "石川県石川県白山市八ツ矢町５２２－１",
      "raw_prefecture": "石川県",
      "raw_address": "石川県白山市八ツ矢町５２２－１",
      "status": "ok",
      "updated_at": "2026-03-31T03:44:07+00:00",
      "lat": 36.5256183,
      "lng": 136.5729774,
      "formatted_address": "522-1 Yatsuyamachi, Hakusan, Ishikawa 924-0882, Japan",
      "place_id": "ChIJX0GQ0H9K-F8RBDzvLX-W6os"
    },
    "石川県石川県白山市坂尻町ロ３８－２": {
      "normalized_address": "石川県石川県白山市坂尻町ロ３８－２",
      "raw_prefecture": "石川県",
      "raw_address": "石川県白山市坂尻町ロ３８－２",
      "status": "ok",
      "updated_at": "2026-03-31T03:44:07+00:00",
      "lat": 36.48354339999999,
      "lng": 136.613612,
      "formatted_address": "Ro-38 Sakajirimachi, Hakusan, Ishikawa 920-2102, Japan",
      "place_id": "ChIJd9bpf7lJ-F8RL9bcFyN47F8"
    },
    "石川県石川県白山市幸明町２８５": {
      "normalized_address": "石川県石川県白山市幸明町２８５",
      "raw_prefecture": "石川県",
      "raw_address": "石川県白山市幸明町２８５",
      "status": "ok",
      "updated_at": "2026-03-31T03:44:07+00:00",
      "lat": 36.5152195,
      "lng": 136.5782573,
      "formatted_address": "285 Kōmyōmachi, Hakusan, Ishikawa 924-0817, Japan",
      "place_id": "ChIJ8QUi-XFK-F8R_zKEfGlwKA4"
    },
    "石川県石川県白山市横江町５００１イオンモール白山２Ｆ": {
      "normalized_address": "石川県石川県白山市横江町５００１イオンモール白山２Ｆ",
      "raw_prefecture": "石川県",
      "raw_address": "石川県白山市横江町５００１イオンモール白山２Ｆ",
      "status": "ok",
      "updated_at": "2026-03-31T03:44:08+00:00",
      "lat": 36.5443371,
      "lng": 136.5815283,
      "formatted_address": "5001 Yokoemachi, Hakusan, Ishikawa 924-8777, Japan",
      "place_id": "ChIJ2cDUxt41-F8RsjDRs5vbGEg"
    },
    "石川県石川県白山市荒屋柏野町５８": {
      "normalized_address": "石川県石川県白山市荒屋柏野町５８",
      "raw_prefecture": "石川県",
      "raw_address": "石川県白山市荒屋柏野町５８",
      "status": "ok",
      "updated_at": "2026-03-31T03:44:08+00:00",
      "lat": 36.4989418,
      "lng": 136.5404921,
      "formatted_address": "58 Arayakashiwanomachi, Hakusan, Ishikawa 924-0037, Japan",
      "place_id": "ChIJQ5N157BL-F8RuZBGSvUad8w"
    },
    "石川県石川県白山市部入道町ヌ４１－６": {
      "normalized_address": "石川県石川県白山市部入道町ヌ４１－６",
      "raw_prefecture": "石川県",
      "raw_address": "石川県白山市部入道町ヌ４１－６",
      "status": "ok",
      "updated_at": "2026-03-31T03:44:08+00:00",
      "lat": 36.4977573,
      "lng": 136.5991048,
      "formatted_address": "Nu-41-6 Bunyūdōmachi, Hakusan, Ishikawa 920-2167, Japan",
      "place_id": "ChIJC7fYh_RJ-F8RpC8bALSHPos"
    },
    "石川県石川県羽咋市太田町と１５９－１": {
      "normalized_address": "石川県石川県羽咋市太田町と１５９－１",
      "raw_prefecture": "石川県",
      "raw_address": "石川県羽咋市太田町と１５９－１",
      "status": "ok",
      "updated_at": "2026-03-31T03:44:08+00:00",
      "lat": 36.8949367,
      "lng": 136.80816,
      "formatted_address": "To-159-1 Ōtamachi, Hakui, Ishikawa 925-0025, Japan",
      "place_id": "ChIJlyG9eddo918RLkoWW82fzVY"
    },
    "石川県石川県羽咋市石野町ト５": {
      "normalized_address": "石川県石川県羽咋市石野町ト５",
      "raw_prefecture": "石川県",
      "raw_address": "石川県羽咋市石野町ト５",
      "status": "ok",
      "updated_at": "2026-03-31T03:44:09+00:00",
      "lat": 36.8940401,
      "lng": 136.7963436,
      "formatted_address": "To-5 Ishinomachi, Hakui, Ishikawa 925-0026, Japan",
      "place_id": "ChIJpwBussRo918R5KchW--IFhY"
    },
    "石川県石川県羽咋市石野町ロ５３": {
      "normalized_address": "石川県石川県羽咋市石野町ロ５３",
      "raw_prefecture": "石川県",
      "raw_address": "石川県羽咋市石野町ロ５３",
      "status": "ok",
      "updated_at": "2026-03-31T03:44:09+00:00",
      "lat": 36.8938852,
      "lng": 136.8030016,
      "formatted_address": "Ro-53 Ishinomachi, Hakui, Ishikawa 925-0026, Japan",
      "place_id": "ChIJYVfWbtpo918R5g-vQYRSk6M"
    },
    "石川県石川県羽咋郡志賀町末吉鵜島３－１": {
      "normalized_address": "石川県石川県羽咋郡志賀町末吉鵜島３－１",
      "raw_prefecture": "石川県",
      "raw_address": "石川県羽咋郡志賀町末吉鵜島３－１",
      "status": "ok",
      "updated_at": "2026-03-31T03:44:09+00:00",
      "lat": 37.0080078,
      "lng": 136.7821923,
      "formatted_address": "Ujima-3 Sueyoshi, Shika, Hakui District, Ishikawa 925-0154, Japan",
      "place_id": "ChIJt35o3LhA918R9F6RVn3CtE8"
    },
    "石川県石川県羽咋郡志賀町高浜町７－３７": {
      "normalized_address": "石川県石川県羽咋郡志賀町高浜町７－３７",
      "raw_prefecture": "石川県",
      "raw_address": "石川県羽咋郡志賀町高浜町７－３７",
      "status": "ok",
      "updated_at": "2026-03-31T03:44:09+00:00",
      "lat": 37.0020285,
      "lng": 136.7760635,
      "formatted_address": "Takahamacho, Shika, Hakui District, Ishikawa 925-0141, Japan",
      "place_id": "ChIJg1YiPMNA918ROjQefFDWfis"
    },
    "石川県石川県野々市市二日市４－２１１": {
      "normalized_address": "石川県石川県野々市市二日市４－２１１",
      "raw_prefecture": "石川県",
      "raw_address": "石川県野々市市二日市４－２１１",
      "status": "ok",
      "updated_at": "2026-03-31T03:44:10+00:00",
      "lat": 36.5374533,
      "lng": 136.5967193,
      "formatted_address": "4-chōme-２１１番地 Futsukaichi, Nonoichi, Ishikawa 921-8809, Japan",
      "place_id": "ChIJjetMbAo1-F8RO6c-IIDA2Jc"
    },
    "石川県石川県野々市市御経塚二丁目９２番": {
      "normalized_address": "石川県石川県野々市市御経塚二丁目９２番",
      "raw_prefecture": "石川県",
      "raw_address": "石川県野々市市御経塚二丁目９２番",
      "status": "ok",
      "updated_at": "2026-03-31T03:44:10+00:00",
      "lat": 36.5486545,
      "lng": 136.59683,
      "formatted_address": "2 Chome Okyozuka, Nonoichi, Ishikawa 921-8801, Japan",
      "place_id": "ChIJP1N4Zhw1-F8RMDJ9_zMbe0U"
    },
    "石川県石川県野々市市御経塚２－９２": {
      "normalized_address": "石川県石川県野々市市御経塚２－９２",
      "raw_prefecture": "石川県",
      "raw_address": "石川県野々市市御経塚２－９２",
      "status": "ok",
      "updated_at": "2026-03-31T03:44:10+00:00",
      "lat": 36.5486545,
      "lng": 136.59683,
      "formatted_address": "2 Chome Okyozuka, Nonoichi, Ishikawa 921-8801, Japan",
      "place_id": "ChIJP1N4Zhw1-F8RMDJ9_zMbe0U"
    },
    "石川県石川県野々市市御経塚４－１０７－１": {
      "normalized_address": "石川県石川県野々市市御経塚４－１０７－１",
      "raw_prefecture": "石川県",
      "raw_address": "石川県野々市市御経塚４－１０７－１",
      "status": "ok",
      "updated_at": "2026-03-31T03:44:10+00:00",
      "lat": 36.5532072,
      "lng": 136.6003084,
      "formatted_address": "4-chōme-107-1 Okyōzuka, Nonoichi, Ishikawa 921-8801, Japan",
      "place_id": "ChIJuwWsoOE0-F8RJA8lpcFOyr0"
    },
    "石川県石川県野々市市新庄２－８０１": {
      "normalized_address": "石川県石川県野々市市新庄２－８０１",
      "raw_prefecture": "石川県",
      "raw_address": "石川県野々市市新庄２－８０１",
      "status": "ok",
      "updated_at": "2026-03-31T03:44:11+00:00",
      "lat": 36.5015279,
      "lng": 136.6070567,
      "formatted_address": "2-chōme-801 Shinjō, Nonoichi, Ishikawa 921-8824, Japan",
      "place_id": "ChIJ4esu-PlJ-F8RAimXDcRs_RY"
    },
    "石川県石川県金沢市つつじが丘１６６": {
      "normalized_address": "石川県石川県金沢市つつじが丘１６６",
      "raw_prefecture": "石川県",
      "raw_address": "石川県金沢市つつじが丘１６６",
      "status": "ok",
      "updated_at": "2026-03-31T03:44:11+00:00",
      "lat": 36.5285617,
      "lng": 136.6798202,
      "formatted_address": "166 Tsutsujigaoka, Kanazawa, Ishikawa 921-8103, Japan",
      "place_id": "ChIJic0G7pc2-F8RAbVFg9U3YKc"
    },
    "石川県石川県金沢市二ツ屋町９－２３": {
      "normalized_address": "石川県石川県金沢市二ツ屋町９－２３",
      "raw_prefecture": "石川県",
      "raw_address": "石川県金沢市二ツ屋町９－２３",
      "status": "ok",
      "updated_at": "2026-03-31T03:44:11+00:00",
      "lat": 36.5898511,
      "lng": 136.6298454,
      "formatted_address": "9-23 Futatsuyamachi, Kanazawa, Ishikawa 920-0065, Japan",
      "place_id": "ChIJhQ8I_rTM-V8R5eO9wTtdHdk"
    },
    "石川県石川県金沢市保古町１－５８": {
      "normalized_address": "石川県石川県金沢市保古町１－５８",
      "raw_prefecture": "石川県",
      "raw_address": "石川県金沢市保古町１－５８",
      "status": "ok",
      "updated_at": "2026-03-31T03:44:11+00:00",
      "lat": 36.55720900000001,
      "lng": 136.6160546,
      "formatted_address": "Hogomachi, Kanazawa, Ishikawa 921-8053, Japan",
      "place_id": "ChIJcytmiO40-F8R4rZx8HN75mY"
    },
    "石川県石川県金沢市八日市四丁目２５０番地４": {
      "normalized_address": "石川県石川県金沢市八日市四丁目２５０番地４",
      "raw_prefecture": "石川県",
      "raw_address": "石川県金沢市八日市四丁目２５０番地４",
      "status": "ok",
      "updated_at": "2026-03-31T03:44:12+00:00",
      "lat": 36.5460464,
      "lng": 136.6057729,
      "formatted_address": "4-chōme-250番地4 Yōkaichi, Kanazawa, Ishikawa 921-8064, Japan",
      "place_id": "ChIJJSVWMgI1-F8RO4WaIZCEaeU"
    },
    "石川県石川県金沢市大桑３－１４１": {
      "normalized_address": "石川県石川県金沢市大桑３－１４１",
      "raw_prefecture": "石川県",
      "raw_address": "石川県金沢市大桑３－１４１",
      "status": "ok",
      "updated_at": "2026-03-31T03:44:12+00:00",
      "lat": 36.5339184,
      "lng": 136.6780426,
      "formatted_address": "3-chōme-141 Ōkuwa, Kanazawa, Ishikawa 921-8045, Japan",
      "place_id": "ChIJJ64iP6E2-F8RvJb1k0IMT-g"
    },
    "石川県石川県金沢市寺町２－７－３": {
      "normalized_address": "石川県石川県金沢市寺町２－７－３",
      "raw_prefecture": "石川県",
      "raw_address": "石川県金沢市寺町２－７－３",
      "status": "ok",
      "updated_at": "2026-03-31T03:44:12+00:00",
      "lat": 36.5491338,
      "lng": 136.6563992,
      "formatted_address": "Japan, 〒921-8033 Ishikawa, Kanazawa, Teramachi, 2-chōme−7−３ ゆうらくざ・ござ",
      "place_id": "ChIJo40Wx200-F8R9SD51wkGzL0"
    },
    "石川県石川県金沢市弥生２－３－１": {
      "normalized_address": "石川県石川県金沢市弥生２－３－１",
      "raw_prefecture": "石川県",
      "raw_address": "石川県金沢市弥生２－３－１",
      "status": "ok",
      "updated_at": "2026-03-31T03:44:12+00:00",
      "lat": 36.5472598,
      "lng": 136.6442091,
      "formatted_address": "Japan, 〒921-8036 Ishikawa, Kanazawa, Yayoi, 2-chōme−3−１ 中央サンヨー",
      "place_id": "ChIJRY_pg0I0-F8RtadgGLbV1Yg"
    },
    "石川県石川県金沢市桂町ヘ４６－１": {
      "normalized_address": "石川県石川県金沢市桂町ヘ４６－１",
      "raw_prefecture": "石川県",
      "raw_address": "石川県金沢市桂町ヘ４６－１",
      "status": "ok",
      "updated_at": "2026-03-31T03:44:13+00:00",
      "lat": 36.60859749999999,
      "lng": 136.6051222,
      "formatted_address": "He-46-1 Katsuramachi, Kanazawa, Ishikawa 920-0334, Japan",
      "place_id": "ChIJ159eCfTM-V8RXiVFhwhxsso"
    },
    "石川県石川県金沢市泉が丘１－１８－９": {
      "normalized_address": "石川県石川県金沢市泉が丘１－１８－９",
      "raw_prefecture": "石川県",
      "raw_address": "石川県金沢市泉が丘１－１８－９",
      "status": "ok",
      "updated_at": "2026-03-31T03:44:13+00:00",
      "lat": 36.544201,
      "lng": 136.6461829,
      "formatted_address": "1-chōme-18-9 Izumigaoka, Kanazawa, Ishikawa 921-8035, Japan",
      "place_id": "ChIJD4KvoEE0-F8RDn8wB5zDa8A"
    },
    "石川県石川県金沢市涌波３－７－８": {
      "normalized_address": "石川県石川県金沢市涌波３－７－８",
      "raw_prefecture": "石川県",
      "raw_address": "石川県金沢市涌波３－７－８",
      "status": "ok",
      "updated_at": "2026-03-31T03:44:13+00:00",
      "lat": 36.5376608,
      "lng": 136.6844657,
      "formatted_address": "3-chōme-7-8 Wakunami, Kanazawa, Ishikawa 920-0953, Japan",
      "place_id": "ChIJmYJA86g2-F8RPXQc01wOA3Q"
    },
    "石川県石川県金沢市田上さくら３－６０": {
      "normalized_address": "石川県石川県金沢市田上さくら３－６０",
      "raw_prefecture": "石川県",
      "raw_address": "石川県金沢市田上さくら３－６０",
      "status": "ok",
      "updated_at": "2026-03-31T03:44:13+00:00",
      "lat": 36.5468414,
      "lng": 136.689198,
      "formatted_address": "Japan, 〒920-1157 Ishikawa, Kanazawa, Tagamisakura, 3-chōme−６０ 60番地",
      "place_id": "ChIJc2vdyv4z-F8ROFrRRUWqv2Q"
    },
    "石川県石川県金沢市畝田中１－７７": {
      "normalized_address": "石川県石川県金沢市畝田中１－７７",
      "raw_prefecture": "石川県",
      "raw_address": "石川県金沢市畝田中１－７７",
      "status": "ok",
      "updated_at": "2026-03-31T03:44:14+00:00",
      "lat": 36.5915328,
      "lng": 136.6130526,
      "formatted_address": "Japan, 〒920-0343 Ishikawa, Kanazawa, Unedanaka, 1-chōme−７７ でんきライフふくだラビン",
      "place_id": "ChIJ65QL1brM-V8R6s7E1oAskmU"
    },
    "石川県石川県金沢市示野中町８７街区１": {
      "normalized_address": "石川県石川県金沢市示野中町８７街区１",
      "raw_prefecture": "石川県",
      "raw_address": "石川県金沢市示野中町８７街区１",
      "status": "ok",
      "updated_at": "2026-03-31T03:44:14+00:00",
      "lat": 36.5791942,
      "lng": 136.6159365,
      "formatted_address": "2-chōme-87 Shimeno Nakamachi, Kanazawa, Ishikawa 920-0058, Japan",
      "place_id": "ChIJRfUCX6o0-F8RsLfpUZQtTAk"
    },
    "石川県石川県金沢市示野町イ２９－１": {
      "normalized_address": "石川県石川県金沢市示野町イ２９－１",
      "raw_prefecture": "石川県",
      "raw_address": "石川県金沢市示野町イ２９－１",
      "status": "ok",
      "updated_at": "2026-03-31T03:44:14+00:00",
      "lat": 36.5779495,
      "lng": 136.6119321,
      "formatted_address": "I-29-1 Shimenomachi, Kanazawa, Ishikawa 920-0059, Japan",
      "place_id": "ChIJxRd1fas0-F8Rw5rnsFqy2xQ"
    },
    "石川県石川県金沢市示野町８１街区１": {
      "normalized_address": "石川県石川県金沢市示野町８１街区１",
      "raw_prefecture": "石川県",
      "raw_address": "石川県金沢市示野町８１街区１",
      "status": "ok",
      "updated_at": "2026-03-31T03:44:14+00:00",
      "lat": 36.5800342,
      "lng": 136.6099943,
      "formatted_address": "Shimenomachi, Kanazawa, Ishikawa 920-0059, Japan",
      "place_id": "ChIJhZWItFTL-V8REVt3h8jcVHI"
    },
    "石川県石川県鹿島郡中能登町井田と部１－１": {
      "normalized_address": "石川県石川県鹿島郡中能登町井田と部１－１",
      "raw_prefecture": "石川県",
      "raw_address": "石川県鹿島郡中能登町井田と部１－１",
      "status": "ok",
      "updated_at": "2026-03-31T03:44:15+00:00",
      "lat": 36.9694955,
      "lng": 136.9080633,
      "formatted_address": "To Ida, Nakanoto, Kashima District, Ishikawa 929-1721, Japan",
      "place_id": "ChIJ2cdAYygV918RUo0mxgkvH_8"
    },
    "石川県石川県鹿島郡中能登町徳前よ部１０９": {
      "normalized_address": "石川県石川県鹿島郡中能登町徳前よ部１０９",
      "raw_prefecture": "石川県",
      "raw_address": "石川県鹿島郡中能登町徳前よ部１０９",
      "status": "ok",
      "updated_at": "2026-03-31T03:44:15+00:00",
      "lat": 36.97447,
      "lng": 136.9204022,
      "formatted_address": "Tokuzen, Nakanoto, Kashima District, Ishikawa 929-1817, Japan",
      "place_id": "ChIJn9PyMucU918RCShArs3N7F0"
    }
  }
}
