{
  "version": 1,
  "generated_at": "2026-03-31T03:46:57+00:00",
  "source_file": "docs/data/1-25.json",
  "entries": {
    "滋賀県滋賀県大津市におの浜１－１－３": {
      "normalized_address": "滋賀県滋賀県大津市におの浜１－１－３",
      "raw_prefecture": "滋賀県",
      "raw_address": "滋賀県大津市におの浜１－１－３",
      "status": "ok",
      "updated_at": "2026-03-31T03:46:32+00:00",
      "lat": 35.0060936,
      "lng": 135.8795855,
      "formatted_address": "Japan, 〒520-0801 Shiga, Otsu, Nionohama, 1-chōme−1−３ 綾羽株式会社 大津本社ビル",
      "place_id": "ChIJK16NMeQMAWAROJ38_oc8ZQc"
    },
    "滋賀県滋賀県大津市一里山４－１５－１２": {
      "normalized_address": "滋賀県滋賀県大津市一里山４－１５－１２",
      "raw_prefecture": "滋賀県",
      "raw_address": "滋賀県大津市一里山４－１５－１２",
      "status": "ok",
      "updated_at": "2026-03-31T03:46:33+00:00",
      "lat": 34.980898,
      "lng": 135.9306159,
      "formatted_address": "4-chōme-15-12 Ichiriyama, Otsu, Shiga 520-2153, Japan",
      "place_id": "ChIJvVWR_GRtAWARE5dkEFnr9os"
    },
    "滋賀県滋賀県大津市中庄１－１３－１２": {
      "normalized_address": "滋賀県滋賀県大津市中庄１－１３－１２",
      "raw_prefecture": "滋賀県",
      "raw_address": "滋賀県大津市中庄１－１３－１２",
      "status": "ok",
      "updated_at": "2026-03-31T03:46:33+00:00",
      "lat": 34.9899281,
      "lng": 135.8937666,
      "formatted_address": "1-chōme-13-12 Nakashō, Otsu, Shiga 520-0837, Japan",
      "place_id": "ChIJc_jiOjgNAWARBdeoGQ405w8"
    },
    "滋賀県滋賀県大津市今堅田３－８－１": {
      "normalized_address": "滋賀県滋賀県大津市今堅田３－８－１",
      "raw_prefecture": "滋賀県",
      "raw_address": "滋賀県大津市今堅田３－８－１",
      "status": "ok",
      "updated_at": "2026-03-31T03:46:33+00:00",
      "lat": 35.1252736,
      "lng": 135.9236648,
      "formatted_address": "3-chōme-8-1 Imakatata, Otsu, Shiga 520-0241, Japan",
      "place_id": "ChIJs0-_bWB1AWARTmDPe6igKSI"
    },
    "滋賀県滋賀県大津市和邇中浜３３２－１": {
      "normalized_address": "滋賀県滋賀県大津市和邇中浜３３２－１",
      "raw_prefecture": "滋賀県",
      "raw_address": "滋賀県大津市和邇中浜３３２－１",
      "status": "ok",
      "updated_at": "2026-03-31T03:46:33+00:00",
      "lat": 35.1629754,
      "lng": 135.9225036,
      "formatted_address": "332-1 Waninakahama, Otsu, Shiga 520-0522, Japan",
      "place_id": "ChIJd3fsNnWfAWARr_3PGHQmiFA"
    },
    "滋賀県滋賀県大津市和邇中浜４３２": {
      "normalized_address": "滋賀県滋賀県大津市和邇中浜４３２",
      "raw_prefecture": "滋賀県",
      "raw_address": "滋賀県大津市和邇中浜４３２",
      "status": "ok",
      "updated_at": "2026-03-31T03:46:34+00:00",
      "lat": 35.1614924,
      "lng": 135.9231352,
      "formatted_address": "432 Waninakahama, Otsu, Shiga 520-0522, Japan",
      "place_id": "ChIJR_ZRAqCfAWARI3IiYb2-Qjs"
    },
    "滋賀県滋賀県大津市坂本２－１２－３１": {
      "normalized_address": "滋賀県滋賀県大津市坂本２－１２－３１",
      "raw_prefecture": "滋賀県",
      "raw_address": "滋賀県大津市坂本２－１２－３１",
      "status": "ok",
      "updated_at": "2026-03-31T03:46:34+00:00",
      "lat": 35.0653461,
      "lng": 135.8711018,
      "formatted_address": "Japan, 〒520-0113 Shiga, Otsu, Sakamoto, 2-chōme−12−３１ 小野電化本店リビングオノ",
      "place_id": "ChIJa39lLwILAWARA_Dg4rerpBU"
    },
    "滋賀県滋賀県大津市坂本７－２４－１": {
      "normalized_address": "滋賀県滋賀県大津市坂本７－２４－１",
      "raw_prefecture": "滋賀県",
      "raw_address": "滋賀県大津市坂本７－２４－１",
      "status": "ok",
      "updated_at": "2026-03-31T03:46:34+00:00",
      "lat": 35.0746269,
      "lng": 135.8782969,
      "formatted_address": "7-chōme-24-1 Sakamoto, Otsu, Shiga 520-0113, Japan",
      "place_id": "ChIJ-wMaguMKAWAR9lS6ePTo8S4"
    },
    "滋賀県滋賀県大津市坂本７－４－９": {
      "normalized_address": "滋賀県滋賀県大津市坂本７－４－９",
      "raw_prefecture": "滋賀県",
      "raw_address": "滋賀県大津市坂本７－４－９",
      "status": "ok",
      "updated_at": "2026-03-31T03:46:34+00:00",
      "lat": 35.0730957,
      "lng": 135.8762793,
      "formatted_address": "7-chōme-4-9 Sakamoto, Otsu, Shiga 520-0113, Japan",
      "place_id": "ChIJB2tsROMKAWARk44TOUlcn5c"
    },
    "滋賀県滋賀県大津市坂本７丁目２４－１平和堂坂本３Ｆ": {
      "normalized_address": "滋賀県滋賀県大津市坂本７丁目２４－１平和堂坂本３Ｆ",
      "raw_prefecture": "滋賀県",
      "raw_address": "滋賀県大津市坂本７丁目２４－１平和堂坂本３Ｆ",
      "status": "ok",
      "updated_at": "2026-03-31T03:46:35+00:00",
      "lat": 35.0742507,
      "lng": 135.8782992,
      "formatted_address": "7-chōme-24-1 Sakamoto, Otsu, Shiga 520-0113, Japan",
      "place_id": "ChIJg5InheMKAWARCE99lmPSQmA"
    },
    "滋賀県滋賀県大津市月輪１－３－８": {
      "normalized_address": "滋賀県滋賀県大津市月輪１－３－８",
      "raw_prefecture": "滋賀県",
      "raw_address": "滋賀県大津市月輪１－３－８",
      "status": "ok",
      "updated_at": "2026-03-31T03:46:35+00:00",
      "lat": 34.9872031,
      "lng": 135.929377,
      "formatted_address": "1-chōme-3-8 Tsukinowa, Otsu, Shiga 520-2152, Japan",
      "place_id": "ChIJTbR7jp1yAWARU9f2GY_tiVk"
    },
    "滋賀県滋賀県大津市本堅田３－１２－３６": {
      "normalized_address": "滋賀県滋賀県大津市本堅田３－１２－３６",
      "raw_prefecture": "滋賀県",
      "raw_address": "滋賀県大津市本堅田３－１２－３６",
      "status": "ok",
      "updated_at": "2026-03-31T03:46:35+00:00",
      "lat": 35.1150757,
      "lng": 135.914015,
      "formatted_address": "3-chōme-12-36 Honkatata, Otsu, Shiga 520-0242, Japan",
      "place_id": "ChIJ8b1rhVp1AWARFaiL9KYf7M8"
    },
    "滋賀県滋賀県大津市本堅田５－２０－１０アル・プラザ堅田３Ｆ": {
      "normalized_address": "滋賀県滋賀県大津市本堅田５－２０－１０アル・プラザ堅田３Ｆ",
      "raw_prefecture": "滋賀県",
      "raw_address": "滋賀県大津市本堅田５－２０－１０アル・プラザ堅田３Ｆ",
      "status": "ok",
      "updated_at": "2026-03-31T03:46:35+00:00",
      "lat": 35.1192398,
      "lng": 135.9156585,
      "formatted_address": "5-chōme-20-10 Honkatata, Otsu, Shiga 520-0242, Japan",
      "place_id": "ChIJKzIenFl1AWARMoopEzHRCFM"
    },
    "滋賀県滋賀県大津市本堅田５－２０－１０": {
      "normalized_address": "滋賀県滋賀県大津市本堅田５－２０－１０",
      "raw_prefecture": "滋賀県",
      "raw_address": "滋賀県大津市本堅田５－２０－１０",
      "status": "ok",
      "updated_at": "2026-03-31T03:46:36+00:00",
      "lat": 35.1192061,
      "lng": 135.9157055,
      "formatted_address": "5-chōme-20-10 Honkatata, Otsu, Shiga 520-0242, Japan",
      "place_id": "ChIJGeAbnFl1AWARK0YeiW4W5i0"
    },
    "滋賀県滋賀県大津市松原町１３－１５": {
      "normalized_address": "滋賀県滋賀県大津市松原町１３－１５",
      "raw_prefecture": "滋賀県",
      "raw_address": "滋賀県大津市松原町１３－１５",
      "status": "ok",
      "updated_at": "2026-03-31T03:46:36+00:00",
      "lat": 34.9784058,
      "lng": 135.9028807,
      "formatted_address": "13-15 Matsubarachō, Otsu, Shiga 520-0831, Japan",
      "place_id": "ChIJKfqAvVQNAWAR3AbNm41GR4Q"
    },
    "滋賀県滋賀県守山市小島町１８５０": {
      "normalized_address": "滋賀県滋賀県守山市小島町１８５０",
      "raw_prefecture": "滋賀県",
      "raw_address": "滋賀県守山市小島町１８５０",
      "status": "ok",
      "updated_at": "2026-03-31T03:46:36+00:00",
      "lat": 35.078432,
      "lng": 135.9925861,
      "formatted_address": "1850 Kojimachō, Moriyama, Shiga 524-0002, Japan",
      "place_id": "ChIJERL_b09xAWARpbuzblO-Ky8"
    },
    "滋賀県滋賀県守山市播磨田町１８５－１": {
      "normalized_address": "滋賀県滋賀県守山市播磨田町１８５－１",
      "raw_prefecture": "滋賀県",
      "raw_address": "滋賀県守山市播磨田町１８５－１",
      "status": "ok",
      "updated_at": "2026-03-31T03:46:36+00:00",
      "lat": 35.066554,
      "lng": 135.9948165,
      "formatted_address": "185-1 Harimadachō, Moriyama, Shiga 524-0012, Japan",
      "place_id": "ChIJnRuU52txAWARcVGWp_2_TwM"
    },
    "滋賀県滋賀県守山市播磨田町２００－１": {
      "normalized_address": "滋賀県滋賀県守山市播磨田町２００－１",
      "raw_prefecture": "滋賀県",
      "raw_address": "滋賀県守山市播磨田町２００－１",
      "status": "ok",
      "updated_at": "2026-03-31T03:46:37+00:00",
      "lat": 35.0655069,
      "lng": 135.99534,
      "formatted_address": "200-1 Harimadachō, Moriyama, Shiga 524-0012, Japan",
      "place_id": "ChIJadS7C2xxAWAR6ZuCbuDnNLg"
    },
    "滋賀県滋賀県守山市洲本町１３５１－３": {
      "normalized_address": "滋賀県滋賀県守山市洲本町１３５１－３",
      "raw_prefecture": "滋賀県",
      "raw_address": "滋賀県守山市洲本町１３５１－３",
      "status": "ok",
      "updated_at": "2026-03-31T03:46:37+00:00",
      "lat": 35.089517,
      "lng": 135.9718236,
      "formatted_address": "1351-3 Sumotochō, Moriyama, Shiga 524-0103, Japan",
      "place_id": "ChIJ5TVtQBp0AWAR6R9Wty_2y2k"
    },
    "滋賀県滋賀県守山市矢島町１４９": {
      "normalized_address": "滋賀県滋賀県守山市矢島町１４９",
      "raw_prefecture": "滋賀県",
      "raw_address": "滋賀県守山市矢島町１４９",
      "status": "ok",
      "updated_at": "2026-03-31T03:46:37+00:00",
      "lat": 35.0861433,
      "lng": 135.97928,
      "formatted_address": "149 Yajimachō, Moriyama, Shiga 524-0015, Japan",
      "place_id": "ChIJH_hM4ql2AWARtEg8twtjpy4"
    },
    "滋賀県滋賀県守山市金森町４８０－１": {
      "normalized_address": "滋賀県滋賀県守山市金森町４８０－１",
      "raw_prefecture": "滋賀県",
      "raw_address": "滋賀県守山市金森町４８０－１",
      "status": "ok",
      "updated_at": "2026-03-31T03:46:37+00:00",
      "lat": 35.0640235,
      "lng": 135.9810479,
      "formatted_address": "480-1 Kanegamorichō, Moriyama, Shiga 524-0045, Japan",
      "place_id": "ChIJfxe45l9xAWAR7u3VglwhlqE"
    },
    "滋賀県滋賀県守山市金森町５６７－１": {
      "normalized_address": "滋賀県滋賀県守山市金森町５６７－１",
      "raw_prefecture": "滋賀県",
      "raw_address": "滋賀県守山市金森町５６７－１",
      "status": "ok",
      "updated_at": "2026-03-31T03:46:38+00:00",
      "lat": 35.0628718,
      "lng": 135.982889,
      "formatted_address": "567-1 Kanegamorichō, Moriyama, Shiga 524-0045, Japan",
      "place_id": "ChIJ8-qB8GBxAWARxb0zRSjqLOY"
    },
    "滋賀県滋賀県彦根市古沢町１０３－１": {
      "normalized_address": "滋賀県滋賀県彦根市古沢町１０３－１",
      "raw_prefecture": "滋賀県",
      "raw_address": "滋賀県彦根市古沢町１０３－１",
      "status": "ok",
      "updated_at": "2026-03-31T03:46:38+00:00",
      "lat": 35.2770335,
      "lng": 136.2677884,
      "formatted_address": "Furusawacho, Hikone, Shiga 522-0007, Japan",
      "place_id": "ChIJDTR7irXUA2ARStPhHawcLwQ"
    },
    "滋賀県滋賀県彦根市大東町２－２８": {
      "normalized_address": "滋賀県滋賀県彦根市大東町２－２８",
      "raw_prefecture": "滋賀県",
      "raw_address": "滋賀県彦根市大東町２－２８",
      "status": "ok",
      "updated_at": "2026-03-31T03:46:38+00:00",
      "lat": 35.2723362,
      "lng": 136.2620204,
      "formatted_address": "2-28 Daitōchō, Hikone, Shiga 522-8523, Japan",
      "place_id": "ChIJT_ZRysjUA2ARJ63nhyPUFJk"
    },
    "滋賀県滋賀県彦根市幸町２": {
      "normalized_address": "滋賀県滋賀県彦根市幸町２",
      "raw_prefecture": "滋賀県",
      "raw_address": "滋賀県彦根市幸町２",
      "status": "ok",
      "updated_at": "2026-03-31T03:46:38+00:00",
      "lat": 35.2648058,
      "lng": 136.2686966,
      "formatted_address": "2番地 Saiwaichō, Hikone, Shiga 522-0021, Japan",
      "place_id": "ChIJscTVe5XUA2ARMaZiBdCvSaQ"
    },
    "滋賀県滋賀県彦根市後三条町４８２－１": {
      "normalized_address": "滋賀県滋賀県彦根市後三条町４８２－１",
      "raw_prefecture": "滋賀県",
      "raw_address": "滋賀県彦根市後三条町４８２－１",
      "status": "ok",
      "updated_at": "2026-03-31T03:46:39+00:00",
      "lat": 35.2643484,
      "lng": 136.2484293,
      "formatted_address": "482-1 Gosanjōchō, Hikone, Shiga 522-0086, Japan",
      "place_id": "ChIJ7XYRF9jUA2AR76duxEuthRk"
    },
    "滋賀県滋賀県彦根市戸賀町６０－１": {
      "normalized_address": "滋賀県滋賀県彦根市戸賀町６０－１",
      "raw_prefecture": "滋賀県",
      "raw_address": "滋賀県彦根市戸賀町６０－１",
      "status": "ok",
      "updated_at": "2026-03-31T03:46:39+00:00",
      "lat": 35.2548404,
      "lng": 136.240026,
      "formatted_address": "60-1 Togachō, Hikone, Shiga 522-0042, Japan",
      "place_id": "ChIJNR6BAyPVA2ARLuWwHkSAjVw"
    },
    "滋賀県滋賀県彦根市日夏町字堀溝３７０３－１": {
      "normalized_address": "滋賀県滋賀県彦根市日夏町字堀溝３７０３－１",
      "raw_prefecture": "滋賀県",
      "raw_address": "滋賀県彦根市日夏町字堀溝３７０３－１",
      "status": "ok",
      "updated_at": "2026-03-31T03:46:39+00:00",
      "lat": 35.2351398,
      "lng": 136.2223611,
      "formatted_address": "Hinatsucho, Hikone, Shiga 522-0047, Japan",
      "place_id": "ChIJm14E6WDVA2ARlAlAaFIDorw"
    },
    "滋賀県滋賀県彦根市竹ヶ鼻町４３－１": {
      "normalized_address": "滋賀県滋賀県彦根市竹ヶ鼻町４３－１",
      "raw_prefecture": "滋賀県",
      "raw_address": "滋賀県彦根市竹ヶ鼻町４３－１",
      "status": "ok",
      "updated_at": "2026-03-31T03:46:39+00:00",
      "lat": 35.2437256,
      "lng": 136.2501311,
      "formatted_address": "43-1 Takegahanachō, Hikone, Shiga 522-0044, Japan",
      "place_id": "ChIJQ9IYLPzUA2ARO_Tql8MrSyQ"
    },
    "滋賀県滋賀県彦根市里根町５５－１６": {
      "normalized_address": "滋賀県滋賀県彦根市里根町５５－１６",
      "raw_prefecture": "滋賀県",
      "raw_address": "滋賀県彦根市里根町５５－１６",
      "status": "ok",
      "updated_at": "2026-03-31T03:46:40+00:00",
      "lat": 35.2669742,
      "lng": 136.2701832,
      "formatted_address": "Satonecho, Hikone, Shiga 522-0022, Japan",
      "place_id": "ChIJ9eeK_77UA2AR6X_J6cJj9l8"
    },
    "滋賀県滋賀県彦根市高宮町１６１３－３": {
      "normalized_address": "滋賀県滋賀県彦根市高宮町１６１３－３",
      "raw_prefecture": "滋賀県",
      "raw_address": "滋賀県彦根市高宮町１６１３－３",
      "status": "ok",
      "updated_at": "2026-03-31T03:46:40+00:00",
      "lat": 35.2413134,
      "lng": 136.2558912,
      "formatted_address": "1613-3 Takamiyachō, Hikone, Shiga 522-0201, Japan",
      "place_id": "ChIJsUW34FfUA2ARcnzh8NDPUII"
    },
    "滋賀県滋賀県愛知郡愛荘町愛知川５８": {
      "normalized_address": "滋賀県滋賀県愛知郡愛荘町愛知川５８",
      "raw_prefecture": "滋賀県",
      "raw_address": "滋賀県愛知郡愛荘町愛知川５８",
      "status": "ok",
      "updated_at": "2026-03-31T03:46:40+00:00",
      "lat": 35.1679535,
      "lng": 136.2128459,
      "formatted_address": "58 Echigawa, Aishō, Echi District, Shiga 529-1331, Japan",
      "place_id": "ChIJ1d_I6SHWA2ARqmA3L-t0B4U"
    },
    "滋賀県滋賀県東近江市中小路町７１０－１": {
      "normalized_address": "滋賀県滋賀県東近江市中小路町７１０－１",
      "raw_prefecture": "滋賀県",
      "raw_address": "滋賀県東近江市中小路町７１０－１",
      "status": "ok",
      "updated_at": "2026-03-31T03:46:40+00:00",
      "lat": 35.0966715,
      "lng": 136.2270215,
      "formatted_address": "710-1 Nakoojichō, Higashiomi, Shiga 527-0045, Japan",
      "place_id": "ChIJd0cnSmjYA2ARmANPYaXv9wE"
    },
    "滋賀県滋賀県東近江市八日市浜野町３－１": {
      "normalized_address": "滋賀県滋賀県東近江市八日市浜野町３－１",
      "raw_prefecture": "滋賀県",
      "raw_address": "滋賀県東近江市八日市浜野町３－１",
      "status": "ok",
      "updated_at": "2026-03-31T03:46:41+00:00",
      "lat": 35.1145907,
      "lng": 136.1970478,
      "formatted_address": "Japan, 〒527-0011 Shiga, Higashiomi, Yōkaichihamanochō, 3−１ ショッピングプラザ",
      "place_id": "ChIJzSK8_059AWARu_MhcOE4HFI"
    },
    "滋賀県滋賀県東近江市宮荘町６５": {
      "normalized_address": "滋賀県滋賀県東近江市宮荘町６５",
      "raw_prefecture": "滋賀県",
      "raw_address": "滋賀県東近江市宮荘町６５",
      "status": "ok",
      "updated_at": "2026-03-31T03:46:41+00:00",
      "lat": 35.1567596,
      "lng": 136.1940955,
      "formatted_address": "65 Miyashōchō, Higashiomi, Shiga 529-1404, Japan",
      "place_id": "ChIJp6fwEpR9AWARXshWxifBMRo"
    },
    "滋賀県滋賀県東近江市小田苅町２００３": {
      "normalized_address": "滋賀県滋賀県東近江市小田苅町２００３",
      "raw_prefecture": "滋賀県",
      "raw_address": "滋賀県東近江市小田苅町２００３",
      "status": "ok",
      "updated_at": "2026-03-31T03:46:41+00:00",
      "lat": 35.1311947,
      "lng": 136.2129751,
      "formatted_address": "2003 Kotakarichō, Higashiomi, Shiga 527-0125, Japan",
      "place_id": "ChIJ82X22-DXA2AR76XUYl9tzR8"
    },
    "滋賀県滋賀県東近江市山上町２０９２－２": {
      "normalized_address": "滋賀県滋賀県東近江市山上町２０９２－２",
      "raw_prefecture": "滋賀県",
      "raw_address": "滋賀県東近江市山上町２０９２－２",
      "status": "ok",
      "updated_at": "2026-03-31T03:46:41+00:00",
      "lat": 35.0797009,
      "lng": 136.2995667,
      "formatted_address": "2092-2 Yamakamichō, Higashiomi, Shiga 527-0231, Japan",
      "place_id": "ChIJuYcFZgncA2ARxQCHrv3LanY"
    },
    "滋賀県滋賀県東近江市林町９１": {
      "normalized_address": "滋賀県滋賀県東近江市林町９１",
      "raw_prefecture": "滋賀県",
      "raw_address": "滋賀県東近江市林町９１",
      "status": "ok",
      "updated_at": "2026-03-31T03:46:42+00:00",
      "lat": 35.1807931,
      "lng": 136.1631967,
      "formatted_address": "Japan, 〒521-1224 Shiga, Higashiomi, Hayashichō, ９１ ９１番地",
      "place_id": "ChIJu6KhIo1-AWARcR3UZ9z9VLk"
    },
    "滋賀県滋賀県東近江市青葉町３８５": {
      "normalized_address": "滋賀県滋賀県東近江市青葉町３８５",
      "raw_prefecture": "滋賀県",
      "raw_address": "滋賀県東近江市青葉町３８５",
      "status": "ok",
      "updated_at": "2026-03-31T03:46:42+00:00",
      "lat": 35.106956,
      "lng": 136.1987897,
      "formatted_address": "385 Aobachō, Higashiomi, Shiga 527-0039, Japan",
      "place_id": "ChIJs2nsjrJiAWARVtDecFa633o"
    },
    "滋賀県滋賀県栗東市出庭５３０－１": {
      "normalized_address": "滋賀県滋賀県栗東市出庭５３０－１",
      "raw_prefecture": "滋賀県",
      "raw_address": "滋賀県栗東市出庭５３０－１",
      "status": "ok",
      "updated_at": "2026-03-31T03:46:42+00:00",
      "lat": 35.0346599,
      "lng": 136.0068333,
      "formatted_address": "530-1 Deba, Ritto, Shiga 520-3041, Japan",
      "place_id": "ChIJXYkq0MVxAWARjYrSgw19fD4"
    },
    "滋賀県滋賀県栗東市安養寺８－７－３２": {
      "normalized_address": "滋賀県滋賀県栗東市安養寺８－７－３２",
      "raw_prefecture": "滋賀県",
      "raw_address": "滋賀県栗東市安養寺８－７－３２",
      "status": "ok",
      "updated_at": "2026-03-31T03:46:42+00:00",
      "lat": 35.0228945,
      "lng": 135.9972079,
      "formatted_address": "8-chōme-7-32 Anyōji, Ritto, Shiga 520-3015, Japan",
      "place_id": "ChIJhZV9JOdxAWARjcZ-l3k8MWE"
    },
    "滋賀県滋賀県栗東市小柿７－８－９": {
      "normalized_address": "滋賀県滋賀県栗東市小柿７－８－９",
      "raw_prefecture": "滋賀県",
      "raw_address": "滋賀県栗東市小柿７－８－９",
      "status": "ok",
      "updated_at": "2026-03-31T03:46:43+00:00",
      "lat": 35.0209144,
      "lng": 135.9708577,
      "formatted_address": "7-chōme-8-9 Ogaki, Ritto, Shiga 520-3024, Japan",
      "place_id": "ChIJKY4Q1BlyAWAR65TY-D36zso"
    },
    "滋賀県滋賀県栗東市小柿８－１－１３": {
      "normalized_address": "滋賀県滋賀県栗東市小柿８－１－１３",
      "raw_prefecture": "滋賀県",
      "raw_address": "滋賀県栗東市小柿８－１－１３",
      "status": "ok",
      "updated_at": "2026-03-31T03:46:43+00:00",
      "lat": 35.020769,
      "lng": 135.9741975,
      "formatted_address": "8-chōme-1-13 Ogaki, Ritto, Shiga 520-3024, Japan",
      "place_id": "ChIJFaA4XhlyAWAR4oBtui_3uko"
    },
    "滋賀県滋賀県栗東市小柿８－８－１４": {
      "normalized_address": "滋賀県滋賀県栗東市小柿８－８－１４",
      "raw_prefecture": "滋賀県",
      "raw_address": "滋賀県栗東市小柿８－８－１４",
      "status": "ok",
      "updated_at": "2026-03-31T03:46:43+00:00",
      "lat": 35.020297,
      "lng": 135.9724431,
      "formatted_address": "8-chōme-8-14 Ogaki, Ritto, Shiga 520-3024, Japan",
      "place_id": "ChIJT5LumhlyAWARDbpEMQG_6IA"
    },
    "滋賀県滋賀県栗東市川辺２３７－１": {
      "normalized_address": "滋賀県滋賀県栗東市川辺２３７－１",
      "raw_prefecture": "滋賀県",
      "raw_address": "滋賀県栗東市川辺２３７－１",
      "status": "ok",
      "updated_at": "2026-03-31T03:46:43+00:00",
      "lat": 35.0202455,
      "lng": 135.9888079,
      "formatted_address": "237-1 Kawazura, Ritto, Shiga 520-3014, Japan",
      "place_id": "ChIJxXCOJvtxAWARVCRleLJWSk4"
    },
    "滋賀県滋賀県栗東市綣２－３－２２": {
      "normalized_address": "滋賀県滋賀県栗東市綣２－３－２２",
      "raw_prefecture": "滋賀県",
      "raw_address": "滋賀県栗東市綣２－３－２２",
      "status": "ok",
      "updated_at": "2026-03-31T03:46:44+00:00",
      "lat": 35.0363772,
      "lng": 135.9815641,
      "formatted_address": "2-chōme-3-22 Heso, Ritto, Shiga 520-3031, Japan",
      "place_id": "ChIJqbxXbohxAWARyzJ64wXWnYI"
    },
    "滋賀県滋賀県湖南市中央１－１": {
      "normalized_address": "滋賀県滋賀県湖南市中央１－１",
      "raw_prefecture": "滋賀県",
      "raw_address": "滋賀県湖南市中央１－１",
      "status": "ok",
      "updated_at": "2026-03-31T03:46:44+00:00",
      "lat": 35.0035061,
      "lng": 136.083981,
      "formatted_address": "1-chōme-1 Chūō, Konan, Shiga 520-3234, Japan",
      "place_id": "ChIJdztHCrhlAWARD2crK42bJkA"
    },
    "滋賀県滋賀県湖南市岩根１３６": {
      "normalized_address": "滋賀県滋賀県湖南市岩根１３６",
      "raw_prefecture": "滋賀県",
      "raw_address": "滋賀県湖南市岩根１３６",
      "status": "ok",
      "updated_at": "2026-03-31T03:46:44+00:00",
      "lat": 35.0043142,
      "lng": 136.1367052,
      "formatted_address": "136 Iwane, Konan, Shiga 520-3252, Japan",
      "place_id": "ChIJN1BL7lNhAWARYP4kTa43jGY"
    },
    "滋賀県滋賀県湖南市石部中央１－１－１": {
      "normalized_address": "滋賀県滋賀県湖南市石部中央１－１－１",
      "raw_prefecture": "滋賀県",
      "raw_address": "滋賀県湖南市石部中央１－１－１",
      "status": "ok",
      "updated_at": "2026-03-31T03:46:44+00:00",
      "lat": 35.0104874,
      "lng": 136.0589129,
      "formatted_address": "Japan, 〒520-3106 Shiga, Konan, Ishibechūō, 1-chōme−1−１ 湖南市役所西庁舎",
      "place_id": "ChIJ8VB2d39lAWARenKAIyOL0NY"
    },
    "滋賀県滋賀県湖南市石部中央６－１－３１": {
      "normalized_address": "滋賀県滋賀県湖南市石部中央６－１－３１",
      "raw_prefecture": "滋賀県",
      "raw_address": "滋賀県湖南市石部中央６－１－３１",
      "status": "ok",
      "updated_at": "2026-03-31T03:46:45+00:00",
      "lat": 35.0107127,
      "lng": 136.0605369,
      "formatted_address": "6-chōme-1-31 Ishibechūō, Konan, Shiga 520-3106, Japan",
      "place_id": "ChIJ0f0fWH9lAWARKQE6a7ky0-I"
    },
    "滋賀県滋賀県犬上郡甲良町横関７３８－２": {
      "normalized_address": "滋賀県滋賀県犬上郡甲良町横関７３８－２",
      "raw_prefecture": "滋賀県",
      "raw_address": "滋賀県犬上郡甲良町横関７３８－２",
      "status": "ok",
      "updated_at": "2026-03-31T03:46:45+00:00",
      "lat": 35.2029611,
      "lng": 136.2643999,
      "formatted_address": "738 Yokozeki, Kora, Inukami District, Shiga 522-0262, Japan",
      "place_id": "ChIJ5y7uWpjWA2ARFXei3Qyd370"
    },
    "滋賀県滋賀県犬上郡豊郷町沢１６０": {
      "normalized_address": "滋賀県滋賀県犬上郡豊郷町沢１６０",
      "raw_prefecture": "滋賀県",
      "raw_address": "滋賀県犬上郡豊郷町沢１６０",
      "status": "ok",
      "updated_at": "2026-03-31T03:46:45+00:00",
      "lat": 35.197518,
      "lng": 136.2182863,
      "formatted_address": "160 Sawa, Toyosato, Inukami District, Shiga 529-1175, Japan",
      "place_id": "ChIJGZchr_rVA2ARFTVDgvZsxrk"
    },
    "滋賀県滋賀県甲賀市信楽町長野５１６－３": {
      "normalized_address": "滋賀県滋賀県甲賀市信楽町長野５１６－３",
      "raw_prefecture": "滋賀県",
      "raw_address": "滋賀県甲賀市信楽町長野５１６－３",
      "status": "ok",
      "updated_at": "2026-03-31T03:46:45+00:00",
      "lat": 34.875638,
      "lng": 136.052895,
      "formatted_address": "516-3 Shigarakichō Nagano, Koka, Shiga 529-1851, Japan",
      "place_id": "ChIJo1QnS8xCAWARt749RhkfX3w"
    },
    "滋賀県滋賀県甲賀市水口町北脇１４１８－７": {
      "normalized_address": "滋賀県滋賀県甲賀市水口町北脇１４１８－７",
      "raw_prefecture": "滋賀県",
      "raw_address": "滋賀県甲賀市水口町北脇１４１８－７",
      "status": "ok",
      "updated_at": "2026-03-31T03:46:45+00:00",
      "lat": 34.9825322,
      "lng": 136.1553622,
      "formatted_address": "1418 Minakuchichō Kitawaki, Koka, Shiga 528-0057, Japan",
      "place_id": "ChIJcaouPR5hAWARAzMsWbH88PE"
    },
    "滋賀県滋賀県甲賀市水口町北脇１７２９－１": {
      "normalized_address": "滋賀県滋賀県甲賀市水口町北脇１７２９－１",
      "raw_prefecture": "滋賀県",
      "raw_address": "滋賀県甲賀市水口町北脇１７２９－１",
      "status": "ok",
      "updated_at": "2026-03-31T03:46:46+00:00",
      "lat": 34.9824826,
      "lng": 136.1491729,
      "formatted_address": "1729-1 Minakuchichō Kitawaki, Koka, Shiga 528-0057, Japan",
      "place_id": "ChIJX5lOCyFhAWARgX8cR8Ey4vc"
    },
    "滋賀県滋賀県甲賀市水口町北脇４２７": {
      "normalized_address": "滋賀県滋賀県甲賀市水口町北脇４２７",
      "raw_prefecture": "滋賀県",
      "raw_address": "滋賀県甲賀市水口町北脇４２７",
      "status": "ok",
      "updated_at": "2026-03-31T03:46:46+00:00",
      "lat": 34.9817269,
      "lng": 136.1543837,
      "formatted_address": "Japan, 〒528-0057 Shiga, Koka, Minakuchichō Kitawaki, ４２７ 427番地",
      "place_id": "ChIJO-nmKh5hAWARwePF-a2PqiY"
    },
    "滋賀県滋賀県甲賀市水口町北脇４４０": {
      "normalized_address": "滋賀県滋賀県甲賀市水口町北脇４４０",
      "raw_prefecture": "滋賀県",
      "raw_address": "滋賀県甲賀市水口町北脇４４０",
      "status": "ok",
      "updated_at": "2026-03-31T03:46:46+00:00",
      "lat": 34.9806285,
      "lng": 136.1563885,
      "formatted_address": "440 Minakuchichō Kitawaki, Koka, Shiga 528-0057, Japan",
      "place_id": "ChIJ8YIugeFgAWARZXUYQp3u3ms"
    },
    "滋賀県滋賀県甲賀市水口町本綾野５６６－１": {
      "normalized_address": "滋賀県滋賀県甲賀市水口町本綾野５６６－１",
      "raw_prefecture": "滋賀県",
      "raw_address": "滋賀県甲賀市水口町本綾野５６６－１",
      "status": "ok",
      "updated_at": "2026-03-31T03:46:47+00:00",
      "lat": 34.9770544,
      "lng": 136.1722456,
      "formatted_address": "5-566-1 Minakuchichō Motoayano, Koka, Shiga 528-0037, Japan",
      "place_id": "ChIJv_i7x1hgAWARZqiG-kL6jfM"
    },
    "滋賀県滋賀県甲賀市水口町水口５５５５": {
      "normalized_address": "滋賀県滋賀県甲賀市水口町水口５５５５",
      "raw_prefecture": "滋賀県",
      "raw_address": "滋賀県甲賀市水口町水口５５５５",
      "status": "ok",
      "updated_at": "2026-03-31T03:46:47+00:00",
      "lat": 34.9650257,
      "lng": 136.1707145,
      "formatted_address": "5555 Minakuchichō Minakuchi, Koka, Shiga 528-0005, Japan",
      "place_id": "ChIJnab72YlgAWARyAA8zIQWsAM"
    },
    "滋賀県滋賀県甲賀市甲南町竜法師３３８－３": {
      "normalized_address": "滋賀県滋賀県甲賀市甲南町竜法師３３８－３",
      "raw_prefecture": "滋賀県",
      "raw_address": "滋賀県甲賀市甲南町竜法師３３８－３",
      "status": "ok",
      "updated_at": "2026-03-31T03:46:47+00:00",
      "lat": 34.9223714,
      "lng": 136.1731003,
      "formatted_address": "338 Kōnanchō Ryūbōshi, Koka, Shiga 520-3311, Japan",
      "place_id": "ChIJiznfdqtfAWARyAY69mETIww"
    },
    "滋賀県滋賀県甲賀市甲賀町上野１３６１": {
      "normalized_address": "滋賀県滋賀県甲賀市甲賀町上野１３６１",
      "raw_prefecture": "滋賀県",
      "raw_address": "滋賀県甲賀市甲賀町上野１３６１",
      "status": "ok",
      "updated_at": "2026-03-31T03:46:47+00:00",
      "lat": 34.8907242,
      "lng": 136.2282712,
      "formatted_address": "1361 Kōkachō Ueno, Koka, Shiga 520-3421, Japan",
      "place_id": "ChIJ_YpaXxXiA2ARPXeFb-D1nzg"
    },
    "滋賀県滋賀県米原市長岡１７２９－１": {
      "normalized_address": "滋賀県滋賀県米原市長岡１７２９－１",
      "raw_prefecture": "滋賀県",
      "raw_address": "滋賀県米原市長岡１７２９－１",
      "status": "ok",
      "updated_at": "2026-03-31T03:46:48+00:00",
      "lat": 35.3594213,
      "lng": 136.3731523,
      "formatted_address": "1729-1 Nagaoka, Maibara, Shiga 521-0242, Japan",
      "place_id": "ChIJ_zgbc48yAmARNyCJEw_qLBI"
    },
    "滋賀県滋賀県草津市上笠２－１２－２０": {
      "normalized_address": "滋賀県滋賀県草津市上笠２－１２－２０",
      "raw_prefecture": "滋賀県",
      "raw_address": "滋賀県草津市上笠２－１２－２０",
      "status": "ok",
      "updated_at": "2026-03-31T03:46:48+00:00",
      "lat": 35.0290116,
      "lng": 135.9466174,
      "formatted_address": "2-chōme-12-20 Kamigasa, Kusatsu, Shiga 525-0028, Japan",
      "place_id": "ChIJs2MHn1RyAWARHUx-RdUIdR4"
    },
    "滋賀県滋賀県草津市大路１－１５－３５": {
      "normalized_address": "滋賀県滋賀県草津市大路１－１５－３５",
      "raw_prefecture": "滋賀県",
      "raw_address": "滋賀県草津市大路１－１５－３５",
      "status": "ok",
      "updated_at": "2026-03-31T03:46:48+00:00",
      "lat": 35.0202119,
      "lng": 135.9626694,
      "formatted_address": "1-chōme-15-35 Ōji, Kusatsu, Shiga 525-0032, Japan",
      "place_id": "ChIJpwQL2z9yAWAR01KEzsxRdBU"
    },
    "滋賀県滋賀県草津市大路１丁目１０－２７": {
      "normalized_address": "滋賀県滋賀県草津市大路１丁目１０－２７",
      "raw_prefecture": "滋賀県",
      "raw_address": "滋賀県草津市大路１丁目１０－２７",
      "status": "ok",
      "updated_at": "2026-03-31T03:46:48+00:00",
      "lat": 35.0211666,
      "lng": 135.9626062,
      "formatted_address": "1-chōme-10-27 Ōji, Kusatsu, Shiga 525-0032, Japan",
      "place_id": "ChIJD_f0uz9yAWAReSKuIH9F7G0"
    },
    "滋賀県滋賀県草津市新浜町３００イオンモール草津・モール棟１Ｆ": {
      "normalized_address": "滋賀県滋賀県草津市新浜町３００イオンモール草津・モール棟１Ｆ",
      "raw_prefecture": "滋賀県",
      "raw_address": "滋賀県草津市新浜町３００イオンモール草津・モール棟１Ｆ",
      "status": "ok",
      "updated_at": "2026-03-31T03:46:49+00:00",
      "lat": 34.9980046,
      "lng": 135.9123457,
      "formatted_address": "300 Shinhamachō, Kusatsu, Shiga 525-0067, Japan",
      "place_id": "ChIJg46KDMhyAWAR5YgSVbqSMWQ"
    },
    "滋賀県滋賀県草津市新浜町４０８": {
      "normalized_address": "滋賀県滋賀県草津市新浜町４０８",
      "raw_prefecture": "滋賀県",
      "raw_address": "滋賀県草津市新浜町４０８",
      "status": "ok",
      "updated_at": "2026-03-31T03:46:49+00:00",
      "lat": 34.9975058,
      "lng": 135.9201225,
      "formatted_address": "408 Shinhamachō, Kusatsu, Shiga 525-0067, Japan",
      "place_id": "ChIJIZsR8L5yAWARPGi88C-POqs"
    },
    "滋賀県滋賀県草津市木川町３８９": {
      "normalized_address": "滋賀県滋賀県草津市木川町３８９",
      "raw_prefecture": "滋賀県",
      "raw_address": "滋賀県草津市木川町３８９",
      "status": "ok",
      "updated_at": "2026-03-31T03:46:49+00:00",
      "lat": 35.0215793,
      "lng": 135.9461564,
      "formatted_address": "Japan, 〒525-0051 Shiga, Kusatsu, Kinokawachō, ３８９ 389番地",
      "place_id": "ChIJsapERFdyAWARkGIxiauGxzQ"
    },
    "滋賀県滋賀県草津市片岡町１８３－８": {
      "normalized_address": "滋賀県滋賀県草津市片岡町１８３－８",
      "raw_prefecture": "滋賀県",
      "raw_address": "滋賀県草津市片岡町１８３－８",
      "status": "ok",
      "updated_at": "2026-03-31T03:46:49+00:00",
      "lat": 35.054038,
      "lng": 135.9465675,
      "formatted_address": "183-8 Kataokachō, Kusatsu, Shiga 525-0011, Japan",
      "place_id": "ChIJk49Ed5xzAWARNYNLaPerOdE"
    },
    "滋賀県滋賀県草津市西渋川１－２３－１": {
      "normalized_address": "滋賀県滋賀県草津市西渋川１－２３－１",
      "raw_prefecture": "滋賀県",
      "raw_address": "滋賀県草津市西渋川１－２３－１",
      "status": "ok",
      "updated_at": "2026-03-31T03:46:50+00:00",
      "lat": 35.0252925,
      "lng": 135.9605082,
      "formatted_address": "1-chōme-23-1 Nishishibukawa, Kusatsu, Shiga 525-0025, Japan",
      "place_id": "ChIJJRfLeUdyAWARnvsCX5mwa1w"
    },
    "滋賀県滋賀県草津市西渋川１－２３－３０": {
      "normalized_address": "滋賀県滋賀県草津市西渋川１－２３－３０",
      "raw_prefecture": "滋賀県",
      "raw_address": "滋賀県草津市西渋川１－２３－３０",
      "status": "ok",
      "updated_at": "2026-03-31T03:46:50+00:00",
      "lat": 35.0255006,
      "lng": 135.9585163,
      "formatted_address": "Al Plaza Kusatsu, 1-chōme-23-30 Nishishibukawa, Kusatsu, Shiga 525-0025, Japan",
      "place_id": "ChIJRShRSkZyAWARjUjdPi5IYO4"
    },
    "滋賀県滋賀県草津市追分南２－１１－１１": {
      "normalized_address": "滋賀県滋賀県草津市追分南２－１１－１１",
      "raw_prefecture": "滋賀県",
      "raw_address": "滋賀県草津市追分南２－１１－１１",
      "status": "ok",
      "updated_at": "2026-03-31T03:46:50+00:00",
      "lat": 34.9980976,
      "lng": 135.9604486,
      "formatted_address": "2-chōme-11-11 Oiwakeminami, Kusatsu, Shiga 525-0048, Japan",
      "place_id": "ChIJbe4KMIttAWARwSUUqYs-qaU"
    },
    "滋賀県滋賀県草津市馬場町１２００ー２５草津市立クリーン内": {
      "normalized_address": "滋賀県滋賀県草津市馬場町１２００ー２５草津市立クリーン内",
      "raw_prefecture": "滋賀県",
      "raw_address": "滋賀県草津市馬場町１２００ー２５草津市立クリーン内",
      "status": "ok",
      "updated_at": "2026-03-31T03:46:50+00:00",
      "lat": 34.9839591,
      "lng": 135.9810638,
      "formatted_address": "1200番地25 Banbachō, Kusatsu, Shiga 525-0043, Japan",
      "place_id": "ChIJCe9eC9htAWARdMyBqBlUXgA"
    },
    "滋賀県滋賀県近江八幡市上野町１－１": {
      "normalized_address": "滋賀県滋賀県近江八幡市上野町１－１",
      "raw_prefecture": "滋賀県",
      "raw_address": "滋賀県近江八幡市上野町１－１",
      "status": "ok",
      "updated_at": "2026-03-31T03:46:51+00:00",
      "lat": 35.1026415,
      "lng": 136.0733709,
      "formatted_address": "1-1 Uenochō, Omihachiman, Shiga 523-0046, Japan",
      "place_id": "ChIJKZ1jTmp6AWARycR1z60E1B0"
    },
    "滋賀県滋賀県近江八幡市中小森６３０": {
      "normalized_address": "滋賀県滋賀県近江八幡市中小森６３０",
      "raw_prefecture": "滋賀県",
      "raw_address": "滋賀県近江八幡市中小森６３０",
      "status": "ok",
      "updated_at": "2026-03-31T03:46:51+00:00",
      "lat": 35.11338780000001,
      "lng": 136.0876196,
      "formatted_address": "630 Nakakomorichō, Omihachiman, Shiga 523-0041, Japan",
      "place_id": "ChIJebKqTjZ6AWAR_lq4n7PeR9g"
    },
    "滋賀県滋賀県近江八幡市土田町１４００番１": {
      "normalized_address": "滋賀県滋賀県近江八幡市土田町１４００番１",
      "raw_prefecture": "滋賀県",
      "raw_address": "滋賀県近江八幡市土田町１４００番１",
      "status": "ok",
      "updated_at": "2026-03-31T03:46:51+00:00",
      "lat": 35.1263614,
      "lng": 136.0915946,
      "formatted_address": "1400-1 Tsuchidachō, Omihachiman, Shiga 523-0082, Japan",
      "place_id": "ChIJ3SpyZix6AWAR4OTs9Isr7ok"
    },
    "滋賀県滋賀県近江八幡市安土町常楽寺５９７": {
      "normalized_address": "滋賀県滋賀県近江八幡市安土町常楽寺５９７",
      "raw_prefecture": "滋賀県",
      "raw_address": "滋賀県近江八幡市安土町常楽寺５９７",
      "status": "ok",
      "updated_at": "2026-03-31T03:46:51+00:00",
      "lat": 35.1422599,
      "lng": 136.1318196,
      "formatted_address": "597 Azuchichō Jōrakuji, Omihachiman, Shiga 521-1351, Japan",
      "place_id": "ChIJjXthbPh7AWARLKfK5iHOUHU"
    },
    "滋賀県滋賀県近江八幡市桜宮町２０２－１": {
      "normalized_address": "滋賀県滋賀県近江八幡市桜宮町２０２－１",
      "raw_prefecture": "滋賀県",
      "raw_address": "滋賀県近江八幡市桜宮町２０２－１",
      "status": "ok",
      "updated_at": "2026-03-31T03:46:51+00:00",
      "lat": 35.1303152,
      "lng": 136.0954516,
      "formatted_address": "Japan, 〒523-0893 Shiga, Omihachiman, Sakuramiyachō, ２０２ アル・プラザ近江八幡",
      "place_id": "ChIJWUBTktR7AWARWGb05CXK8Yk"
    },
    "滋賀県滋賀県近江八幡市西庄町１２５１": {
      "normalized_address": "滋賀県滋賀県近江八幡市西庄町１２５１",
      "raw_prefecture": "滋賀県",
      "raw_address": "滋賀県近江八幡市西庄町１２５１",
      "status": "ok",
      "updated_at": "2026-03-31T03:46:52+00:00",
      "lat": 35.139249,
      "lng": 136.1106032,
      "formatted_address": "1251 Nishinoshōchō, Omihachiman, Shiga 523-0816, Japan",
      "place_id": "ChIJHy-4ct97AWARKzuhsg2YRlQ"
    },
    "滋賀県滋賀県近江八幡市音羽町５－１": {
      "normalized_address": "滋賀県滋賀県近江八幡市音羽町５－１",
      "raw_prefecture": "滋賀県",
      "raw_address": "滋賀県近江八幡市音羽町５－１",
      "status": "ok",
      "updated_at": "2026-03-31T03:46:52+00:00",
      "lat": 35.1350895,
      "lng": 136.104035,
      "formatted_address": "5-1 Otowachō, Omihachiman, Shiga 523-0856, Japan",
      "place_id": "ChIJdw6rKth7AWARs_T2kwEoup4"
    },
    "滋賀県滋賀県近江八幡市鷹飼町２２３－１": {
      "normalized_address": "滋賀県滋賀県近江八幡市鷹飼町２２３－１",
      "raw_prefecture": "滋賀県",
      "raw_address": "滋賀県近江八幡市鷹飼町２２３－１",
      "status": "ok",
      "updated_at": "2026-03-31T03:46:52+00:00",
      "lat": 35.1165697,
      "lng": 136.1070771,
      "formatted_address": "223-1 Takakaichō, Omihachiman, Shiga 523-0891, Japan",
      "place_id": "ChIJIVehfLl7AWARCGW4ZmSTgr4"
    },
    "滋賀県滋賀県近江八幡市鷹飼町３５１番１": {
      "normalized_address": "滋賀県滋賀県近江八幡市鷹飼町３５１番１",
      "raw_prefecture": "滋賀県",
      "raw_address": "滋賀県近江八幡市鷹飼町３５１番１",
      "status": "ok",
      "updated_at": "2026-03-31T03:46:52+00:00",
      "lat": 35.1170308,
      "lng": 136.1044574,
      "formatted_address": "351-1 Takakaichō, Omihachiman, Shiga 523-0891, Japan",
      "place_id": "ChIJJd1T0bl7AWAROCAV9GCmQPE"
    },
    "滋賀県滋賀県野洲市小篠原１０００": {
      "normalized_address": "滋賀県滋賀県野洲市小篠原１０００",
      "raw_prefecture": "滋賀県",
      "raw_address": "滋賀県野洲市小篠原１０００",
      "status": "ok",
      "updated_at": "2026-03-31T03:46:53+00:00",
      "lat": 35.0648026,
      "lng": 136.026676,
      "formatted_address": "1000 Koshinohara, Yasu, Shiga 520-2331, Japan",
      "place_id": "ChIJF52HmFdwAWAR942OqllodWM"
    },
    "滋賀県滋賀県野洲市西河原４－２５７７": {
      "normalized_address": "滋賀県滋賀県野洲市西河原４－２５７７",
      "raw_prefecture": "滋賀県",
      "raw_address": "滋賀県野洲市西河原４－２５７７",
      "status": "ok",
      "updated_at": "2026-03-31T03:46:53+00:00",
      "lat": 35.102329,
      "lng": 136.0146145,
      "formatted_address": "Nishigawara, Yasu, Shiga, Japan",
      "place_id": "ChIJiwNe-tZ2AWARRdmXhm_qJOc"
    },
    "滋賀県滋賀県野洲市野洲１５１３－１": {
      "normalized_address": "滋賀県滋賀県野洲市野洲１５１３－１",
      "raw_prefecture": "滋賀県",
      "raw_address": "滋賀県野洲市野洲１５１３－１",
      "status": "ok",
      "updated_at": "2026-03-31T03:46:53+00:00",
      "lat": 35.06228770000001,
      "lng": 136.0007907,
      "formatted_address": "1513-1 Yasu, Shiga 520-2342, Japan",
      "place_id": "ChIJiw6mEQ1xAWAR22Pvgbw3Tyw"
    },
    "滋賀県滋賀県長浜市八幡中山町１０１": {
      "normalized_address": "滋賀県滋賀県長浜市八幡中山町１０１",
      "raw_prefecture": "滋賀県",
      "raw_address": "滋賀県長浜市八幡中山町１０１",
      "status": "ok",
      "updated_at": "2026-03-31T03:46:53+00:00",
      "lat": 35.3929126,
      "lng": 136.2816443,
      "formatted_address": "101 Yawatanakayamachō, Nagahama, Shiga 526-0021, Japan",
      "place_id": "ChIJFajc0SspAmARBgjP1EZeJrM"
    },
    "滋賀県滋賀県長浜市八幡中山町５５": {
      "normalized_address": "滋賀県滋賀県長浜市八幡中山町５５",
      "raw_prefecture": "滋賀県",
      "raw_address": "滋賀県長浜市八幡中山町５５",
      "status": "ok",
      "updated_at": "2026-03-31T03:46:54+00:00",
      "lat": 35.3904527,
      "lng": 136.277368,
      "formatted_address": "Yawatanakayamacho, Nagahama, Shiga 526-0021, Japan",
      "place_id": "ChIJmfvqrycpAmARLiPPUeIB0XQ"
    },
    "滋賀県滋賀県長浜市八幡東町１３１": {
      "normalized_address": "滋賀県滋賀県長浜市八幡東町１３１",
      "raw_prefecture": "滋賀県",
      "raw_address": "滋賀県長浜市八幡東町１３１",
      "status": "ok",
      "updated_at": "2026-03-31T03:46:54+00:00",
      "lat": 35.384994,
      "lng": 136.2826824,
      "formatted_address": "131 Yawatahigashichō, Nagahama, Shiga 526-0031, Japan",
      "place_id": "ChIJS2SvsjMpAmARE8kbOAZMIeg"
    },
    "滋賀県滋賀県長浜市十里町１": {
      "normalized_address": "滋賀県滋賀県長浜市十里町１",
      "raw_prefecture": "滋賀県",
      "raw_address": "滋賀県長浜市十里町１",
      "status": "ok",
      "updated_at": "2026-03-31T03:46:54+00:00",
      "lat": 35.3974424,
      "lng": 136.2649799,
      "formatted_address": "Japan, 〒526-0016 Shiga, Nagahama, Jūrichō, １ 1番地",
      "place_id": "ChIJf3o-cegoAmARrgOdP_QTbhQ"
    },
    "滋賀県滋賀県長浜市小堀町４５０": {
      "normalized_address": "滋賀県滋賀県長浜市小堀町４５０",
      "raw_prefecture": "滋賀県",
      "raw_address": "滋賀県長浜市小堀町４５０",
      "status": "ok",
      "updated_at": "2026-03-31T03:46:54+00:00",
      "lat": 35.3835956,
      "lng": 136.2859013,
      "formatted_address": "450 Koborichō, Nagahama, Shiga 526-0845, Japan",
      "place_id": "ChIJJ5q-TcsuAmAR-tWghfygZhw"
    },
    "滋賀県滋賀県長浜市川崎町字羽織町２２６－１": {
      "normalized_address": "滋賀県滋賀県長浜市川崎町字羽織町２２６－１",
      "raw_prefecture": "滋賀県",
      "raw_address": "滋賀県長浜市川崎町字羽織町２２６－１",
      "status": "ok",
      "updated_at": "2026-03-31T03:46:55+00:00",
      "lat": 35.3914718,
      "lng": 136.2845539,
      "formatted_address": "Kawasakicho, Nagahama, Shiga 526-0846, Japan",
      "place_id": "ChIJg1cfnCwpAmARnCRx64Ptqt0"
    },
    "滋賀県滋賀県長浜市木之本町木之本字五位１５７０－４": {
      "normalized_address": "滋賀県滋賀県長浜市木之本町木之本字五位１５７０－４",
      "raw_prefecture": "滋賀県",
      "raw_address": "滋賀県長浜市木之本町木之本字五位１５７０－４",
      "status": "ok",
      "updated_at": "2026-03-31T03:46:55+00:00",
      "lat": 35.5127331,
      "lng": 136.2306854,
      "formatted_address": "Kinomotocho Kinomoto, Nagahama, Shiga 529-0425, Japan",
      "place_id": "ChIJvcJLpI4gAmARcd8eoVPhdXw"
    },
    "滋賀県滋賀県長浜市木之本町木之本１５６５": {
      "normalized_address": "滋賀県滋賀県長浜市木之本町木之本１５６５",
      "raw_prefecture": "滋賀県",
      "raw_address": "滋賀県長浜市木之本町木之本１５６５",
      "status": "ok",
      "updated_at": "2026-03-31T03:46:55+00:00",
      "lat": 35.5038134,
      "lng": 136.2208258,
      "formatted_address": "1565 Kinomotochō Kinomoto, Nagahama, Shiga 529-0425, Japan",
      "place_id": "ChIJJdqpAI8gAmARCZamtJX1MWc"
    },
    "滋賀県滋賀県高島市今津町今津１６８８平和堂今津店２Ｆ": {
      "normalized_address": "滋賀県滋賀県高島市今津町今津１６８８平和堂今津店２Ｆ",
      "raw_prefecture": "滋賀県",
      "raw_address": "滋賀県高島市今津町今津１６８８平和堂今津店２Ｆ",
      "status": "ok",
      "updated_at": "2026-03-31T03:46:55+00:00",
      "lat": 35.4050513,
      "lng": 136.0383048,
      "formatted_address": "1688 Imazuchō Imazu, Takashima, Shiga 520-1621, Japan",
      "place_id": "ChIJgeiWCxaSAWARhHN4r74PI-8"
    },
    "滋賀県滋賀県高島市今津町南新保５３０－１": {
      "normalized_address": "滋賀県滋賀県高島市今津町南新保５３０－１",
      "raw_prefecture": "滋賀県",
      "raw_address": "滋賀県高島市今津町南新保５３０－１",
      "status": "ok",
      "updated_at": "2026-03-31T03:46:56+00:00",
      "lat": 35.4065718,
      "lng": 136.0378454,
      "formatted_address": "530-1 Imazuchō Minamishinbo, Takashima, Shiga 520-1605, Japan",
      "place_id": "ChIJ7bD_kRWSAWARiuMZUl_hG9E"
    },
    "滋賀県滋賀県高島市今津町大字今津１６８８": {
      "normalized_address": "滋賀県滋賀県高島市今津町大字今津１６８８",
      "raw_prefecture": "滋賀県",
      "raw_address": "滋賀県高島市今津町大字今津１６８８",
      "status": "ok",
      "updated_at": "2026-03-31T03:46:56+00:00",
      "lat": 35.402835,
      "lng": 136.035217,
      "formatted_address": "1650-1 Imazuchō Imazu, Takashima, Shiga 520-1621, Japan",
      "place_id": "ChIJh-ARtj2SAWAR3Qxj5DvxMHI"
    },
    "滋賀県滋賀県高島市安曇川町西万木２０２": {
      "normalized_address": "滋賀県滋賀県高島市安曇川町西万木２０２",
      "raw_prefecture": "滋賀県",
      "raw_address": "滋賀県高島市安曇川町西万木２０２",
      "status": "ok",
      "updated_at": "2026-03-31T03:46:56+00:00",
      "lat": 35.32632700000001,
      "lng": 136.0254924,
      "formatted_address": "202 Adogawachō Nishiyurugi, Takashima, Shiga 520-1212, Japan",
      "place_id": "ChIJExbGVGSQAWARPpdsk3pj7FI"
    },
    "滋賀県滋賀県高島市安曇川町西万木５５": {
      "normalized_address": "滋賀県滋賀県高島市安曇川町西万木５５",
      "raw_prefecture": "滋賀県",
      "raw_address": "滋賀県高島市安曇川町西万木５５",
      "status": "ok",
      "updated_at": "2026-03-31T03:46:56+00:00",
      "lat": 35.3350939,
      "lng": 136.0253357,
      "formatted_address": "Adogawacho Nishiyurugi, Takashima, Shiga 520-1212, Japan",
      "place_id": "ChIJyYBPbmeQAWARqyNzI-MoUvw"
    },
    "滋賀県滋賀県高島市新旭町新庄１４２６－１": {
      "normalized_address": "滋賀県滋賀県高島市新旭町新庄１４２６－１",
      "raw_prefecture": "滋賀県",
      "raw_address": "滋賀県高島市新旭町新庄１４２６－１",
      "status": "ok",
      "updated_at": "2026-03-31T03:46:57+00:00",
      "lat": 35.3460489,
      "lng": 136.0310322,
      "formatted_address": "1426-1 Shinasahichō Shinjō, Takashima, Shiga 520-1522, Japan",
      "place_id": "ChIJdastGk-QAWAR5yJSA9VSfMg"
    },
    "滋賀県滋賀県高島市新旭町新庄５５５－８": {
      "normalized_address": "滋賀県滋賀県高島市新旭町新庄５５５－８",
      "raw_prefecture": "滋賀県",
      "raw_address": "滋賀県高島市新旭町新庄５５５－８",
      "status": "ok",
      "updated_at": "2026-03-31T03:46:57+00:00",
      "lat": 35.3429231,
      "lng": 136.0363211,
      "formatted_address": "555-8 Shinasahichō Shinjō, Takashima, Shiga 520-1522, Japan",
      "place_id": "ChIJI-0KRkeQAWARZ4cNjIuXv0s"
    }
  }
}
