{
  "version": 1,
  "generated_at": "2026-03-27T04:58:18+00:00",
  "source_file": "docs/data/1-44.json",
  "entries": {
    "大分県大分県中津市三光佐知１０１１": {
      "normalized_address": "大分県大分県中津市三光佐知１０１１",
      "raw_prefecture": "大分県",
      "raw_address": "大分県中津市三光佐知１０１１",
      "status": "ok",
      "updated_at": "2026-03-27T04:58:04+00:00",
      "lat": 33.550352,
      "lng": 131.1929473,
      "formatted_address": "Sankosachi, Nakatsu, Oita 871-0111, Japan",
      "place_id": "ChIJ3TXKJdH7QzURofAlmZ7p5rc"
    },
    "大分県大分県中津市大字下池永１１４": {
      "normalized_address": "大分県大分県中津市大字下池永１１４",
      "raw_prefecture": "大分県",
      "raw_address": "大分県中津市大字下池永１１４",
      "status": "ok",
      "updated_at": "2026-03-27T04:58:05+00:00",
      "lat": 33.5892074,
      "lng": 131.2136251,
      "formatted_address": "114 Shimoikenaga, Nakatsu, Oita 871-0011, Japan",
      "place_id": "ChIJ7cPdWuL5QzURuSr3h8c1C2I"
    },
    "大分県大分県中津市大字大新田字４番通１７４－１": {
      "normalized_address": "大分県大分県中津市大字大新田字４番通１７４－１",
      "raw_prefecture": "大分県",
      "raw_address": "大分県中津市大字大新田字４番通１７４－１",
      "status": "ok",
      "updated_at": "2026-03-27T04:58:05+00:00",
      "lat": 33.5982769,
      "lng": 131.2268719,
      "formatted_address": "Oshinden, Nakatsu, Oita 871-0001, Japan",
      "place_id": "ChIJP5idj273QzURoqb9K-Bg6es"
    },
    "大分県大分県中津市大字蛎瀬１３６６－３": {
      "normalized_address": "大分県大分県中津市大字蛎瀬１３６６－３",
      "raw_prefecture": "大分県",
      "raw_address": "大分県中津市大字蛎瀬１３６６－３",
      "status": "ok",
      "updated_at": "2026-03-27T04:58:05+00:00",
      "lat": 33.6087185,
      "lng": 131.2155071,
      "formatted_address": "1366-3 Kakize, Nakatsu, Oita 871-0007, Japan",
      "place_id": "ChIJg_28qjj3QzURazw92cpv28U"
    },
    "大分県大分県中津市大貞２８７－２": {
      "normalized_address": "大分県大分県中津市大貞２８７－２",
      "raw_prefecture": "大分県",
      "raw_address": "大分県中津市大貞２８７－２",
      "status": "ok",
      "updated_at": "2026-03-27T04:58:05+00:00",
      "lat": 33.5661543,
      "lng": 131.2143096,
      "formatted_address": "Osada, Nakatsu, Oita 871-0153, Japan",
      "place_id": "ChIJIRcIfJH5QzUR_hwhNytycG8"
    },
    "大分県大分県中津市蛎瀬１１０５": {
      "normalized_address": "大分県大分県中津市蛎瀬１１０５",
      "raw_prefecture": "大分県",
      "raw_address": "大分県中津市蛎瀬１１０５",
      "status": "ok",
      "updated_at": "2026-03-27T04:58:06+00:00",
      "lat": 33.6052474,
      "lng": 131.2061954,
      "formatted_address": "1105 Kakize, Nakatsu, Oita 871-0007, Japan",
      "place_id": "ChIJL2JGY073QzURCv_PgQTC5S4"
    },
    "大分県大分県佐伯市中の島２－３－３８": {
      "normalized_address": "大分県大分県佐伯市中の島２－３－３８",
      "raw_prefecture": "大分県",
      "raw_address": "大分県佐伯市中の島２－３－３８",
      "status": "ok",
      "updated_at": "2026-03-27T04:58:06+00:00",
      "lat": 32.9551948,
      "lng": 131.9000057,
      "formatted_address": "2-chōme-3-38 Nakanoshima, Saiki, Oita 876-0843, Japan",
      "place_id": "ChIJ46yxNeuJRjURduIeH2yO16E"
    },
    "大分県大分県佐伯市大字長谷１０２５９－１": {
      "normalized_address": "大分県大分県佐伯市大字長谷１０２５９－１",
      "raw_prefecture": "大分県",
      "raw_address": "大分県佐伯市大字長谷１０２５９－１",
      "status": "ok",
      "updated_at": "2026-03-27T04:58:06+00:00",
      "lat": 32.9398997,
      "lng": 131.8839178,
      "formatted_address": "10259 Hase, Saiki, Oita 876-0037, Japan",
      "place_id": "ChIJZwGeNiyKRjURh3OHmbKQfZs"
    },
    "大分県大分県佐伯市長谷１０８０８": {
      "normalized_address": "大分県大分県佐伯市長谷１０８０８",
      "raw_prefecture": "大分県",
      "raw_address": "大分県佐伯市長谷１０８０８",
      "status": "ok",
      "updated_at": "2026-03-27T04:58:06+00:00",
      "lat": 32.9432514,
      "lng": 131.9011034,
      "formatted_address": "10808 Hase, Saiki, Oita 876-0037, Japan",
      "place_id": "ChIJ-RvzlfSJRjURi9zdabJdz7s"
    },
    "大分県大分県佐伯市鶴岡町３－３－３５": {
      "normalized_address": "大分県大分県佐伯市鶴岡町３－３－３５",
      "raw_prefecture": "大分県",
      "raw_address": "大分県佐伯市鶴岡町３－３－３５",
      "status": "ok",
      "updated_at": "2026-03-27T04:58:07+00:00",
      "lat": 32.9592553,
      "lng": 131.8775199,
      "formatted_address": "3-chōme-3-35 Tsuruokamachi, Saiki, Oita 876-0835, Japan",
      "place_id": "ChIJ7feOnXeJRjURXvqKXQ-VIvc"
    },
    "大分県大分県佐伯市鶴岡西町１－２８７": {
      "normalized_address": "大分県大分県佐伯市鶴岡西町１－２８７",
      "raw_prefecture": "大分県",
      "raw_address": "大分県佐伯市鶴岡西町１－２８７",
      "status": "ok",
      "updated_at": "2026-03-27T04:58:07+00:00",
      "lat": 32.9626508,
      "lng": 131.8671133,
      "formatted_address": "1-chōme-287 Tsuruoka Nishimachi, Saiki, Oita 876-0047, Japan",
      "place_id": "ChIJi2LyiGWJRjURxgszIJoNq_I"
    },
    "大分県大分県佐伯市鶴岡西町２－１３９": {
      "normalized_address": "大分県大分県佐伯市鶴岡西町２－１３９",
      "raw_prefecture": "大分県",
      "raw_address": "大分県佐伯市鶴岡西町２－１３９",
      "status": "ok",
      "updated_at": "2026-03-27T04:58:07+00:00",
      "lat": 32.9605607,
      "lng": 131.8692338,
      "formatted_address": "2-chōme-139 Tsuruoka Nishimachi, Saiki, Oita 876-0047, Japan",
      "place_id": "ChIJm28SOGWJRjURch-FQhvChV0"
    },
    "大分県大分県佐伯市鶴見地松浦５５０－１９": {
      "normalized_address": "大分県大分県佐伯市鶴見地松浦５５０－１９",
      "raw_prefecture": "大分県",
      "raw_address": "大分県佐伯市鶴見地松浦５５０－１９",
      "status": "ok",
      "updated_at": "2026-03-27T04:58:07+00:00",
      "lat": 32.9468807,
      "lng": 131.9584118,
      "formatted_address": "550-19 Tsurumi Ōaza Jimatsuura, Saiki, Oita 876-1202, Japan",
      "place_id": "ChIJie69O1NiRjUR3qFKplMl1iw"
    },
    "大分県大分県別府市元町６－２９": {
      "normalized_address": "大分県大分県別府市元町６－２９",
      "raw_prefecture": "大分県",
      "raw_address": "大分県別府市元町６－２９",
      "status": "ok",
      "updated_at": "2026-03-27T04:58:08+00:00",
      "lat": 33.2767299,
      "lng": 131.5042736,
      "formatted_address": "6-29 Motomachi, Beppu, Oita 874-0944, Japan",
      "place_id": "ChIJEQl3GMOmRjURAOa5vn6xgFc"
    },
    "大分県大分県別府市光町９－２": {
      "normalized_address": "大分県大分県別府市光町９－２",
      "raw_prefecture": "大分県",
      "raw_address": "大分県別府市光町９－２",
      "status": "ok",
      "updated_at": "2026-03-27T04:58:08+00:00",
      "lat": 33.2745651,
      "lng": 131.4993489,
      "formatted_address": "9-2 Hikarimachi, Beppu, Oita 874-0930, Japan",
      "place_id": "ChIJmTNgMOqmRjUR_5Nsg7HDTT8"
    },
    "大分県大分県別府市北中７－２": {
      "normalized_address": "大分県大分県別府市北中７－２",
      "raw_prefecture": "大分県",
      "raw_address": "大分県別府市北中７－２",
      "status": "ok",
      "updated_at": "2026-03-27T04:58:08+00:00",
      "lat": 33.3106777,
      "lng": 131.4801888,
      "formatted_address": "Japan, 〒874-0840 Oita, Beppu, Tsurumi, 字石田９１−１",
      "place_id": "ChIJq6p-arGnRjURYZTLrhr34Vw"
    },
    "大分県大分県別府市大字鶴見字中河原４３８－１": {
      "normalized_address": "大分県大分県別府市大字鶴見字中河原４３８－１",
      "raw_prefecture": "大分県",
      "raw_address": "大分県別府市大字鶴見字中河原４３８－１",
      "status": "ok",
      "updated_at": "2026-03-27T04:58:08+00:00",
      "lat": 33.3060987,
      "lng": 131.4462559,
      "formatted_address": "Tsurumi, Beppu, Oita 874-0840, Japan",
      "place_id": "ChIJn-LDBqunRjURoCOJaxL8kcA"
    },
    "大分県大分県別府市石垣西４－５－２５": {
      "normalized_address": "大分県大分県別府市石垣西４－５－２５",
      "raw_prefecture": "大分県",
      "raw_address": "大分県別府市石垣西４－５－２５",
      "status": "ok",
      "updated_at": "2026-03-27T04:58:09+00:00",
      "lat": 33.2956739,
      "lng": 131.4915535,
      "formatted_address": "4-chōme-5-25 Ishigakinishi, Beppu, Oita 874-0910, Japan",
      "place_id": "ChIJ9avDyxynRjUR-ZXPNq3jCeQ"
    },
    "大分県大分県別府市馬場１組８": {
      "normalized_address": "大分県大分県別府市馬場１組８",
      "raw_prefecture": "大分県",
      "raw_address": "大分県別府市馬場１組８",
      "status": "ok",
      "updated_at": "2026-03-27T04:58:09+00:00",
      "lat": 33.3069358,
      "lng": 131.4786002,
      "formatted_address": "Baba, Tsurumi, Beppu, Oita 874-0847, Japan",
      "place_id": "ChIJO0pjKqanRjURJTIF24kTpxA"
    },
    "大分県大分県別府市駅前本町４－２０": {
      "normalized_address": "大分県大分県別府市駅前本町４－２０",
      "raw_prefecture": "大分県",
      "raw_address": "大分県別府市駅前本町４－２０",
      "status": "ok",
      "updated_at": "2026-03-27T04:58:09+00:00",
      "lat": 33.2803999,
      "lng": 131.5012011,
      "formatted_address": "4-20 Ekimae Honmachi, Beppu, Oita 874-0934, Japan",
      "place_id": "ChIJp2rpiuemRjURHA12PTTNvK0"
    },
    "大分県大分県大分市仲西町１－１１－３": {
      "normalized_address": "大分県大分県大分市仲西町１－１１－３",
      "raw_prefecture": "大分県",
      "raw_address": "大分県大分市仲西町１－１１－３",
      "status": "ok",
      "updated_at": "2026-03-27T04:58:09+00:00",
      "lat": 33.2417812,
      "lng": 131.6604816,
      "formatted_address": "1-chōme-11-3 Nakanishimachi, Oita, 870-0135, Japan",
      "place_id": "ChIJfZtJEECeRjURy6jhdMlO9mY"
    },
    "大分県大分県大分市公園通り西２－２": {
      "normalized_address": "大分県大分県大分市公園通り西２－２",
      "raw_prefecture": "大分県",
      "raw_address": "大分県大分市公園通り西２－２",
      "status": "ok",
      "updated_at": "2026-03-27T04:58:10+00:00",
      "lat": 33.1939099,
      "lng": 131.6600219,
      "formatted_address": "2-chōme-2 Kōendōrinishi, Oita, 870-0174, Japan",
      "place_id": "ChIJz1UUNMieRjURCSj7GwXcZEQ"
    },
    "大分県大分県大分市北下郡１１－５Ａ": {
      "normalized_address": "大分県大分県大分市北下郡１１－５Ａ",
      "raw_prefecture": "大分県",
      "raw_address": "大分県大分市北下郡１１－５Ａ",
      "status": "ok",
      "updated_at": "2026-03-27T04:58:10+00:00",
      "lat": 33.2308431,
      "lng": 131.6261869,
      "formatted_address": "5a, 11 Shimogōri, Oita, 870-0951, Japan",
      "place_id": "Eig1YSwgMTEgU2hpbW9nxY1yaSwgT2l0YSwgODcwLTA5NTEsIEphcGFuIh4aHAoWChQKEglPEHqjCJ9GNRHrV1PbJxVjwBICNWE"
    },
    "大分県大分県大分市大字市１２０６": {
      "normalized_address": "大分県大分県大分市大字市１２０６",
      "raw_prefecture": "大分県",
      "raw_address": "大分県大分市大字市１２０６",
      "status": "ok",
      "updated_at": "2026-03-27T04:58:10+00:00",
      "lat": 33.1856749,
      "lng": 131.5748135,
      "formatted_address": "1206 Ichi, Oita, 870-1151, Japan",
      "place_id": "ChIJ4Q_o7ViiRjURD7kotiAPpl8"
    },
    "大分県大分県大分市大字生石１４５－４４": {
      "normalized_address": "大分県大分県大分市大字生石１４５－４４",
      "raw_prefecture": "大分県",
      "raw_address": "大分県大分市大字生石１４５－４４",
      "status": "ok",
      "updated_at": "2026-03-27T04:58:10+00:00",
      "lat": 33.2436505,
      "lng": 131.5774558,
      "formatted_address": "145-44 Ikushi, Oita, 870-0003, Japan",
      "place_id": "ChIJe0ubSrmhRjURi8HRiUde75g"
    },
    "大分県大分県大分市大字皆春１５０３": {
      "normalized_address": "大分県大分県大分市大字皆春１５０３",
      "raw_prefecture": "大分県",
      "raw_address": "大分県大分市大字皆春１５０３",
      "status": "ok",
      "updated_at": "2026-03-27T04:58:11+00:00",
      "lat": 33.2366894,
      "lng": 131.6852493,
      "formatted_address": "1503 Minaharu, Oita, 870-0131, Japan",
      "place_id": "ChIJYcZeWOGdRjURTjh4vwatLcc"
    },
    "大分県大分県大分市大字端登字下鶴１８００－１": {
      "normalized_address": "大分県大分県大分市大字端登字下鶴１８００－１",
      "raw_prefecture": "大分県",
      "raw_address": "大分県大分市大字端登字下鶴１８００－１",
      "status": "ok",
      "updated_at": "2026-03-27T04:58:11+00:00",
      "lat": 33.0988,
      "lng": 131.6361042,
      "formatted_address": "Hatanobori, Oita, 879-7502, Japan",
      "place_id": "ChIJY_3MQ5mXRjURVK1b6i6RWp0"
    },
    "大分県大分県大分市富士見が丘東４－１７－９": {
      "normalized_address": "大分県大分県大分市富士見が丘東４－１７－９",
      "raw_prefecture": "大分県",
      "raw_address": "大分県大分市富士見が丘東４－１７－９",
      "status": "ok",
      "updated_at": "2026-03-27T04:58:11+00:00",
      "lat": 33.1808734,
      "lng": 131.5437796,
      "formatted_address": "Japan, 〒870-1176 Oita, Fujimigaokahigashi, 4-chōme−17−９ エディオンファインズ",
      "place_id": "ChIJ_34YVhSjRjURuu1_T4wqSwI"
    },
    "大分県大分県大分市東大道１－３－１ＫＣＡアクロスプラザ大分駅南２Ｆ": {
      "normalized_address": "大分県大分県大分市東大道１－３－１ＫＣＡアクロスプラザ大分駅南２Ｆ",
      "raw_prefecture": "大分県",
      "raw_address": "大分県大分市東大道１－３－１ＫＣＡアクロスプラザ大分駅南２Ｆ",
      "status": "ok",
      "updated_at": "2026-03-27T04:58:11+00:00",
      "lat": 33.232847,
      "lng": 131.604765,
      "formatted_address": "1-chōme-3-1 Higashiōmichi, Oita, 870-0823, Japan",
      "place_id": "ChIJY9lU3GOfRjURMykUJ37-jSo"
    },
    "大分県大分県大分市玉沢７５５－１": {
      "normalized_address": "大分県大分県大分市玉沢７５５－１",
      "raw_prefecture": "大分県",
      "raw_address": "大分県大分市玉沢７５５－１",
      "status": "ok",
      "updated_at": "2026-03-27T04:58:12+00:00",
      "lat": 33.188645,
      "lng": 131.5811849,
      "formatted_address": "755 Tamazawa, Oita, 870-1155, Japan",
      "place_id": "ChIJrx54x2eiRjURsNonhmBDgok"
    },
    "大分県大分県大分市王子北町３－５５": {
      "normalized_address": "大分県大分県大分市王子北町３－５５",
      "raw_prefecture": "大分県",
      "raw_address": "大分県大分市王子北町３－５５",
      "status": "ok",
      "updated_at": "2026-03-27T04:58:12+00:00",
      "lat": 33.2445601,
      "lng": 131.5937535,
      "formatted_address": "3-55 Ōji Kitamachi, Oita, 870-0005, Japan",
      "place_id": "ChIJmUwECdGhRjURR4vDAn2hjco"
    },
    "大分県大分県宇佐市大字下庄３１０": {
      "normalized_address": "大分県大分県宇佐市大字下庄３１０",
      "raw_prefecture": "大分県",
      "raw_address": "大分県宇佐市大字下庄３１０",
      "status": "ok",
      "updated_at": "2026-03-27T04:58:12+00:00",
      "lat": 33.57519449999999,
      "lng": 131.2917681,
      "formatted_address": "310 Shimoshō, Usa, Oita 879-0152, Japan",
      "place_id": "ChIJR4QYcRcIRDURbFzsHhb40OY"
    },
    "大分県大分県宇佐市大字法鏡寺４０９－１": {
      "normalized_address": "大分県大分県宇佐市大字法鏡寺４０９－１",
      "raw_prefecture": "大分県",
      "raw_address": "大分県宇佐市大字法鏡寺４０９－１",
      "status": "ok",
      "updated_at": "2026-03-27T04:58:12+00:00",
      "lat": 33.5225075,
      "lng": 131.3486583,
      "formatted_address": "409-1 Hōkyōji, Usa, Oita 879-0454, Japan",
      "place_id": "ChIJkfIgghEGRDURGf-uZHpmeWs"
    },
    "大分県大分県宇佐市大字法鏡寺５００": {
      "normalized_address": "大分県大分県宇佐市大字法鏡寺５００",
      "raw_prefecture": "大分県",
      "raw_address": "大分県宇佐市大字法鏡寺５００",
      "status": "ok",
      "updated_at": "2026-03-27T04:58:12+00:00",
      "lat": 33.5247785,
      "lng": 131.3481513,
      "formatted_address": "Parking lot, 500 Hōkyōji, Usa, Oita 879-0454, Japan",
      "place_id": "ChIJqYP2_RAGRDURK3uosIDcWE0"
    },
    "大分県大分県宇佐市貴船町１－２４": {
      "normalized_address": "大分県大分県宇佐市貴船町１－２４",
      "raw_prefecture": "大分県",
      "raw_address": "大分県宇佐市貴船町１－２４",
      "status": "ok",
      "updated_at": "2026-03-27T04:58:13+00:00",
      "lat": 33.5674697,
      "lng": 131.3681376,
      "formatted_address": "1-chōme-24 Kifunemachi, Usa, Oita 872-0042, Japan",
      "place_id": "ChIJ2TLaUNYORDURPR7I6vjkbfY"
    },
    "大分県大分県宇佐市辛島１９５－２": {
      "normalized_address": "大分県大分県宇佐市辛島１９５－２",
      "raw_prefecture": "大分県",
      "raw_address": "大分県宇佐市辛島１９５－２",
      "status": "ok",
      "updated_at": "2026-03-27T04:58:13+00:00",
      "lat": 33.5318683,
      "lng": 131.3390567,
      "formatted_address": "195-2 Karashima, Usa, Oita 879-0456, Japan",
      "place_id": "ChIJlV7_3CIGRDURTTi9CeCF-Uw"
    },
    "大分県大分県日田市十二町浄明寺１－１": {
      "normalized_address": "大分県大分県日田市十二町浄明寺１－１",
      "raw_prefecture": "大分県",
      "raw_address": "大分県日田市十二町浄明寺１－１",
      "status": "ok",
      "updated_at": "2026-03-27T04:58:13+00:00",
      "lat": 33.3238588,
      "lng": 130.9232198,
      "formatted_address": "Junicho, Hita, Oita 877-0000, Japan",
      "place_id": "ChIJ30gs1zNqQTURunbCejODn0E"
    },
    "大分県大分県日田市大字三和６７６": {
      "normalized_address": "大分県大分県日田市大字三和６７６",
      "raw_prefecture": "大分県",
      "raw_address": "大分県日田市大字三和６７６",
      "status": "ok",
      "updated_at": "2026-03-27T04:58:13+00:00",
      "lat": 33.3437651,
      "lng": 130.9430477,
      "formatted_address": "676 Miwa, Hita, Oita 877-0000, Japan",
      "place_id": "ChIJAR6JIuppQTURoFHSCWAFewU"
    },
    "大分県大分県日田市大字有田町２５９－４": {
      "normalized_address": "大分県大分県日田市大字有田町２５９－４",
      "raw_prefecture": "大分県",
      "raw_address": "大分県日田市大字有田町２５９－４",
      "status": "ok",
      "updated_at": "2026-03-27T04:58:14+00:00",
      "lat": 33.3326757,
      "lng": 130.9543495,
      "formatted_address": "259-4 Arita, Hita, Oita 877-1361, Japan",
      "place_id": "ChIJ5f2VaONpQTUR_8VI_WTddos"
    },
    "大分県大分県日田市本庄町７－５": {
      "normalized_address": "大分県大分県日田市本庄町７－５",
      "raw_prefecture": "大分県",
      "raw_address": "大分県日田市本庄町７－５",
      "status": "ok",
      "updated_at": "2026-03-27T04:58:14+00:00",
      "lat": 33.3183387,
      "lng": 130.9322771,
      "formatted_address": "7-5 Honshōmachi, Hita, Oita 877-0046, Japan",
      "place_id": "ChIJy3p8lztqQTURfzap0JV-3Vc"
    },
    "大分県大分県杵築市大字杵築字北浜６６５－８７３": {
      "normalized_address": "大分県大分県杵築市大字杵築字北浜６６５－８７３",
      "raw_prefecture": "大分県",
      "raw_address": "大分県杵築市大字杵築字北浜６６５－８７３",
      "status": "ok",
      "updated_at": "2026-03-27T04:58:14+00:00",
      "lat": 33.4234081,
      "lng": 131.6205031,
      "formatted_address": "Japan, 〒873-0001 Oita, Kitsuki, 北浜７５４",
      "place_id": "ChIJJQN-QAAjRDURr6Jq4ZSO2GA"
    },
    "大分県大分県津久見市セメント町５－１３": {
      "normalized_address": "大分県大分県津久見市セメント町５－１３",
      "raw_prefecture": "大分県",
      "raw_address": "大分県津久見市セメント町５－１３",
      "status": "ok",
      "updated_at": "2026-03-27T04:58:14+00:00",
      "lat": 33.0776546,
      "lng": 131.8559434,
      "formatted_address": "5-13 Cement Machi, Tsukumi, Oita 879-2443, Japan",
      "place_id": "ChIJ0WbG6Y2GRjURWBdaf6cRMzk"
    },
    "大分県大分県津久見市港町９－１５": {
      "normalized_address": "大分県大分県津久見市港町９－１５",
      "raw_prefecture": "大分県",
      "raw_address": "大分県津久見市港町９－１５",
      "status": "ok",
      "updated_at": "2026-03-27T04:58:15+00:00",
      "lat": 33.0769117,
      "lng": 131.8586798,
      "formatted_address": "9 Minatomachi, Tsukumi, Oita 879-2442, Japan",
      "place_id": "ChIJVbsDaI2GRjURewXtvKVNyko"
    },
    "大分県大分県玖珠郡玖珠町塚脇１７９－４": {
      "normalized_address": "大分県大分県玖珠郡玖珠町塚脇１７９－４",
      "raw_prefecture": "大分県",
      "raw_address": "大分県玖珠郡玖珠町塚脇１７９－４",
      "status": "ok",
      "updated_at": "2026-03-27T04:58:15+00:00",
      "lat": 33.2773594,
      "lng": 131.1507092,
      "formatted_address": "179-4 Tsukawaki, Kusu, Kusu District, Oita 879-4413, Japan",
      "place_id": "ChIJi81QIgZPQTURmlHKKmOwMTU"
    },
    "大分県大分県由布市庄内町大龍２１５５": {
      "normalized_address": "大分県大分県由布市庄内町大龍２１５５",
      "raw_prefecture": "大分県",
      "raw_address": "大分県由布市庄内町大龍２１５５",
      "status": "ok",
      "updated_at": "2026-03-27T04:58:15+00:00",
      "lat": 33.1797884,
      "lng": 131.4440719,
      "formatted_address": "2155 Shōnaichō Ōtatsu, Yufu, Oita 879-5413, Japan",
      "place_id": "ChIJ8znKDp-6RjURD74UAawnZbE"
    },
    "大分県大分県由布市挾間町大字挾間６００－２": {
      "normalized_address": "大分県大分県由布市挾間町大字挾間６００－２",
      "raw_prefecture": "大分県",
      "raw_address": "大分県由布市挾間町大字挾間６００－２",
      "status": "ok",
      "updated_at": "2026-03-27T04:58:15+00:00",
      "lat": 33.2000044,
      "lng": 131.5191295,
      "formatted_address": "600-2 Hasamamachi Hasama, Yufu, Oita 879-5506, Japan",
      "place_id": "ChIJ7fyEVoKkRjURW0bf3Ib2RBw"
    },
    "大分県大分県由布市湯布院町川上２９０７－４": {
      "normalized_address": "大分県大分県由布市湯布院町川上２９０７－４",
      "raw_prefecture": "大分県",
      "raw_address": "大分県由布市湯布院町川上２９０７－４",
      "status": "ok",
      "updated_at": "2026-03-27T04:58:16+00:00",
      "lat": 33.261908,
      "lng": 131.357454,
      "formatted_address": "2907-4 Yufuinchō Kawakami, Yufu, Oita 879-5102, Japan",
      "place_id": "ChIJBzuxwdmtRjURgFeYkqSDTlA"
    },
    "大分県大分県竹田市大字拝田原５０１－１": {
      "normalized_address": "大分県大分県竹田市大字拝田原５０１－１",
      "raw_prefecture": "大分県",
      "raw_address": "大分県竹田市大字拝田原５０１－１",
      "status": "ok",
      "updated_at": "2026-03-27T04:58:16+00:00",
      "lat": 32.9568936,
      "lng": 131.3765083,
      "formatted_address": "501-1 Haitabaru, Taketa, Oita 878-0025, Japan",
      "place_id": "ChIJSR9mAmbORjURMca7HqPCIK8"
    },
    "大分県大分県竹田市荻町馬場４３２－６": {
      "normalized_address": "大分県大分県竹田市荻町馬場４３２－６",
      "raw_prefecture": "大分県",
      "raw_address": "大分県竹田市荻町馬場４３２－６",
      "status": "ok",
      "updated_at": "2026-03-27T04:58:16+00:00",
      "lat": 32.9240322,
      "lng": 131.2990833,
      "formatted_address": "432-6 Ogimachibaba, Taketa, Oita 879-6115, Japan",
      "place_id": "ChIJiQS1pN_SRjURDs6yEd_3Tlw"
    },
    "大分県大分県臼杵市大字市浜１１１７－１": {
      "normalized_address": "大分県大分県臼杵市大字市浜１１１７－１",
      "raw_prefecture": "大分県",
      "raw_address": "大分県臼杵市大字市浜１１１７－１",
      "status": "ok",
      "updated_at": "2026-03-27T04:58:16+00:00",
      "lat": 33.1127058,
      "lng": 131.7867845,
      "formatted_address": "1117-1 Ichihama, Usuki, Oita 875-0052, Japan",
      "place_id": "ChIJ4c4sPuyERjURURZF5n4MASI"
    },
    "大分県大分県臼杵市大字市浜１２４１－３": {
      "normalized_address": "大分県大分県臼杵市大字市浜１２４１－３",
      "raw_prefecture": "大分県",
      "raw_address": "大分県臼杵市大字市浜１２４１－３",
      "status": "ok",
      "updated_at": "2026-03-27T04:58:17+00:00",
      "lat": 33.113726,
      "lng": 131.7845114,
      "formatted_address": "1241-3 Ichihama, Usuki, Oita 875-0052, Japan",
      "place_id": "ChIJ9Z5o6-uERjURctH5u7FJHik"
    },
    "大分県大分県豊後大野市三重町大字市場６１１－３": {
      "normalized_address": "大分県大分県豊後大野市三重町大字市場６１１－３",
      "raw_prefecture": "大分県",
      "raw_address": "大分県豊後大野市三重町大字市場６１１－３",
      "status": "ok",
      "updated_at": "2026-03-27T04:58:17+00:00",
      "lat": 32.979771,
      "lng": 131.5824635,
      "formatted_address": "Miemachi Ichiba, Bungoono, Oita 879-7131, Japan",
      "place_id": "ChIJAXPPKBXARjURMO3LU7Cb70g"
    },
    "大分県大分県豊後大野市三重町市場５区トキハインダストリー三重店３Ｆ": {
      "normalized_address": "大分県大分県豊後大野市三重町市場５区トキハインダストリー三重店３Ｆ",
      "raw_prefecture": "大分県",
      "raw_address": "大分県豊後大野市三重町市場５区トキハインダストリー三重店３Ｆ",
      "status": "ok",
      "updated_at": "2026-03-27T04:58:17+00:00",
      "lat": 32.9798122,
      "lng": 131.5865853,
      "formatted_address": "447-1 Miemachi Ichiba, Bungoono, Oita 879-7131, Japan",
      "place_id": "ChIJL-bpTxHARjURGbG_mX087_c"
    },
    "大分県大分県豊後大野市三重町赤嶺２０８７": {
      "normalized_address": "大分県大分県豊後大野市三重町赤嶺２０８７",
      "raw_prefecture": "大分県",
      "raw_address": "大分県豊後大野市三重町赤嶺２０８７",
      "status": "ok",
      "updated_at": "2026-03-27T04:58:17+00:00",
      "lat": 32.9831907,
      "lng": 131.5961055,
      "formatted_address": "2087 Miemachi Akamine, Bungoono, Oita 879-7111, Japan",
      "place_id": "ChIJ1StCdgTARjURE3wavvkwRi4"
    },
    "大分県大分県豊後高田市玉津２０９４－１": {
      "normalized_address": "大分県大分県豊後高田市玉津２０９４－１",
      "raw_prefecture": "大分県",
      "raw_address": "大分県豊後高田市玉津２０９４－１",
      "status": "ok",
      "updated_at": "2026-03-27T04:58:18+00:00",
      "lat": 33.5718233,
      "lng": 131.4429141,
      "formatted_address": "2094-1 Tamatsu, Bungotakada, Oita 879-0606, Japan",
      "place_id": "ChIJIVzxjv8RRDURp2ZnHx5vLqY"
    },
    "大分県大分県速見郡日出町３０５６－２－１": {
      "normalized_address": "大分県大分県速見郡日出町３０５６－２－１",
      "raw_prefecture": "大分県",
      "raw_address": "大分県速見郡日出町３０５６－２－１",
      "status": "ok",
      "updated_at": "2026-03-27T04:58:18+00:00",
      "lat": 33.3727294,
      "lng": 131.5341783,
      "formatted_address": "Hiji, Hayami District, Oita, Japan",
      "place_id": "ChIJSfD5WwMcRDURyZWtYJTsH8s"
    },
    "大分県大分県速見郡日出町３２４４－２": {
      "normalized_address": "大分県大分県速見郡日出町３２４４－２",
      "raw_prefecture": "大分県",
      "raw_address": "大分県速見郡日出町３２４４－２",
      "status": "ok",
      "updated_at": "2026-03-27T04:58:18+00:00",
      "lat": 33.3727294,
      "lng": 131.5341783,
      "formatted_address": "Hiji, Hayami District, Oita, Japan",
      "place_id": "ChIJSfD5WwMcRDURyZWtYJTsH8s"
    }
  }
}
