{
  "version": 1,
  "generated_at": "2026-03-27T04:58:31+00:00",
  "source_file": "docs/data/1-45.json",
  "entries": {
    "宮崎県宮崎県えびの市大字大明司字脇ノ下１１８０－２": {
      "normalized_address": "宮崎県宮崎県えびの市大字大明司字脇ノ下１１８０－２",
      "raw_prefecture": "宮崎県",
      "raw_address": "宮崎県えびの市大字大明司字脇ノ下１１８０－２",
      "status": "ok",
      "updated_at": "2026-03-27T04:58:18+00:00",
      "lat": 32.0549223,
      "lng": 130.8348715,
      "formatted_address": "Daimyoji, Ebino, Miyazaki 889-4311, Japan",
      "place_id": "ChIJC_iupx0TPzURH9sH8onKNLY"
    },
    "宮崎県宮崎県串間市西浜１－３－６": {
      "normalized_address": "宮崎県宮崎県串間市西浜１－３－６",
      "raw_prefecture": "宮崎県",
      "raw_address": "宮崎県串間市西浜１－３－６",
      "status": "ok",
      "updated_at": "2026-03-27T04:58:19+00:00",
      "lat": 31.4544923,
      "lng": 131.2151059,
      "formatted_address": "Japan, 〒888-0012 Miyazaki, Kushima, Nishihama, 1-chōme−３−６",
      "place_id": "ChIJn19LBMzNPjURhXPOzwi4PwU"
    },
    "宮崎県宮崎県児湯郡都農町大字川北１１４０－２５７": {
      "normalized_address": "宮崎県宮崎県児湯郡都農町大字川北１１４０－２５７",
      "raw_prefecture": "宮崎県",
      "raw_address": "宮崎県児湯郡都農町大字川北１１４０－２５７",
      "status": "ok",
      "updated_at": "2026-03-27T04:58:19+00:00",
      "lat": 32.2458051,
      "lng": 131.5438241,
      "formatted_address": "1140-257 Kawakita, Tsuno, Koyu District, Miyazaki 889-1201, Japan",
      "place_id": "ChIJ6ZZArcFcRzUR0E4aJs44ncQ"
    },
    "宮崎県宮崎県児湯郡高鍋町北高鍋１１０６": {
      "normalized_address": "宮崎県宮崎県児湯郡高鍋町北高鍋１１０６",
      "raw_prefecture": "宮崎県",
      "raw_address": "宮崎県児湯郡高鍋町北高鍋１１０６",
      "status": "ok",
      "updated_at": "2026-03-27T04:58:19+00:00",
      "lat": 32.1301917,
      "lng": 131.5090745,
      "formatted_address": "1106 Kitatakanabe, Takanabe, Koyu District, Miyazaki 884-0002, Japan",
      "place_id": "ChIJLeFKYaZYRzUR-fIeK9fX97w"
    },
    "宮崎県宮崎県児湯郡高鍋町大字北高鍋１０９１": {
      "normalized_address": "宮崎県宮崎県児湯郡高鍋町大字北高鍋１０９１",
      "raw_prefecture": "宮崎県",
      "raw_address": "宮崎県児湯郡高鍋町大字北高鍋１０９１",
      "status": "ok",
      "updated_at": "2026-03-27T04:58:19+00:00",
      "lat": 32.1303663,
      "lng": 131.5096764,
      "formatted_address": "1091 Kitatakanabe, Takanabe, Koyu District, Miyazaki 884-0002, Japan",
      "place_id": "ChIJl27Tc6ZYRzURCpI7VdE85jw"
    },
    "宮崎県宮崎県児湯郡高鍋町大字北高鍋５０１５": {
      "normalized_address": "宮崎県宮崎県児湯郡高鍋町大字北高鍋５０１５",
      "raw_prefecture": "宮崎県",
      "raw_address": "宮崎県児湯郡高鍋町大字北高鍋５０１５",
      "status": "ok",
      "updated_at": "2026-03-27T04:58:20+00:00",
      "lat": 32.1340154,
      "lng": 131.508324,
      "formatted_address": "5015 Kitatakanabe, Takanabe, Koyu District, Miyazaki 884-0002, Japan",
      "place_id": "ChIJe8ls-aRYRzURyn6yPVijymw"
    },
    "宮崎県宮崎県児湯郡高鍋町大字蚊口浦５５１７－２": {
      "normalized_address": "宮崎県宮崎県児湯郡高鍋町大字蚊口浦５５１７－２",
      "raw_prefecture": "宮崎県",
      "raw_address": "宮崎県児湯郡高鍋町大字蚊口浦５５１７－２",
      "status": "ok",
      "updated_at": "2026-03-27T04:58:20+00:00",
      "lat": 32.1179122,
      "lng": 131.5259283,
      "formatted_address": "5517-2 Kaguchiura, Takanabe, Koyu District, Miyazaki 884-0004, Japan",
      "place_id": "ChIJWwcvJKqgODUR8NeUXwwwx2s"
    },
    "宮崎県宮崎県北諸県郡三股町五本松１－１三股町役場": {
      "normalized_address": "宮崎県宮崎県北諸県郡三股町五本松１－１三股町役場",
      "raw_prefecture": "宮崎県",
      "raw_address": "宮崎県北諸県郡三股町五本松１－１三股町役場",
      "status": "ok",
      "updated_at": "2026-03-27T04:58:20+00:00",
      "lat": 31.7306883,
      "lng": 131.124924,
      "formatted_address": "Japan, 〒889-1902 Miyazaki, Kitamorokata District, Mimata, Gohonmatsu, 1−１−１",
      "place_id": "ChIJz31rTJ8oPzURmyJHgWqnuJ8"
    },
    "宮崎県宮崎県北諸県郡三股町大字長田１２３３－１": {
      "normalized_address": "宮崎県宮崎県北諸県郡三股町大字長田１２３３－１",
      "raw_prefecture": "宮崎県",
      "raw_address": "宮崎県北諸県郡三股町大字長田１２３３－１",
      "status": "ok",
      "updated_at": "2026-03-27T04:58:20+00:00",
      "lat": 31.7400673,
      "lng": 131.1314582,
      "formatted_address": "1233-1 Nagata, Mimata, Kitamorokata District, Miyazaki 889-1911, Japan",
      "place_id": "ChIJk40_QbEoPzURLPZPXuJFN8g"
    },
    "宮崎県宮崎県宮崎市吾妻町５１－３": {
      "normalized_address": "宮崎県宮崎県宮崎市吾妻町５１－３",
      "raw_prefecture": "宮崎県",
      "raw_address": "宮崎県宮崎市吾妻町５１－３",
      "status": "ok",
      "updated_at": "2026-03-27T04:58:21+00:00",
      "lat": 31.9050581,
      "lng": 131.4306425,
      "formatted_address": "51-3 Azumachō, Miyazaki, 880-0864, Japan",
      "place_id": "ChIJ3ZB4jW-3ODURUcCDzx7dZ2s"
    },
    "宮崎県宮崎県宮崎市大塚町西ノ原１２９５": {
      "normalized_address": "宮崎県宮崎県宮崎市大塚町西ノ原１２９５",
      "raw_prefecture": "宮崎県",
      "raw_address": "宮崎県宮崎市大塚町西ノ原１２９５",
      "status": "ok",
      "updated_at": "2026-03-27T04:58:21+00:00",
      "lat": 31.9222622,
      "lng": 131.3958229,
      "formatted_address": "Nishinoharu-1295 Ōtsukachō, Miyazaki, 880-0951, Japan",
      "place_id": "ChIJu2KOqea2ODURnOLxQtMURQY"
    },
    "宮崎県宮崎県宮崎市大字恒久７２５": {
      "normalized_address": "宮崎県宮崎県宮崎市大字恒久７２５",
      "raw_prefecture": "宮崎県",
      "raw_address": "宮崎県宮崎市大字恒久７２５",
      "status": "ok",
      "updated_at": "2026-03-27T04:58:21+00:00",
      "lat": 31.8839806,
      "lng": 131.425851,
      "formatted_address": "725 Tsunehisa, Miyazaki, 880-0916, Japan",
      "place_id": "ChIJ9e-b0Za3ODURAISx4d0loY4"
    },
    "宮崎県宮崎県宮崎市新別府町土田１６７": {
      "normalized_address": "宮崎県宮崎県宮崎市新別府町土田１６７",
      "raw_prefecture": "宮崎県",
      "raw_address": "宮崎県宮崎市新別府町土田１６７",
      "status": "ok",
      "updated_at": "2026-03-27T04:58:21+00:00",
      "lat": 31.92786599999999,
      "lng": 131.4543878,
      "formatted_address": "Tsuchida Shinbeppucho, Miyazaki, 880-0834, Japan",
      "place_id": "ChIJn8Bg6xu6ODURSXHJ_i6QpQU"
    },
    "宮崎県宮崎県宮崎市新別府町城元２５１": {
      "normalized_address": "宮崎県宮崎県宮崎市新別府町城元２５１",
      "raw_prefecture": "宮崎県",
      "raw_address": "宮崎県宮崎市新別府町城元２５１",
      "status": "ok",
      "updated_at": "2026-03-27T04:58:21+00:00",
      "lat": 31.9265287,
      "lng": 131.4523711,
      "formatted_address": "Japan, 〒880-0834 Miyazaki, Shinbeppuchō, Shiromoto−２５１ ヤマダ電機テックランド新宮崎本店ＰＣ館",
      "place_id": "ChIJA3ZKwhy6ODURuFEEXyurRVQ"
    },
    "宮崎県宮崎県宮崎市橘通西１－１－１": {
      "normalized_address": "宮崎県宮崎県宮崎市橘通西１－１－１",
      "raw_prefecture": "宮崎県",
      "raw_address": "宮崎県宮崎市橘通西１－１－１",
      "status": "ok",
      "updated_at": "2026-03-27T04:58:22+00:00",
      "lat": 31.9079206,
      "lng": 131.4197603,
      "formatted_address": "1-chōme-1-1 Tachibanadōrinishi, Miyazaki, 880-0001, Japan",
      "place_id": "ChIJt9bBnRK3ODURF4WXVc0LzqI"
    },
    "宮崎県宮崎県宮崎市浮城町９－２": {
      "normalized_address": "宮崎県宮崎県宮崎市浮城町９－２",
      "raw_prefecture": "宮崎県",
      "raw_address": "宮崎県宮崎市浮城町９－２",
      "status": "ok",
      "updated_at": "2026-03-27T04:58:22+00:00",
      "lat": 31.9294301,
      "lng": 131.4361107,
      "formatted_address": "9-2 Ukinojōchō, Miyazaki, 880-0821, Japan",
      "place_id": "ChIJN99eVlO3ODUR9qIWfuWp0IU"
    },
    "宮崎県宮崎県宮崎市清武町船引１８０－１": {
      "normalized_address": "宮崎県宮崎県宮崎市清武町船引１８０－１",
      "raw_prefecture": "宮崎県",
      "raw_address": "宮崎県宮崎市清武町船引１８０－１",
      "status": "ok",
      "updated_at": "2026-03-27T04:58:22+00:00",
      "lat": 31.8545885,
      "lng": 131.3886964,
      "formatted_address": "Funahiki-180-1 Kiyotakechō, Miyazaki, 889-1604, Japan",
      "place_id": "ChIJu4sYgMfJODURKbUzmf0Tva0"
    },
    "宮崎県宮崎県宮崎市清武町船引２９０": {
      "normalized_address": "宮崎県宮崎県宮崎市清武町船引２９０",
      "raw_prefecture": "宮崎県",
      "raw_address": "宮崎県宮崎市清武町船引２９０",
      "status": "ok",
      "updated_at": "2026-03-27T04:58:22+00:00",
      "lat": 31.8571888,
      "lng": 131.3892561,
      "formatted_address": "Funahiki-290 Kiyotakechō, Miyazaki, 889-1604, Japan",
      "place_id": "ChIJVU-_WsbJODUR44TsAARBk8Q"
    },
    "宮崎県宮崎県宮崎市矢の先町１３": {
      "normalized_address": "宮崎県宮崎県宮崎市矢の先町１３",
      "raw_prefecture": "宮崎県",
      "raw_address": "宮崎県宮崎市矢の先町１３",
      "status": "ok",
      "updated_at": "2026-03-27T04:58:23+00:00",
      "lat": 31.94092689999999,
      "lng": 131.4199586,
      "formatted_address": "13 Yanosakichō, Miyazaki, 880-0034, Japan",
      "place_id": "ChIJKVXtH8qwODUR63Ob1G5dzFc"
    },
    "宮崎県宮崎県宮崎市花ケ島町鴨ノ丸８２６－３": {
      "normalized_address": "宮崎県宮崎県宮崎市花ケ島町鴨ノ丸８２６－３",
      "raw_prefecture": "宮崎県",
      "raw_address": "宮崎県宮崎市花ケ島町鴨ノ丸８２６－３",
      "status": "ok",
      "updated_at": "2026-03-27T04:58:23+00:00",
      "lat": 31.9555661,
      "lng": 131.4371843,
      "formatted_address": "Kamonomaru Hanagashimacho, Miyazaki, 880-0036, Japan",
      "place_id": "ChIJK4-1V5mwODUR-qF3IMqr-D4"
    },
    "宮崎県宮崎県宮崎市花ヶ島町瀬々町２６００": {
      "normalized_address": "宮崎県宮崎県宮崎市花ヶ島町瀬々町２６００",
      "raw_prefecture": "宮崎県",
      "raw_address": "宮崎県宮崎市花ヶ島町瀬々町２６００",
      "status": "ok",
      "updated_at": "2026-03-27T04:58:23+00:00",
      "lat": 31.9485084,
      "lng": 131.4300724,
      "formatted_address": "Sesemachi-2600 Hanagashimachō, Miyazaki, 880-0036, Japan",
      "place_id": "ChIJFXa437ywODURSgnPMnMWAzU"
    },
    "宮崎県宮崎県宮崎市高岡町五町３５１": {
      "normalized_address": "宮崎県宮崎県宮崎市高岡町五町３５１",
      "raw_prefecture": "宮崎県",
      "raw_address": "宮崎県宮崎市高岡町五町３５１",
      "status": "ok",
      "updated_at": "2026-03-27T04:58:23+00:00",
      "lat": 31.9560285,
      "lng": 131.2988087,
      "formatted_address": "Gochō-351 Takaokachō, Miyazaki, 880-2322, Japan",
      "place_id": "ChIJPySY08K0ODUR7B9hHzBJblM"
    },
    "宮崎県宮崎県小林市堤３００５－７": {
      "normalized_address": "宮崎県宮崎県小林市堤３００５－７",
      "raw_prefecture": "宮崎県",
      "raw_address": "宮崎県小林市堤３００５－７",
      "status": "ok",
      "updated_at": "2026-03-27T04:58:24+00:00",
      "lat": 31.9839302,
      "lng": 130.996588,
      "formatted_address": "3005-7 Tsutsumi, Kobayashi, Miyazaki 886-0003, Japan",
      "place_id": "ChIJYRwdYlY-PzURm2-qD59vgjM"
    },
    "宮崎県宮崎県小林市大字堤字金鳥居３０２６－４": {
      "normalized_address": "宮崎県宮崎県小林市大字堤字金鳥居３０２６－４",
      "raw_prefecture": "宮崎県",
      "raw_address": "宮崎県小林市大字堤字金鳥居３０２６－４",
      "status": "ok",
      "updated_at": "2026-03-27T04:58:24+00:00",
      "lat": 31.9746486,
      "lng": 130.9998959,
      "formatted_address": "Tsutsumi, Kobayashi, Miyazaki 886-0003, Japan",
      "place_id": "ChIJZQuS54w-PzURWnsePv9E6Mc"
    },
    "宮崎県宮崎県小林市大字堤２９８５－１": {
      "normalized_address": "宮崎県宮崎県小林市大字堤２９８５－１",
      "raw_prefecture": "宮崎県",
      "raw_address": "宮崎県小林市大字堤２９８５－１",
      "status": "ok",
      "updated_at": "2026-03-27T04:58:24+00:00",
      "lat": 31.9855913,
      "lng": 130.9940277,
      "formatted_address": "2985-1 Tsutsumi, Kobayashi, Miyazaki 886-0003, Japan",
      "place_id": "ChIJHTyPVFE-PzURyX-tx-P2sNs"
    },
    "宮崎県宮崎県延岡市平原町５－１４９２－８": {
      "normalized_address": "宮崎県宮崎県延岡市平原町５－１４９２－８",
      "raw_prefecture": "宮崎県",
      "raw_address": "宮崎県延岡市平原町５－１４９２－８",
      "status": "ok",
      "updated_at": "2026-03-27T04:58:24+00:00",
      "lat": 32.5504117,
      "lng": 131.6779164,
      "formatted_address": "5-chōme-1492-8 Hirabarumachi, Nobeoka, Miyazaki 882-0866, Japan",
      "place_id": "ChIJd1R1g34ZRzURfh7y65BPy6g"
    },
    "宮崎県宮崎県延岡市愛宕町１－１－２７": {
      "normalized_address": "宮崎県宮崎県延岡市愛宕町１－１－２７",
      "raw_prefecture": "宮崎県",
      "raw_address": "宮崎県延岡市愛宕町１－１－２７",
      "status": "ok",
      "updated_at": "2026-03-27T04:58:25+00:00",
      "lat": 32.5700673,
      "lng": 131.6688004,
      "formatted_address": "1-chōme-1-27 Atagomachi, Nobeoka, Miyazaki 882-0872, Japan",
      "place_id": "ChIJ5eeC-UIZRzURnVoylOUqccA"
    },
    "宮崎県宮崎県延岡市浜町４８２７－１": {
      "normalized_address": "宮崎県宮崎県延岡市浜町４８２７－１",
      "raw_prefecture": "宮崎県",
      "raw_address": "宮崎県延岡市浜町４８２７－１",
      "status": "ok",
      "updated_at": "2026-03-27T04:58:25+00:00",
      "lat": 32.5622602,
      "lng": 131.6807388,
      "formatted_address": "4827-1 Hamamachi, Nobeoka, Miyazaki 882-0862, Japan",
      "place_id": "ChIJL4YvH2AZRzURJ_Rlk_lNcXU"
    },
    "宮崎県宮崎県延岡市緑ケ丘１－２－２": {
      "normalized_address": "宮崎県宮崎県延岡市緑ケ丘１－２－２",
      "raw_prefecture": "宮崎県",
      "raw_address": "宮崎県延岡市緑ケ丘１－２－２",
      "status": "ok",
      "updated_at": "2026-03-27T04:58:25+00:00",
      "lat": 32.561864,
      "lng": 131.6839501,
      "formatted_address": "1-chōme-2-2 Midorigaoka, Nobeoka, Miyazaki 882-0863, Japan",
      "place_id": "ChIJHxYgKd4bRzURN1_6vRPMG5s"
    },
    "宮崎県宮崎県日南市吾田西２－１０－２７": {
      "normalized_address": "宮崎県宮崎県日南市吾田西２－１０－２７",
      "raw_prefecture": "宮崎県",
      "raw_address": "宮崎県日南市吾田西２－１０－２７",
      "status": "ok",
      "updated_at": "2026-03-27T04:58:25+00:00",
      "lat": 31.6125261,
      "lng": 131.3719147,
      "formatted_address": "2-chōme-10-27 Agatanishi, Nichinan, Miyazaki 889-2536, Japan",
      "place_id": "ChIJ94KZOWPWODURw_4KRk80BxU"
    },
    "宮崎県宮崎県日南市吾田西４－６－３１": {
      "normalized_address": "宮崎県宮崎県日南市吾田西４－６－３１",
      "raw_prefecture": "宮崎県",
      "raw_address": "宮崎県日南市吾田西４－６－３１",
      "status": "ok",
      "updated_at": "2026-03-27T04:58:26+00:00",
      "lat": 31.613312,
      "lng": 131.3689792,
      "formatted_address": "Japan, 〒889-2536 Miyazaki, Nichinan, Agatanishi, 4-chōme−6−３１ 6番31号",
      "place_id": "ChIJQ8XKi3zWODURlAQ5pMGDWgo"
    },
    "宮崎県宮崎県日南市大字隈谷乙１６７１": {
      "normalized_address": "宮崎県宮崎県日南市大字隈谷乙１６７１",
      "raw_prefecture": "宮崎県",
      "raw_address": "宮崎県日南市大字隈谷乙１６７１",
      "status": "ok",
      "updated_at": "2026-03-27T04:58:26+00:00",
      "lat": 31.580569,
      "lng": 131.370529,
      "formatted_address": "Otsu-1671 Kumaya, Nichinan, Miyazaki 887-0023, Japan",
      "place_id": "ChIJ04UK2gLWODURR80Ggs-s7Vc"
    },
    "宮崎県宮崎県日向市大字日知屋１４７９８－１": {
      "normalized_address": "宮崎県宮崎県日向市大字日知屋１４７９８－１",
      "raw_prefecture": "宮崎県",
      "raw_address": "宮崎県日向市大字日知屋１４７９８－１",
      "status": "ok",
      "updated_at": "2026-03-27T04:58:26+00:00",
      "lat": 32.44974870000001,
      "lng": 131.6395058,
      "formatted_address": "14798-1 Hichiya, Hyuga, Miyazaki 883-0062, Japan",
      "place_id": "ChIJQQ3xkX8WRzURa8UTePLkVOQ"
    },
    "宮崎県宮崎県日向市大字財光寺１８６－６": {
      "normalized_address": "宮崎県宮崎県日向市大字財光寺１８６－６",
      "raw_prefecture": "宮崎県",
      "raw_address": "宮崎県日向市大字財光寺１８６－６",
      "status": "ok",
      "updated_at": "2026-03-27T04:58:26+00:00",
      "lat": 32.4172951,
      "lng": 131.6317615,
      "formatted_address": "186-6 Zaikōji, Hyuga, Miyazaki 883-0021, Japan",
      "place_id": "ChIJbXH9iKgVRzURM5aMnzgR0Lk"
    },
    "宮崎県宮崎県日向市曽根町１－１２７": {
      "normalized_address": "宮崎県宮崎県日向市曽根町１－１２７",
      "raw_prefecture": "宮崎県",
      "raw_address": "宮崎県日向市曽根町１－１２７",
      "status": "ok",
      "updated_at": "2026-03-27T04:58:27+00:00",
      "lat": 32.4212337,
      "lng": 131.6449856,
      "formatted_address": "1-chōme-127 Sonechō, Hyuga, Miyazaki 883-0011, Japan",
      "place_id": "ChIJ3_IlNUwURzURDhr4OvSYaT8"
    },
    "宮崎県宮崎県日向市財光寺１０５－５": {
      "normalized_address": "宮崎県宮崎県日向市財光寺１０５－５",
      "raw_prefecture": "宮崎県",
      "raw_address": "宮崎県日向市財光寺１０５－５",
      "status": "ok",
      "updated_at": "2026-03-27T04:58:27+00:00",
      "lat": 32.4021533,
      "lng": 131.63089,
      "formatted_address": "Zaikoji, Hyuga, Miyazaki 883-0021, Japan",
      "place_id": "ChIJj3U8VRAVRzURj4LrOK0T0ac"
    },
    "宮崎県宮崎県東臼杵郡美郷町北郷区宇納間４６－２": {
      "normalized_address": "宮崎県宮崎県東臼杵郡美郷町北郷区宇納間４６－２",
      "raw_prefecture": "宮崎県",
      "raw_address": "宮崎県東臼杵郡美郷町北郷区宇納間４６－２",
      "status": "ok",
      "updated_at": "2026-03-27T04:58:27+00:00",
      "lat": 32.5021439,
      "lng": 131.4425284,
      "formatted_address": "46-2 Kitagōunama, Misato, Higashiusuki District, Miyazaki 889-0901, Japan",
      "place_id": "ChIJYSUHXtg5RzURjabddP_EA6c"
    },
    "宮崎県宮崎県東諸県郡国富町大字本庄４５８８－４": {
      "normalized_address": "宮崎県宮崎県東諸県郡国富町大字本庄４５８８－４",
      "raw_prefecture": "宮崎県",
      "raw_address": "宮崎県東諸県郡国富町大字本庄４５８８－４",
      "status": "ok",
      "updated_at": "2026-03-27T04:58:27+00:00",
      "lat": 31.9888938,
      "lng": 131.3293169,
      "formatted_address": "4588-4 Honjō, Kunitomi, Higashimorokata District, Miyazaki 880-1101, Japan",
      "place_id": "ChIJ3e6OTpizODUR9DVPYftPxRE"
    },
    "宮崎県宮崎県東諸県郡国富町大字本庄４８００": {
      "normalized_address": "宮崎県宮崎県東諸県郡国富町大字本庄４８００",
      "raw_prefecture": "宮崎県",
      "raw_address": "宮崎県東諸県郡国富町大字本庄４８００",
      "status": "ok",
      "updated_at": "2026-03-27T04:58:28+00:00",
      "lat": 31.9904562,
      "lng": 131.3228518,
      "formatted_address": "4800 Honjō, Kunitomi, Higashimorokata District, Miyazaki 880-1101, Japan",
      "place_id": "ChIJA8E2RZ6zODURNtYEbtK_mhA"
    },
    "宮崎県宮崎県西臼杵郡高千穂町三田井１２６４－１": {
      "normalized_address": "宮崎県宮崎県西臼杵郡高千穂町三田井１２６４－１",
      "raw_prefecture": "宮崎県",
      "raw_address": "宮崎県西臼杵郡高千穂町三田井１２６４－１",
      "status": "ok",
      "updated_at": "2026-03-27T04:58:28+00:00",
      "lat": 32.7075175,
      "lng": 131.3041821,
      "formatted_address": "1264-1 Mitai, Takachiho, Nishiusuki District, Miyazaki 882-1101, Japan",
      "place_id": "ChIJIRnt4ugsRzUR8mfhXloo304"
    },
    "宮崎県宮崎県西臼杵郡高千穂町大字三田井１０５－３": {
      "normalized_address": "宮崎県宮崎県西臼杵郡高千穂町大字三田井１０５－３",
      "raw_prefecture": "宮崎県",
      "raw_address": "宮崎県西臼杵郡高千穂町大字三田井１０５－３",
      "status": "ok",
      "updated_at": "2026-03-27T04:58:28+00:00",
      "lat": 32.7116313,
      "lng": 131.3090277,
      "formatted_address": "105-3 Mitai, Takachiho, Nishiusuki District, Miyazaki 882-1101, Japan",
      "place_id": "ChIJGa_oIu0sRzURTvK7Z3Ywxyg"
    },
    "宮崎県宮崎県西都市大字妻平田１６５５－１": {
      "normalized_address": "宮崎県宮崎県西都市大字妻平田１６５５－１",
      "raw_prefecture": "宮崎県",
      "raw_address": "宮崎県西都市大字妻平田１６５５－１",
      "status": "ok",
      "updated_at": "2026-03-27T04:58:28+00:00",
      "lat": 32.108124,
      "lng": 131.4002844,
      "formatted_address": "Hirata, 2-chōme Seiryōchō, Saito, Miyazaki 881-0015, Japan",
      "place_id": "ChIJeSVJTyepODURDbcSeUpkJ6c"
    },
    "宮崎県宮崎県西都市妻町３－５１": {
      "normalized_address": "宮崎県宮崎県西都市妻町３－５１",
      "raw_prefecture": "宮崎県",
      "raw_address": "宮崎県西都市妻町３－５１",
      "status": "ok",
      "updated_at": "2026-03-27T04:58:29+00:00",
      "lat": 32.1112362,
      "lng": 131.4055414,
      "formatted_address": "3-chōme-51 Tsumachō, Saito, Miyazaki 881-0034, Japan",
      "place_id": "ChIJ7Yd0Hd6oODURQEW08R3nH8s"
    },
    "宮崎県宮崎県都城市上水流町１６８１": {
      "normalized_address": "宮崎県宮崎県都城市上水流町１６８１",
      "raw_prefecture": "宮崎県",
      "raw_address": "宮崎県都城市上水流町１６８１",
      "status": "ok",
      "updated_at": "2026-03-27T04:58:29+00:00",
      "lat": 31.8106759,
      "lng": 131.0970024,
      "formatted_address": "1681 Kamizuruchō, Miyakonojo, Miyazaki 885-1103, Japan",
      "place_id": "ChIJGQbxUxIlPzURUiiD6Td68TM"
    },
    "宮崎県宮崎県都城市上町１２－２６": {
      "normalized_address": "宮崎県宮崎県都城市上町１２－２６",
      "raw_prefecture": "宮崎県",
      "raw_address": "宮崎県都城市上町１２－２６",
      "status": "ok",
      "updated_at": "2026-03-27T04:58:29+00:00",
      "lat": 31.72322209999999,
      "lng": 131.063802,
      "formatted_address": "12-26 Kanmachi, Miyakonojo, Miyazaki 885-0072, Japan",
      "place_id": "ChIJMzYHuRYnPzURkXmkABfiF2w"
    },
    "宮崎県宮崎県都城市下水流町４０２８－１１": {
      "normalized_address": "宮崎県宮崎県都城市下水流町４０２８－１１",
      "raw_prefecture": "宮崎県",
      "raw_address": "宮崎県都城市下水流町４０２８－１１",
      "status": "ok",
      "updated_at": "2026-03-27T04:58:29+00:00",
      "lat": 31.8215914,
      "lng": 131.1006698,
      "formatted_address": "4028-11 Shimozuruchō, Miyakonojo, Miyazaki 885-1102, Japan",
      "place_id": "ChIJYQGwT0clPzURflGQsNDjILA"
    },
    "宮崎県宮崎県都城市北原町３４－５": {
      "normalized_address": "宮崎県宮崎県都城市北原町３４－５",
      "raw_prefecture": "宮崎県",
      "raw_address": "宮崎県都城市北原町３４－５",
      "status": "ok",
      "updated_at": "2026-03-27T04:58:30+00:00",
      "lat": 31.7345366,
      "lng": 131.0735566,
      "formatted_address": "34-5 Kitaharachō, Miyakonojo, Miyazaki 885-0024, Japan",
      "place_id": "ChIJ-atSyP0mPzURLqLo1R_Duq8"
    },
    "宮崎県宮崎県都城市千町５１９８－４": {
      "normalized_address": "宮崎県宮崎県都城市千町５１９８－４",
      "raw_prefecture": "宮崎県",
      "raw_address": "宮崎県都城市千町５１９８－４",
      "status": "ok",
      "updated_at": "2026-03-27T04:58:30+00:00",
      "lat": 31.73894839999999,
      "lng": 131.082365,
      "formatted_address": "5198-4 Senchō, Miyakonojo, Miyazaki 885-0015, Japan",
      "place_id": "ChIJYbGc1FkmPzURGrDgJvKNvkM"
    },
    "宮崎県宮崎県都城市吉尾町１－１": {
      "normalized_address": "宮崎県宮崎県都城市吉尾町１－１",
      "raw_prefecture": "宮崎県",
      "raw_address": "宮崎県都城市吉尾町１－１",
      "status": "ok",
      "updated_at": "2026-03-27T04:58:30+00:00",
      "lat": 31.75151319999999,
      "lng": 131.0789822,
      "formatted_address": "1-1 Yoshiochō, Miyakonojo, Miyazaki 885-0006, Japan",
      "place_id": "ChIJO5XriIomPzURjfzVivqVTMU"
    },
    "宮崎県宮崎県都城市姫城町６街区２１": {
      "normalized_address": "宮崎県宮崎県都城市姫城町６街区２１",
      "raw_prefecture": "宮崎県",
      "raw_address": "宮崎県都城市姫城町６街区２１",
      "status": "ok",
      "updated_at": "2026-03-27T04:58:30+00:00",
      "lat": 31.7196621,
      "lng": 131.0616108,
      "formatted_address": "6 Himegicho, Miyakonojo, Miyazaki 885-0073, Japan",
      "place_id": "ChIJYZGuGRUnPzURbztzsv1Yi2A"
    },
    "宮崎県宮崎県都城市山之口町富吉２９１９－３": {
      "normalized_address": "宮崎県宮崎県都城市山之口町富吉２９１９－３",
      "raw_prefecture": "宮崎県",
      "raw_address": "宮崎県都城市山之口町富吉２９１９－３",
      "status": "ok",
      "updated_at": "2026-03-27T04:58:31+00:00",
      "lat": 31.7785918,
      "lng": 131.143087,
      "formatted_address": "2919-3 Yamanokuchichō Tomiyoshi, Miyakonojo, Miyazaki 889-1801, Japan",
      "place_id": "ChIJN8b4rAsvPzURqJzTUdPXh1g"
    },
    "宮崎県宮崎県都城市栄町４６７２－５": {
      "normalized_address": "宮崎県宮崎県都城市栄町４６７２－５",
      "raw_prefecture": "宮崎県",
      "raw_address": "宮崎県都城市栄町４６７２－５",
      "status": "ok",
      "updated_at": "2026-03-27T04:58:31+00:00",
      "lat": 31.7356824,
      "lng": 131.0804488,
      "formatted_address": "4672-5 Sakaemachi, Miyakonojo, Miyazaki 885-0023, Japan",
      "place_id": "ChIJgcYbF1YmPzURVt2-qyGfIiE"
    }
  }
}
