{
  "version": 1,
  "generated_at": "2026-03-27T04:58:53+00:00",
  "source_file": "docs/data/1-46.json",
  "entries": {
    "鹿児島県鹿児島県いちき串木野市冠嶽１０６６０": {
      "normalized_address": "鹿児島県鹿児島県いちき串木野市冠嶽１０６６０",
      "raw_prefecture": "鹿児島県",
      "raw_address": "鹿児島県いちき串木野市冠嶽１０６６０",
      "status": "ok",
      "updated_at": "2026-03-27T04:58:31+00:00",
      "lat": 31.7237818,
      "lng": 130.3247006,
      "formatted_address": "10660 Kanmuridake, Ichikikushikino, Kagoshima 896-0051, Japan",
      "place_id": "ChIJkzu6LYxAPjURkK-yba7JNvc"
    },
    "鹿児島県鹿児島県伊佐市大口里７１４－１": {
      "normalized_address": "鹿児島県鹿児島県伊佐市大口里７１４－１",
      "raw_prefecture": "鹿児島県",
      "raw_address": "鹿児島県伊佐市大口里７１４－１",
      "status": "ok",
      "updated_at": "2026-03-27T04:58:31+00:00",
      "lat": 32.0572927,
      "lng": 130.6061176,
      "formatted_address": "714-1 Ōkuchisato, Isa, Kagoshima 895-2511, Japan",
      "place_id": "ChIJW9OvGaWnPzURxWeVfhDJfiA"
    },
    "鹿児島県鹿児島県伊佐市大口鳥巣字西中水流１２４２－３": {
      "normalized_address": "鹿児島県鹿児島県伊佐市大口鳥巣字西中水流１２４２－３",
      "raw_prefecture": "鹿児島県",
      "raw_address": "鹿児島県伊佐市大口鳥巣字西中水流１２４２－３",
      "status": "ok",
      "updated_at": "2026-03-27T04:58:31+00:00",
      "lat": 32.0639031,
      "lng": 130.5915163,
      "formatted_address": "Okuchitorisu, Isa, Kagoshima 895-2521, Japan",
      "place_id": "ChIJ167L7FOmPzURB6kAAQsNDBE"
    },
    "鹿児島県鹿児島県出水市六月田町３８９番地": {
      "normalized_address": "鹿児島県鹿児島県出水市六月田町３８９番地",
      "raw_prefecture": "鹿児島県",
      "raw_address": "鹿児島県出水市六月田町３８９番地",
      "status": "ok",
      "updated_at": "2026-03-27T04:58:32+00:00",
      "lat": 32.10951,
      "lng": 130.3432238,
      "formatted_address": "Japan, 〒899-0126 Kagoshima, Izumi, Rokugatsudamachi, ３８９ 389番地",
      "place_id": "ChIJV-wmn5i3PzURZSAKwqffn9E"
    },
    "鹿児島県鹿児島県出水市野田町上名６４９９－９": {
      "normalized_address": "鹿児島県鹿児島県出水市野田町上名６４９９－９",
      "raw_prefecture": "鹿児島県",
      "raw_address": "鹿児島県出水市野田町上名６４９９－９",
      "status": "ok",
      "updated_at": "2026-03-27T04:58:32+00:00",
      "lat": 32.0631479,
      "lng": 130.2565932,
      "formatted_address": "6499-9 Nodachō Kamimyō, Izumi, Kagoshima 899-0502, Japan",
      "place_id": "ChIJ51gwx7nLPzUR51C3mJOiO7E"
    },
    "鹿児島県鹿児島県出水市高尾野町柴引２０２５－４": {
      "normalized_address": "鹿児島県鹿児島県出水市高尾野町柴引２０２５－４",
      "raw_prefecture": "鹿児島県",
      "raw_address": "鹿児島県出水市高尾野町柴引２０２５－４",
      "status": "ok",
      "updated_at": "2026-03-27T04:58:32+00:00",
      "lat": 32.0607477,
      "lng": 130.2942234,
      "formatted_address": "2025-4 Takaonomachi Shibahiki, Izumi, Kagoshima 899-0402, Japan",
      "place_id": "ChIJR8zIsBDKPzUR0A8ySxvABNY"
    },
    "鹿児島県鹿児島県出水市黄金町５２３": {
      "normalized_address": "鹿児島県鹿児島県出水市黄金町５２３",
      "raw_prefecture": "鹿児島県",
      "raw_address": "鹿児島県出水市黄金町５２３",
      "status": "ok",
      "updated_at": "2026-03-27T04:58:32+00:00",
      "lat": 32.1035526,
      "lng": 130.3428738,
      "formatted_address": "523 Koganemachi, Izumi, Kagoshima 899-0125, Japan",
      "place_id": "ChIJf5z-GKS3PzURHHO3X2mR9ds"
    },
    "鹿児島県鹿児島県出水郡長島町指江７８７": {
      "normalized_address": "鹿児島県鹿児島県出水郡長島町指江７８７",
      "raw_prefecture": "鹿児島県",
      "raw_address": "鹿児島県出水郡長島町指江７８７",
      "status": "ok",
      "updated_at": "2026-03-27T04:58:33+00:00",
      "lat": 32.1553561,
      "lng": 130.1187418,
      "formatted_address": "787 Sasue, Nagashima, Izumi District, Kagoshima 899-1303, Japan",
      "place_id": "ChIJuSzIbpbRPzURXBn7pTymnuY"
    },
    "鹿児島県鹿児島県出水郡長島町鷹巣１８７５－１": {
      "normalized_address": "鹿児島県鹿児島県出水郡長島町鷹巣１８７５－１",
      "raw_prefecture": "鹿児島県",
      "raw_address": "鹿児島県出水郡長島町鷹巣１８７５－１",
      "status": "ok",
      "updated_at": "2026-03-27T04:58:33+00:00",
      "lat": 32.1993904,
      "lng": 130.1767847,
      "formatted_address": "1875-1 Takanosu, Nagashima, Izumi District, Kagoshima 899-1401, Japan",
      "place_id": "ChIJgZwt2nrFPzURaYmt5rg09k4"
    },
    "鹿児島県鹿児島県南さつま市加世田地頭所町２５－３": {
      "normalized_address": "鹿児島県鹿児島県南さつま市加世田地頭所町２５－３",
      "raw_prefecture": "鹿児島県",
      "raw_address": "鹿児島県南さつま市加世田地頭所町２５－３",
      "status": "ok",
      "updated_at": "2026-03-27T04:58:33+00:00",
      "lat": 31.4241442,
      "lng": 130.3227539,
      "formatted_address": "Japan, 〒897-0000 Kagoshima, Minamisatsuma, Kasedajitōshochō, ２５−３",
      "place_id": "ChIJw8Bi7cR0PjURVia31IjbLzQ"
    },
    "鹿児島県鹿児島県南さつま市加世田地頭所７３７－１": {
      "normalized_address": "鹿児島県鹿児島県南さつま市加世田地頭所７３７－１",
      "raw_prefecture": "鹿児島県",
      "raw_address": "鹿児島県南さつま市加世田地頭所７３７－１",
      "status": "ok",
      "updated_at": "2026-03-27T04:58:33+00:00",
      "lat": 31.4229574,
      "lng": 130.3198894,
      "formatted_address": "737-1 Kasedajitōsho, Minamisatsuma, Kagoshima 897-0008, Japan",
      "place_id": "ChIJHSPnTMV0PjUR8Jg10UADmgw"
    },
    "鹿児島県鹿児島県南さつま市加世田川畑７７７": {
      "normalized_address": "鹿児島県鹿児島県南さつま市加世田川畑７７７",
      "raw_prefecture": "鹿児島県",
      "raw_address": "鹿児島県南さつま市加世田川畑７７７",
      "status": "ok",
      "updated_at": "2026-03-27T04:58:34+00:00",
      "lat": 31.4157615,
      "lng": 130.3350436,
      "formatted_address": "Japan, 〒897-0003 Kagoshima, Minamisatsuma, Kasedakawabata, ７７７ 777番地",
      "place_id": "ChIJ03Quw-V0PjUR64F8rjISK_8"
    },
    "鹿児島県鹿児島県南九州市川辺町上山田４５０１": {
      "normalized_address": "鹿児島県鹿児島県南九州市川辺町上山田４５０１",
      "raw_prefecture": "鹿児島県",
      "raw_address": "鹿児島県南九州市川辺町上山田４５０１",
      "status": "ok",
      "updated_at": "2026-03-27T04:58:34+00:00",
      "lat": 31.3445282,
      "lng": 130.3337583,
      "formatted_address": "4501 Kawanabechō Kamiyamada, Minamikyushu, Kagoshima 897-0131, Japan",
      "place_id": "ChIJJRAcZrnfPTURqGxVL79Wk0s"
    },
    "鹿児島県鹿児島県垂水市潮彩町２－１－４": {
      "normalized_address": "鹿児島県鹿児島県垂水市潮彩町２－１－４",
      "raw_prefecture": "鹿児島県",
      "raw_address": "鹿児島県垂水市潮彩町２－１－４",
      "status": "ok",
      "updated_at": "2026-03-27T04:58:34+00:00",
      "lat": 31.4815304,
      "lng": 130.6942276,
      "formatted_address": "2-chōme-1-4 Shiosaichō, Tarumizu, Kagoshima 891-2117, Japan",
      "place_id": "ChIJKdWPlL-LPjURm8-aRqezxOE"
    },
    "鹿児島県鹿児島県大島郡伊仙町伊仙１００５－２": {
      "normalized_address": "鹿児島県鹿児島県大島郡伊仙町伊仙１００５－２",
      "raw_prefecture": "鹿児島県",
      "raw_address": "鹿児島県大島郡伊仙町伊仙１００５－２",
      "status": "ok",
      "updated_at": "2026-03-27T04:58:34+00:00",
      "lat": 27.6729915,
      "lng": 128.9425535,
      "formatted_address": "1005-2 Isen, Oshima District, Kagoshima 891-8201, Japan",
      "place_id": "ChIJq35s5XaX4TQRAkIsq4gi5xU"
    },
    "鹿児島県鹿児島県大島郡喜界町湾６２５－１": {
      "normalized_address": "鹿児島県鹿児島県大島郡喜界町湾６２５－１",
      "raw_prefecture": "鹿児島県",
      "raw_address": "鹿児島県大島郡喜界町湾６２５－１",
      "status": "ok",
      "updated_at": "2026-03-27T04:58:35+00:00",
      "lat": 28.3085506,
      "lng": 129.936048,
      "formatted_address": "625-1 Wan, Kikai, Oshima District, Kagoshima 891-6202, Japan",
      "place_id": "ChIJezx1vP6GHzURLRaQWIiXoLI"
    },
    "鹿児島県鹿児島県大島郡喜界町赤連２７１３": {
      "normalized_address": "鹿児島県鹿児島県大島郡喜界町赤連２７１３",
      "raw_prefecture": "鹿児島県",
      "raw_address": "鹿児島県大島郡喜界町赤連２７１３",
      "status": "ok",
      "updated_at": "2026-03-27T04:58:35+00:00",
      "lat": 28.3224294,
      "lng": 129.9388202,
      "formatted_address": "2713 Akaren, Kikai, Oshima District, Kagoshima 891-6201, Japan",
      "place_id": "ChIJB7FFbeCGHzURsCsam6dR4-M"
    },
    "鹿児島県鹿児島県大島郡徳之島町亀津５０２８－１": {
      "normalized_address": "鹿児島県鹿児島県大島郡徳之島町亀津５０２８－１",
      "raw_prefecture": "鹿児島県",
      "raw_address": "鹿児島県大島郡徳之島町亀津５０２８－１",
      "status": "ok",
      "updated_at": "2026-03-27T04:58:35+00:00",
      "lat": 27.7216116,
      "lng": 129.0196936,
      "formatted_address": "5028-1 Kametsu, Tokunoshima, Oshima District, Kagoshima 891-7101, Japan",
      "place_id": "ChIJowZFkHq-4TQRvKU8a8kzgdQ"
    },
    "鹿児島県鹿児島県奄美市名瀬大字大熊字鳩浜１３２０－１": {
      "normalized_address": "鹿児島県鹿児島県奄美市名瀬大字大熊字鳩浜１３２０－１",
      "raw_prefecture": "鹿児島県",
      "raw_address": "鹿児島県奄美市名瀬大字大熊字鳩浜１３２０－１",
      "status": "ok",
      "updated_at": "2026-03-27T04:58:35+00:00",
      "lat": 28.3996705,
      "lng": 129.5194222,
      "formatted_address": "Nazehatobamacho, Amami, Kagoshima 894-0004, Japan",
      "place_id": "ChIJOfZVZNq6HzUR0CbP47XmJQ8"
    },
    "鹿児島県鹿児島県奄美市名瀬小浜町３０－７": {
      "normalized_address": "鹿児島県鹿児島県奄美市名瀬小浜町３０－７",
      "raw_prefecture": "鹿児島県",
      "raw_address": "鹿児島県奄美市名瀬小浜町３０－７",
      "status": "ok",
      "updated_at": "2026-03-27T04:58:36+00:00",
      "lat": 28.3837461,
      "lng": 129.5015765,
      "formatted_address": "30-7 Nazekohamachō, Amami, Kagoshima 894-0006, Japan",
      "place_id": "ChIJCYfLhI66HzUROV9idevPmj8"
    },
    "鹿児島県鹿児島県姶良市加治木町木田１５９－２": {
      "normalized_address": "鹿児島県鹿児島県姶良市加治木町木田１５９－２",
      "raw_prefecture": "鹿児島県",
      "raw_address": "鹿児島県姶良市加治木町木田１５９－２",
      "status": "ok",
      "updated_at": "2026-03-27T04:58:36+00:00",
      "lat": 31.7359819,
      "lng": 130.656959,
      "formatted_address": "Japan, 〒899-5241 Kagoshima, Aira, Kajikichō Kida, １５９−２ ソレイユタウン加治木",
      "place_id": "ChIJN8hJt134PjURN42yhSr3HyQ"
    },
    "鹿児島県鹿児島県姶良市加治木町本町３５６－５": {
      "normalized_address": "鹿児島県鹿児島県姶良市加治木町本町３５６－５",
      "raw_prefecture": "鹿児島県",
      "raw_address": "鹿児島県姶良市加治木町本町３５６－５",
      "status": "ok",
      "updated_at": "2026-03-27T04:58:36+00:00",
      "lat": 31.73862519999999,
      "lng": 130.6662319,
      "formatted_address": "356-5 Kajikichō Motomachi, Aira, Kagoshima 899-5215, Japan",
      "place_id": "ChIJq1V4Cvj4PjURUgMgVfsRNqY"
    },
    "鹿児島県鹿児島県姶良市東餅田３６５": {
      "normalized_address": "鹿児島県鹿児島県姶良市東餅田３６５",
      "raw_prefecture": "鹿児島県",
      "raw_address": "鹿児島県姶良市東餅田３６５",
      "status": "ok",
      "updated_at": "2026-03-27T04:58:36+00:00",
      "lat": 31.7335009,
      "lng": 130.6299902,
      "formatted_address": "365 Higashimochida, Aira, Kagoshima 899-5421, Japan",
      "place_id": "ChIJkf79qeBXPjURvVZmnmun7rQ"
    },
    "鹿児島県鹿児島県姶良市蒲生町上久徳２５３７－２": {
      "normalized_address": "鹿児島県鹿児島県姶良市蒲生町上久徳２５３７－２",
      "raw_prefecture": "鹿児島県",
      "raw_address": "鹿児島県姶良市蒲生町上久徳２５３７－２",
      "status": "ok",
      "updated_at": "2026-03-27T04:58:37+00:00",
      "lat": 31.7618379,
      "lng": 130.5706812,
      "formatted_address": "2537-2 Kamouchō Kamigyūtoku, Aira, Kagoshima 899-5302, Japan",
      "place_id": "ChIJJefmMDxXPjUR0SuYWDqmL44"
    },
    "鹿児島県鹿児島県姶良郡湧水町木場３０１リバーサイドモール内": {
      "normalized_address": "鹿児島県鹿児島県姶良郡湧水町木場３０１リバーサイドモール内",
      "raw_prefecture": "鹿児島県",
      "raw_address": "鹿児島県姶良郡湧水町木場３０１リバーサイドモール内",
      "status": "ok",
      "updated_at": "2026-03-27T04:58:37+00:00",
      "lat": 31.9509844,
      "lng": 130.7202433,
      "formatted_address": "301 Koba, Yusui, Aira District, Kagoshima 899-6201, Japan",
      "place_id": "ChIJhcJiutYFPzURzkJTeQ8GDag"
    },
    "鹿児島県鹿児島県志布志市志布志町安楽１７８－４": {
      "normalized_address": "鹿児島県鹿児島県志布志市志布志町安楽１７８－４",
      "raw_prefecture": "鹿児島県",
      "raw_address": "鹿児島県志布志市志布志町安楽１７８－４",
      "status": "ok",
      "updated_at": "2026-03-27T04:58:37+00:00",
      "lat": 31.4680949,
      "lng": 131.0857587,
      "formatted_address": "178-4 Shibushichō Anraku, Shibushi, Kagoshima 899-7104, Japan",
      "place_id": "ChIJz-4PRtHFPjURVQ8PIQ5UW7c"
    },
    "鹿児島県鹿児島県志布志市志布志町志布志３２３－８": {
      "normalized_address": "鹿児島県鹿児島県志布志市志布志町志布志３２３－８",
      "raw_prefecture": "鹿児島県",
      "raw_address": "鹿児島県志布志市志布志町志布志３２３－８",
      "status": "ok",
      "updated_at": "2026-03-27T04:58:37+00:00",
      "lat": 31.4848645,
      "lng": 131.0942178,
      "formatted_address": "323-8 Shibushichō Shibushi, Shibushi, Kagoshima 899-7103, Japan",
      "place_id": "ChIJf-oQkLvFPjUR5q9ZYAgKTjQ"
    },
    "鹿児島県鹿児島県志布志市志布志町志布志５３６－５": {
      "normalized_address": "鹿児島県鹿児島県志布志市志布志町志布志５３６－５",
      "raw_prefecture": "鹿児島県",
      "raw_address": "鹿児島県志布志市志布志町志布志５３６－５",
      "status": "ok",
      "updated_at": "2026-03-27T04:58:37+00:00",
      "lat": 31.4869418,
      "lng": 131.0933094,
      "formatted_address": "536-5 Shibushichō Shibushi, Shibushi, Kagoshima 899-7103, Japan",
      "place_id": "ChIJeYzpFbvFPjURgLNVdc200xo"
    },
    "鹿児島県鹿児島県志布志市有明町野井倉４８６２－１": {
      "normalized_address": "鹿児島県鹿児島県志布志市有明町野井倉４８６２－１",
      "raw_prefecture": "鹿児島県",
      "raw_address": "鹿児島県志布志市有明町野井倉４８６２－１",
      "status": "ok",
      "updated_at": "2026-03-27T04:58:38+00:00",
      "lat": 31.478683,
      "lng": 131.0535762,
      "formatted_address": "4862-1 Ariakechō Noikura, Shibushi, Kagoshima 899-7402, Japan",
      "place_id": "ChIJN4dsPhzEPjUREaakvt5MNgI"
    },
    "鹿児島県鹿児島県指宿市十二町４６９２－１": {
      "normalized_address": "鹿児島県鹿児島県指宿市十二町４６９２－１",
      "raw_prefecture": "鹿児島県",
      "raw_address": "鹿児島県指宿市十二町４６９２－１",
      "status": "ok",
      "updated_at": "2026-03-27T04:58:38+00:00",
      "lat": 31.2178995,
      "lng": 130.6290377,
      "formatted_address": "4692-1 Jūnichō, Ibusuki, Kagoshima 891-0403, Japan",
      "place_id": "ChIJe2qWZNbUPTURr9nK37eDjIo"
    },
    "鹿児島県鹿児島県指宿市十町２４２４": {
      "normalized_address": "鹿児島県鹿児島県指宿市十町２４２４",
      "raw_prefecture": "鹿児島県",
      "raw_address": "鹿児島県指宿市十町２４２４",
      "status": "ok",
      "updated_at": "2026-03-27T04:58:38+00:00",
      "lat": 31.2529279,
      "lng": 130.6319844,
      "formatted_address": "2424 Jitchō, Ibusuki, Kagoshima 891-0402, Japan",
      "place_id": "ChIJY2IyYlTVPTURGPVtxwF9uEo"
    },
    "鹿児島県鹿児島県指宿市山川新生町３６－１": {
      "normalized_address": "鹿児島県鹿児島県指宿市山川新生町３６－１",
      "raw_prefecture": "鹿児島県",
      "raw_address": "鹿児島県指宿市山川新生町３６－１",
      "status": "ok",
      "updated_at": "2026-03-27T04:58:38+00:00",
      "lat": 31.2039435,
      "lng": 130.6387666,
      "formatted_address": "36-1 Yamagawashinseichō, Ibusuki, Kagoshima 891-0504, Japan",
      "place_id": "ChIJkbc0yjMrPDURru0pdfk7Tdg"
    },
    "鹿児島県鹿児島県指宿市山川浜児ケ水３１９－３": {
      "normalized_address": "鹿児島県鹿児島県指宿市山川浜児ケ水３１９－３",
      "raw_prefecture": "鹿児島県",
      "raw_address": "鹿児島県指宿市山川浜児ケ水３１９－３",
      "status": "ok",
      "updated_at": "2026-03-27T04:58:39+00:00",
      "lat": 31.1830304,
      "lng": 130.5957506,
      "formatted_address": "319-3 Yamagawahamachogamizu, Ibusuki, Kagoshima 891-0512, Japan",
      "place_id": "ChIJ98dpunfTPTURyHPs-KB3TpY"
    },
    "鹿児島県鹿児島県指宿市東方８２６８－１": {
      "normalized_address": "鹿児島県鹿児島県指宿市東方８２６８－１",
      "raw_prefecture": "鹿児島県",
      "raw_address": "鹿児島県指宿市東方８２６８－１",
      "status": "ok",
      "updated_at": "2026-03-27T04:58:39+00:00",
      "lat": 31.2571497,
      "lng": 130.6391015,
      "formatted_address": "8268-1 Higashikata, Ibusuki, Kagoshima 891-0404, Japan",
      "place_id": "ChIJKVj2agGAPjUR5zNB6mhGjYc"
    },
    "鹿児島県鹿児島県指宿市東方８２９３": {
      "normalized_address": "鹿児島県鹿児島県指宿市東方８２９３",
      "raw_prefecture": "鹿児島県",
      "raw_address": "鹿児島県指宿市東方８２９３",
      "status": "ok",
      "updated_at": "2026-03-27T04:58:39+00:00",
      "lat": 31.2569239,
      "lng": 130.6374537,
      "formatted_address": "8293 Higashikata, Ibusuki, Kagoshima 891-0404, Japan",
      "place_id": "ChIJCV-iqwGAPjURxDZJeq0owBI"
    },
    "鹿児島県鹿児島県指宿市開聞十町２８６７": {
      "normalized_address": "鹿児島県鹿児島県指宿市開聞十町２８６７",
      "raw_prefecture": "鹿児島県",
      "raw_address": "鹿児島県指宿市開聞十町２８６７",
      "status": "ok",
      "updated_at": "2026-03-27T04:58:39+00:00",
      "lat": 31.20380819999999,
      "lng": 130.5372256,
      "formatted_address": "2867 Kaimonjutchō, Ibusuki, Kagoshima 891-0603, Japan",
      "place_id": "ChIJ2U54kUbRPTURAk3vlP9y1qM"
    },
    "鹿児島県鹿児島県日置市伊集院町清藤２００１－１": {
      "normalized_address": "鹿児島県鹿児島県日置市伊集院町清藤２００１－１",
      "raw_prefecture": "鹿児島県",
      "raw_address": "鹿児島県日置市伊集院町清藤２００１－１",
      "status": "ok",
      "updated_at": "2026-03-27T04:58:40+00:00",
      "lat": 31.6246623,
      "lng": 130.4114816,
      "formatted_address": "2001-1 Ijūinchō Kiyofuji, Hioki, Kagoshima 899-2506, Japan",
      "place_id": "ChIJZxG_079pPjURrgPz1XCoKRY"
    },
    "鹿児島県鹿児島県日置市伊集院町郡１１９１－１": {
      "normalized_address": "鹿児島県鹿児島県日置市伊集院町郡１１９１－１",
      "raw_prefecture": "鹿児島県",
      "raw_address": "鹿児島県日置市伊集院町郡１１９１－１",
      "status": "ok",
      "updated_at": "2026-03-27T04:58:40+00:00",
      "lat": 31.6376596,
      "lng": 130.4033353,
      "formatted_address": "1191-1 Ijūin Chōkōri, Hioki, Kagoshima 899-2504, Japan",
      "place_id": "ChIJ6QaaCe9pPjURsPx3iG8ZGOg"
    },
    "鹿児島県鹿児島県日置市吹上町中原２６６４－２": {
      "normalized_address": "鹿児島県鹿児島県日置市吹上町中原２６６４－２",
      "raw_prefecture": "鹿児島県",
      "raw_address": "鹿児島県日置市吹上町中原２６６４－２",
      "status": "ok",
      "updated_at": "2026-03-27T04:58:40+00:00",
      "lat": 31.5084916,
      "lng": 130.3461451,
      "formatted_address": "2664-2 Fukiagechō Nakahara, Hioki, Kagoshima 899-3301, Japan",
      "place_id": "ChIJgXs1J4ZyPjURZDjiokZVsJg"
    },
    "鹿児島県鹿児島県日置市東市来町湯田３３６０－８": {
      "normalized_address": "鹿児島県鹿児島県日置市東市来町湯田３３６０－８",
      "raw_prefecture": "鹿児島県",
      "raw_address": "鹿児島県日置市東市来町湯田３３６０－８",
      "status": "ok",
      "updated_at": "2026-03-27T04:58:40+00:00",
      "lat": 31.6724313,
      "lng": 130.3357352,
      "formatted_address": "3360-8 Higashiichikichō Yuda, Hioki, Kagoshima 899-2201, Japan",
      "place_id": "ChIJG2YJyp1qPjURbuwc9Rmkfbw"
    },
    "鹿児島県鹿児島県曽於市大隅町月野３０５４－５": {
      "normalized_address": "鹿児島県鹿児島県曽於市大隅町月野３０５４－５",
      "raw_prefecture": "鹿児島県",
      "raw_address": "鹿児島県曽於市大隅町月野３０５４－５",
      "status": "ok",
      "updated_at": "2026-03-27T04:58:41+00:00",
      "lat": 31.5741583,
      "lng": 131.0103894,
      "formatted_address": "3054-5 Ōsumichō Tsukino, Soo, Kagoshima 899-8212, Japan",
      "place_id": "ChIJAfV-OM7cPjURiaBdIZSt0fQ"
    },
    "鹿児島県鹿児島県曽於市末吉町岩崎５５０６－３": {
      "normalized_address": "鹿児島県鹿児島県曽於市末吉町岩崎５５０６－３",
      "raw_prefecture": "鹿児島県",
      "raw_address": "鹿児島県曽於市末吉町岩崎５５０６－３",
      "status": "ok",
      "updated_at": "2026-03-27T04:58:41+00:00",
      "lat": 31.634571,
      "lng": 131.0021338,
      "formatted_address": "5506-3 Sueyoshichō Iwasaki, Soo, Kagoshima 899-8601, Japan",
      "place_id": "ChIJIYAMrjPcPjUR2m1kL4vofSw"
    },
    "鹿児島県鹿児島県曽於郡大崎町永吉５８２６－２": {
      "normalized_address": "鹿児島県鹿児島県曽於郡大崎町永吉５８２６－２",
      "raw_prefecture": "鹿児島県",
      "raw_address": "鹿児島県曽於郡大崎町永吉５８２６－２",
      "status": "ok",
      "updated_at": "2026-03-27T04:58:41+00:00",
      "lat": 31.4127888,
      "lng": 130.9907463,
      "formatted_address": "5826-2 Nagayoshi, Osaki, Soo District, Kagoshima 899-7306, Japan",
      "place_id": "ChIJlesP6Zq_PjURTLheC601vbM"
    },
    "鹿児島県鹿児島県枕崎市中央町２４５": {
      "normalized_address": "鹿児島県鹿児島県枕崎市中央町２４５",
      "raw_prefecture": "鹿児島県",
      "raw_address": "鹿児島県枕崎市中央町２４５",
      "status": "ok",
      "updated_at": "2026-03-27T04:58:41+00:00",
      "lat": 31.27200299999999,
      "lng": 130.2830465,
      "formatted_address": "245 Chūōchō, Makurazaki, Kagoshima 898-0051, Japan",
      "place_id": "ChIJ8fTvK6fnPTURCahcUm_hgkI"
    },
    "鹿児島県鹿児島県枕崎市別府西町３２２": {
      "normalized_address": "鹿児島県鹿児島県枕崎市別府西町３２２",
      "raw_prefecture": "鹿児島県",
      "raw_address": "鹿児島県枕崎市別府西町３２２",
      "status": "ok",
      "updated_at": "2026-03-27T04:58:42+00:00",
      "lat": 31.2751272,
      "lng": 130.3452236,
      "formatted_address": "322 Beppu Nishimachi, Makurazaki, Kagoshima 898-0086, Japan",
      "place_id": "ChIJLxhiD8zdPTURJgmHqlGJzbY"
    },
    "鹿児島県鹿児島県枕崎市桜木町４３３": {
      "normalized_address": "鹿児島県鹿児島県枕崎市桜木町４３３",
      "raw_prefecture": "鹿児島県",
      "raw_address": "鹿児島県枕崎市桜木町４３３",
      "status": "ok",
      "updated_at": "2026-03-27T04:58:42+00:00",
      "lat": 31.2727589,
      "lng": 130.2886644,
      "formatted_address": "433 Sakuragichō, Makurazaki, Kagoshima 898-0018, Japan",
      "place_id": "ChIJWXiITXXnPTURDloSiHJ3wKM"
    },
    "鹿児島県鹿児島県熊毛郡中種子町野間５１０９－２６": {
      "normalized_address": "鹿児島県鹿児島県熊毛郡中種子町野間５１０９－２６",
      "raw_prefecture": "鹿児島県",
      "raw_address": "鹿児島県熊毛郡中種子町野間５１０９－２６",
      "status": "ok",
      "updated_at": "2026-03-27T04:58:42+00:00",
      "lat": 30.5382236,
      "lng": 130.9627848,
      "formatted_address": "5109-26 Noma, Nakatane, Kumage District, Kagoshima 891-3604, Japan",
      "place_id": "ChIJrbiAQQtgPDUR74drj5g0x24"
    },
    "鹿児島県鹿児島県熊毛郡屋久島町宮之浦１１９７－１": {
      "normalized_address": "鹿児島県鹿児島県熊毛郡屋久島町宮之浦１１９７－１",
      "raw_prefecture": "鹿児島県",
      "raw_address": "鹿児島県熊毛郡屋久島町宮之浦１１９７－１",
      "status": "ok",
      "updated_at": "2026-03-27T04:58:42+00:00",
      "lat": 30.4311416,
      "lng": 130.5677876,
      "formatted_address": "1197-1 Miyanoura, Yakushima, Kumage District, Kagoshima 891-4205, Japan",
      "place_id": "ChIJGbfLlqQePTURUcvErwyWAts"
    },
    "鹿児島県鹿児島県熊毛郡屋久島町宮之浦２４５０－６": {
      "normalized_address": "鹿児島県鹿児島県熊毛郡屋久島町宮之浦２４５０－６",
      "raw_prefecture": "鹿児島県",
      "raw_address": "鹿児島県熊毛郡屋久島町宮之浦２４５０－６",
      "status": "ok",
      "updated_at": "2026-03-27T04:58:43+00:00",
      "lat": 30.4211088,
      "lng": 130.5817916,
      "formatted_address": "2450-6 Miyanoura, Yakushima, Kumage District, Kagoshima 891-4205, Japan",
      "place_id": "ChIJaWyHo5EePTUR1fkwUh_dr9w"
    },
    "鹿児島県鹿児島県薩摩川内市中郷２丁目７－４５": {
      "normalized_address": "鹿児島県鹿児島県薩摩川内市中郷２丁目７－４５",
      "raw_prefecture": "鹿児島県",
      "raw_address": "鹿児島県薩摩川内市中郷２丁目７－４５",
      "status": "ok",
      "updated_at": "2026-03-27T04:58:43+00:00",
      "lat": 31.8358226,
      "lng": 130.3118919,
      "formatted_address": "2-chōme-7-45 Chūgō, Satsumasendai, Kagoshima 895-0072, Japan",
      "place_id": "ChIJOYwdKf5HPjURO_wxnRREu6A"
    },
    "鹿児島県鹿児島県薩摩川内市勝目町４０８６－１": {
      "normalized_address": "鹿児島県鹿児島県薩摩川内市勝目町４０８６－１",
      "raw_prefecture": "鹿児島県",
      "raw_address": "鹿児島県薩摩川内市勝目町４０８６－１",
      "status": "ok",
      "updated_at": "2026-03-27T04:58:43+00:00",
      "lat": 31.7905501,
      "lng": 130.3146415,
      "formatted_address": "4086-1 Kachimechō, Satsumasendai, Kagoshima 895-0031, Japan",
      "place_id": "ChIJuU2HkXtHPjURKqk2SLgcu34"
    },
    "鹿児島県鹿児島県薩摩川内市山之口町４５１５－１": {
      "normalized_address": "鹿児島県鹿児島県薩摩川内市山之口町４５１５－１",
      "raw_prefecture": "鹿児島県",
      "raw_address": "鹿児島県薩摩川内市山之口町４５１５－１",
      "status": "ok",
      "updated_at": "2026-03-27T04:58:43+00:00",
      "lat": 31.7832978,
      "lng": 130.3131699,
      "formatted_address": "4515-1 Yamanokuchichō, Satsumasendai, Kagoshima 895-0032, Japan",
      "place_id": "ChIJHZ6z42NHPjURURjLQmsDvS4"
    },
    "鹿児島県鹿児島県薩摩川内市永利町７７７": {
      "normalized_address": "鹿児島県鹿児島県薩摩川内市永利町７７７",
      "raw_prefecture": "鹿児島県",
      "raw_address": "鹿児島県薩摩川内市永利町７７７",
      "status": "ok",
      "updated_at": "2026-03-27T04:58:44+00:00",
      "lat": 31.8095211,
      "lng": 130.3368939,
      "formatted_address": "777 Nagatoshichō, Satsumasendai, Kagoshima 895-0005, Japan",
      "place_id": "ChIJOTtOB8dHPjURe-cK9RTkgW0"
    },
    "鹿児島県鹿児島県薩摩郡さつま町宮之城屋地１５６５－２": {
      "normalized_address": "鹿児島県鹿児島県薩摩郡さつま町宮之城屋地１５６５－２",
      "raw_prefecture": "鹿児島県",
      "raw_address": "鹿児島県薩摩郡さつま町宮之城屋地１５６５－２",
      "status": "ok",
      "updated_at": "2026-03-27T04:58:44+00:00",
      "lat": 31.9057849,
      "lng": 130.4556941,
      "formatted_address": "1565-2 Miyanojōyachi, Satsuma, Satsuma District, Kagoshima 895-1803, Japan",
      "place_id": "ChIJNWoIv21NPjURCWsw1mQ99Ok"
    },
    "鹿児島県鹿児島県薩摩郡さつま町求名１２８３７": {
      "normalized_address": "鹿児島県鹿児島県薩摩郡さつま町求名１２８３７",
      "raw_prefecture": "鹿児島県",
      "raw_address": "鹿児島県薩摩郡さつま町求名１２８３７",
      "status": "ok",
      "updated_at": "2026-03-27T04:58:44+00:00",
      "lat": 31.9239258,
      "lng": 130.541061,
      "formatted_address": "12837 Gumyō, Satsuma, Satsuma District, Kagoshima 895-2201, Japan",
      "place_id": "ChIJ0-jeLpesPzUR8hVqrgOYk8c"
    },
    "鹿児島県鹿児島県薩摩郡さつま町求名３６８３－２": {
      "normalized_address": "鹿児島県鹿児島県薩摩郡さつま町求名３６８３－２",
      "raw_prefecture": "鹿児島県",
      "raw_address": "鹿児島県薩摩郡さつま町求名３６８３－２",
      "status": "ok",
      "updated_at": "2026-03-27T04:58:44+00:00",
      "lat": 31.9399953,
      "lng": 130.5333885,
      "formatted_address": "3683-2 Gumyō, Satsuma, Satsuma District, Kagoshima 895-2201, Japan",
      "place_id": "ChIJrW8nzIqsPzURXEbHvNQyoOQ"
    },
    "鹿児島県鹿児島県薩摩郡さつま町湯田２７３４－８": {
      "normalized_address": "鹿児島県鹿児島県薩摩郡さつま町湯田２７３４－８",
      "raw_prefecture": "鹿児島県",
      "raw_address": "鹿児島県薩摩郡さつま町湯田２７３４－８",
      "status": "ok",
      "updated_at": "2026-03-27T04:58:44+00:00",
      "lat": 31.9287154,
      "lng": 130.482254,
      "formatted_address": "2734-8 Yuda, Satsuma, Satsuma District, Kagoshima 895-1817, Japan",
      "place_id": "ChIJUWH74lGtPzURgtbs5tQGvJI"
    },
    "鹿児島県鹿児島県薩摩郡さつま町神子６６３－１": {
      "normalized_address": "鹿児島県鹿児島県薩摩郡さつま町神子６６３－１",
      "raw_prefecture": "鹿児島県",
      "raw_address": "鹿児島県薩摩郡さつま町神子６６３－１",
      "status": "ok",
      "updated_at": "2026-03-27T04:58:45+00:00",
      "lat": 31.9498031,
      "lng": 130.4815433,
      "formatted_address": "663-1 Kōshi, Satsuma, Satsuma District, Kagoshima 895-2102, Japan",
      "place_id": "ChIJ3aTWeWWtPzURDAVfXEiYk88"
    },
    "鹿児島県鹿児島県薩摩郡さつま町虎居７３０－１": {
      "normalized_address": "鹿児島県鹿児島県薩摩郡さつま町虎居７３０－１",
      "raw_prefecture": "鹿児島県",
      "raw_address": "鹿児島県薩摩郡さつま町虎居７３０－１",
      "status": "ok",
      "updated_at": "2026-03-27T04:58:45+00:00",
      "lat": 31.9128093,
      "lng": 130.4548954,
      "formatted_address": "730-1 Torai, Satsuma, Satsuma District, Kagoshima 895-1811, Japan",
      "place_id": "ChIJizXET2pNPjUR_J0Pa2GD7ow"
    },
    "鹿児島県鹿児島県西之表市東町１３８": {
      "normalized_address": "鹿児島県鹿児島県西之表市東町１３８",
      "raw_prefecture": "鹿児島県",
      "raw_address": "鹿児島県西之表市東町１３８",
      "status": "ok",
      "updated_at": "2026-03-27T04:58:45+00:00",
      "lat": 30.7297189,
      "lng": 130.9953388,
      "formatted_address": "138 Higashimachi, Nishinoomote, Kagoshima 891-3113, Japan",
      "place_id": "ChIJ59V3oINpPDURmY95SjgFrcE"
    },
    "鹿児島県鹿児島県西之表市西之表字大園１４４０４－１２": {
      "normalized_address": "鹿児島県鹿児島県西之表市西之表字大園１４４０４－１２",
      "raw_prefecture": "鹿児島県",
      "raw_address": "鹿児島県西之表市西之表字大園１４４０４－１２",
      "status": "ok",
      "updated_at": "2026-03-27T04:58:45+00:00",
      "lat": 30.7312051,
      "lng": 130.9979943,
      "formatted_address": "Nishinoomote, Kagoshima 891-3101, Japan",
      "place_id": "ChIJh50RUnxpPDUR_djGElBnykQ"
    },
    "鹿児島県鹿児島県西之表市西之表字田代１０４４０－１": {
      "normalized_address": "鹿児島県鹿児島県西之表市西之表字田代１０４４０－１",
      "raw_prefecture": "鹿児島県",
      "raw_address": "鹿児島県西之表市西之表字田代１０４４０－１",
      "status": "ok",
      "updated_at": "2026-03-27T04:58:46+00:00",
      "lat": 30.7312051,
      "lng": 130.9979943,
      "formatted_address": "Nishinoomote, Kagoshima 891-3101, Japan",
      "place_id": "ChIJh50RUnxpPDUR_djGElBnykQ"
    },
    "鹿児島県鹿児島県阿久根市塩鶴町１－７２": {
      "normalized_address": "鹿児島県鹿児島県阿久根市塩鶴町１－７２",
      "raw_prefecture": "鹿児島県",
      "raw_address": "鹿児島県阿久根市塩鶴町１－７２",
      "status": "ok",
      "updated_at": "2026-03-27T04:58:46+00:00",
      "lat": 32.0092727,
      "lng": 130.195804,
      "formatted_address": "1 Chome Shiotsurucho, Akune, Kagoshima 899-1628, Japan",
      "place_id": "ChIJJUt37xkzPjURI0KBd6qEPpk"
    },
    "鹿児島県鹿児島県阿久根市大川８２１９": {
      "normalized_address": "鹿児島県鹿児島県阿久根市大川８２１９",
      "raw_prefecture": "鹿児島県",
      "raw_address": "鹿児島県阿久根市大川８２１９",
      "status": "ok",
      "updated_at": "2026-03-27T04:58:46+00:00",
      "lat": 31.9513833,
      "lng": 130.2209151,
      "formatted_address": "8219 Ōkawa, Akune, Kagoshima 899-1741, Japan",
      "place_id": "ChIJxe6SCfwzPjUR0sIn9yX0qcg"
    },
    "鹿児島県鹿児島県阿久根市脇本７３６３": {
      "normalized_address": "鹿児島県鹿児島県阿久根市脇本７３６３",
      "raw_prefecture": "鹿児島県",
      "raw_address": "鹿児島県阿久根市脇本７３６３",
      "status": "ok",
      "updated_at": "2026-03-27T04:58:46+00:00",
      "lat": 32.0771507,
      "lng": 130.2016334,
      "formatted_address": "7363 Wakimoto, Akune, Kagoshima 899-1131, Japan",
      "place_id": "ChIJnSOWp1zMPzURmHrBZKrwu80"
    },
    "鹿児島県鹿児島県阿久根市赤瀬川１２３１－１": {
      "normalized_address": "鹿児島県鹿児島県阿久根市赤瀬川１２３１－１",
      "raw_prefecture": "鹿児島県",
      "raw_address": "鹿児島県阿久根市赤瀬川１２３１－１",
      "status": "ok",
      "updated_at": "2026-03-27T04:58:47+00:00",
      "lat": 32.0294509,
      "lng": 130.1976022,
      "formatted_address": "1231-1 Akasegawa, Akune, Kagoshima 899-1611, Japan",
      "place_id": "ChIJ2W3TYzIzPjURS6Kd0-lB8KE"
    },
    "鹿児島県鹿児島県阿久根市鶴見町２００": {
      "normalized_address": "鹿児島県鹿児島県阿久根市鶴見町２００",
      "raw_prefecture": "鹿児島県",
      "raw_address": "鹿児島県阿久根市鶴見町２００",
      "status": "ok",
      "updated_at": "2026-03-27T04:58:47+00:00",
      "lat": 32.014237,
      "lng": 130.1923678,
      "formatted_address": "Japan, 〒899-1626 Kagoshima, Akune, Tsurumichō, ２００ ２００番地",
      "place_id": "ChIJe9xtoxgzPjURpCuGN14h4Ak"
    },
    "鹿児島県鹿児島県霧島市国分中央３－４５－１": {
      "normalized_address": "鹿児島県鹿児島県霧島市国分中央３－４５－１",
      "raw_prefecture": "鹿児島県",
      "raw_address": "鹿児島県霧島市国分中央３－４５－１",
      "status": "ok",
      "updated_at": "2026-03-27T04:58:47+00:00",
      "lat": 31.7407977,
      "lng": 130.7632596,
      "formatted_address": "3-chōme-45-1 Kokubuchūō, Kirishima, Kagoshima 899-4332, Japan",
      "place_id": "ChIJbSL1RIL8PjURdcF6BDVBGxc"
    },
    "鹿児島県鹿児島県霧島市国分中央３－７－１７きりしま国分山形屋店２階": {
      "normalized_address": "鹿児島県鹿児島県霧島市国分中央３－７－１７きりしま国分山形屋店２階",
      "raw_prefecture": "鹿児島県",
      "raw_address": "鹿児島県霧島市国分中央３－７－１７きりしま国分山形屋店２階",
      "status": "ok",
      "updated_at": "2026-03-27T04:58:47+00:00",
      "lat": 31.7397769,
      "lng": 130.7660567,
      "formatted_address": "Japan, 〒899-4332 Kagoshima, Kirishima, Kokubuchūō, 3-chōme−7−番 17号",
      "place_id": "ChIJSxD_zoL8PjUR120O5UAr10Q"
    },
    "鹿児島県鹿児島県霧島市国分中央５－２０－６２": {
      "normalized_address": "鹿児島県鹿児島県霧島市国分中央５－２０－６２",
      "raw_prefecture": "鹿児島県",
      "raw_address": "鹿児島県霧島市国分中央５－２０－６２",
      "status": "ok",
      "updated_at": "2026-03-27T04:58:48+00:00",
      "lat": 31.7352326,
      "lng": 130.7601237,
      "formatted_address": "5-chōme-20-62 Kokubuchūō, Kirishima, Kagoshima 899-4332, Japan",
      "place_id": "ChIJvUHTOXn7PjURCN35PAN2Zew"
    },
    "鹿児島県鹿児島県霧島市国分敷根２２５６－１": {
      "normalized_address": "鹿児島県鹿児島県霧島市国分敷根２２５６－１",
      "raw_prefecture": "鹿児島県",
      "raw_address": "鹿児島県霧島市国分敷根２２５６－１",
      "status": "ok",
      "updated_at": "2026-03-27T04:58:48+00:00",
      "lat": 31.6904802,
      "lng": 130.8144205,
      "formatted_address": "2256-1 Kokubushikine, Kirishima, Kagoshima 899-4462, Japan",
      "place_id": "ChIJW3JxJN3kPjUR4JnWsGioyOU"
    },
    "鹿児島県鹿児島県霧島市国分野口西２－３０": {
      "normalized_address": "鹿児島県鹿児島県霧島市国分野口西２－３０",
      "raw_prefecture": "鹿児島県",
      "raw_address": "鹿児島県霧島市国分野口西２－３０",
      "status": "ok",
      "updated_at": "2026-03-27T04:58:48+00:00",
      "lat": 31.7401512,
      "lng": 130.7465931,
      "formatted_address": "Japan, 〒899-4343 Kagoshima, Kirishima, Kokubunoguchinishi, 2−３０ 2番30号",
      "place_id": "ChIJA1As94X7PjURFY8ptMKL8No"
    },
    "鹿児島県鹿児島県霧島市隼人町内山田１－３－３４": {
      "normalized_address": "鹿児島県鹿児島県霧島市隼人町内山田１－３－３４",
      "raw_prefecture": "鹿児島県",
      "raw_address": "鹿児島県霧島市隼人町内山田１－３－３４",
      "status": "ok",
      "updated_at": "2026-03-27T04:58:48+00:00",
      "lat": 31.7436651,
      "lng": 130.7393107,
      "formatted_address": "1-chōme-3-34 Hayatochō Uchiyamada, Kirishima, Kagoshima 899-5106, Japan",
      "place_id": "ChIJi4H8d4z7PjURTqs_PYt45sA"
    },
    "鹿児島県鹿児島県霧島市隼人町真孝４８９－１": {
      "normalized_address": "鹿児島県鹿児島県霧島市隼人町真孝４８９－１",
      "raw_prefecture": "鹿児島県",
      "raw_address": "鹿児島県霧島市隼人町真孝４８９－１",
      "status": "ok",
      "updated_at": "2026-03-27T04:58:49+00:00",
      "lat": 31.7224822,
      "lng": 130.7324422,
      "formatted_address": "489-1 Hayatochō Shinkō, Kirishima, Kagoshima 899-5102, Japan",
      "place_id": "ChIJE1Cuocj7PjURhPfKFEGYY68"
    },
    "鹿児島県鹿児島県鹿児島市上竜尾町５‐４８": {
      "normalized_address": "鹿児島県鹿児島県鹿児島市上竜尾町５‐４８",
      "raw_prefecture": "鹿児島県",
      "raw_address": "鹿児島県鹿児島市上竜尾町５‐４８",
      "status": "ok",
      "updated_at": "2026-03-27T04:58:49+00:00",
      "lat": 31.60646419999999,
      "lng": 130.5607001,
      "formatted_address": "5-48 Kamitatsuochō, Kagoshima, 892-0851, Japan",
      "place_id": "ChIJD2Wj5gxePjURMSLkuwdsyMA"
    },
    "鹿児島県鹿児島県鹿児島市中央町１－１えきマチ１丁目（ＪＲ鹿児島中央駅ビル）": {
      "normalized_address": "鹿児島県鹿児島県鹿児島市中央町１－１えきマチ１丁目（ＪＲ鹿児島中央駅ビル）",
      "raw_prefecture": "鹿児島県",
      "raw_address": "鹿児島県鹿児島市中央町１－１えきマチ１丁目（ＪＲ鹿児島中央駅ビル）",
      "status": "ok",
      "updated_at": "2026-03-27T04:58:49+00:00",
      "lat": 31.5836893,
      "lng": 130.5417154,
      "formatted_address": "Kagoshimachuo Station, 1-1 Chūōchō, Kagoshima, 890-0053, Japan",
      "place_id": "ChIJO50YsEVnPjURL92W1hWbbJ8"
    },
    "鹿児島県鹿児島県鹿児島市中央町１９－４０Ｌｉ－Ｋａ１９－２０４Ｆ": {
      "normalized_address": "鹿児島県鹿児島県鹿児島市中央町１９－４０Ｌｉ－Ｋａ１９－２０４Ｆ",
      "raw_prefecture": "鹿児島県",
      "raw_address": "鹿児島県鹿児島市中央町１９－４０Ｌｉ－Ｋａ１９－２０　４Ｆ",
      "status": "ok",
      "updated_at": "2026-03-27T04:58:49+00:00",
      "lat": 31.5829214,
      "lng": 130.5426358,
      "formatted_address": "19 Chūōchō, Kagoshima, 890-0053, Japan",
      "place_id": "ChIJPYvtjUVnPjURi8xoRofW6Ss"
    },
    "鹿児島県鹿児島県鹿児島市中山２－１－３": {
      "normalized_address": "鹿児島県鹿児島県鹿児島市中山２－１－３",
      "raw_prefecture": "鹿児島県",
      "raw_address": "鹿児島県鹿児島市中山２－１－３",
      "status": "ok",
      "updated_at": "2026-03-27T04:58:50+00:00",
      "lat": 31.5440552,
      "lng": 130.5131322,
      "formatted_address": "2-chōme-1-3 Chūzan, Kagoshima, 891-0108, Japan",
      "place_id": "ChIJLcce54lmPjURwD2uxmc5h-0"
    },
    "鹿児島県鹿児島県鹿児島市原良１－２－２": {
      "normalized_address": "鹿児島県鹿児島県鹿児島市原良１－２－２",
      "raw_prefecture": "鹿児島県",
      "raw_address": "鹿児島県鹿児島市原良１－２－２",
      "status": "ok",
      "updated_at": "2026-03-27T04:58:50+00:00",
      "lat": 31.5988425,
      "lng": 130.5387273,
      "formatted_address": "1-chōme-2-2 Harara, Kagoshima, 890-0026, Japan",
      "place_id": "ChIJBbXtcfZdPjURumi3mKeOzHo"
    },
    "鹿児島県鹿児島県鹿児島市吉野町２３８１－３０": {
      "normalized_address": "鹿児島県鹿児島県鹿児島市吉野町２３８１－３０",
      "raw_prefecture": "鹿児島県",
      "raw_address": "鹿児島県鹿児島市吉野町２３８１－３０",
      "status": "ok",
      "updated_at": "2026-03-27T04:58:50+00:00",
      "lat": 31.6431681,
      "lng": 130.570315,
      "formatted_address": "2381-30 Yoshinochō, Kagoshima, 892-0871, Japan",
      "place_id": "ChIJ1TbDO75ePjURu3yjgDekPlA"
    },
    "鹿児島県鹿児島県鹿児島市吉野町３２６４－１１": {
      "normalized_address": "鹿児島県鹿児島県鹿児島市吉野町３２６４－１１",
      "raw_prefecture": "鹿児島県",
      "raw_address": "鹿児島県鹿児島市吉野町３２６４－１１",
      "status": "ok",
      "updated_at": "2026-03-27T04:58:51+00:00",
      "lat": 31.6395394,
      "lng": 130.5732997,
      "formatted_address": "3264-11 Yoshinochō, Kagoshima, 892-0871, Japan",
      "place_id": "ChIJBT4LMZVePjURga6TP2_AQss"
    },
    "鹿児島県鹿児島県鹿児島市宇宿２－２－１８スクエアモール２Ｆ": {
      "normalized_address": "鹿児島県鹿児島県鹿児島市宇宿２－２－１８スクエアモール２Ｆ",
      "raw_prefecture": "鹿児島県",
      "raw_address": "鹿児島県鹿児島市宇宿２－２－１８スクエアモール２Ｆ",
      "status": "ok",
      "updated_at": "2026-03-27T04:58:51+00:00",
      "lat": 31.5440481,
      "lng": 130.542579,
      "formatted_address": "2-chōme-2-18 Usuki, Kagoshima, 890-0073, Japan",
      "place_id": "ChIJM9cX8cVmPjURA0QExZo-l7I"
    },
    "鹿児島県鹿児島県鹿児島市新栄町１３－８": {
      "normalized_address": "鹿児島県鹿児島県鹿児島市新栄町１３－８",
      "raw_prefecture": "鹿児島県",
      "raw_address": "鹿児島県鹿児島市新栄町１３－８",
      "status": "ok",
      "updated_at": "2026-03-27T04:58:51+00:00",
      "lat": 31.5497111,
      "lng": 130.5463616,
      "formatted_address": "13-8 Shineichō, Kagoshima, 890-0072, Japan",
      "place_id": "ChIJGeRRG9FmPjUR1tzABuz3tGI"
    },
    "鹿児島県鹿児島県鹿児島市星ヶ峯４－２－８": {
      "normalized_address": "鹿児島県鹿児島県鹿児島市星ヶ峯４－２－８",
      "raw_prefecture": "鹿児島県",
      "raw_address": "鹿児島県鹿児島市星ヶ峯４－２－８",
      "status": "ok",
      "updated_at": "2026-03-27T04:58:51+00:00",
      "lat": 31.5772263,
      "lng": 130.4932477,
      "formatted_address": "4-chōme-2-8 Hoshigamine, Kagoshima, 891-0102, Japan",
      "place_id": "ChIJlf-3RbVnPjURFWbwfNceRGs"
    },
    "鹿児島県鹿児島県鹿児島市東開町４－１２": {
      "normalized_address": "鹿児島県鹿児島県鹿児島市東開町４－１２",
      "raw_prefecture": "鹿児島県",
      "raw_address": "鹿児島県鹿児島市東開町４－１２",
      "status": "ok",
      "updated_at": "2026-03-27T04:58:52+00:00",
      "lat": 31.5315818,
      "lng": 130.5351543,
      "formatted_address": "Japan, 〒891-0115 Kagoshima, Tōkaichō, 4−１２ ケーズデンキ 鹿児島本店内",
      "place_id": "ChIJ99IL0aJmPjURhqkkbrvyTWE"
    },
    "鹿児島県鹿児島県鹿児島市桜ケ丘２－２７－６": {
      "normalized_address": "鹿児島県鹿児島県鹿児島市桜ケ丘２－２７－６",
      "raw_prefecture": "鹿児島県",
      "raw_address": "鹿児島県鹿児島市桜ケ丘２－２７－６",
      "status": "ok",
      "updated_at": "2026-03-27T04:58:52+00:00",
      "lat": 31.5558363,
      "lng": 130.5112657,
      "formatted_address": "2-chōme-27-6 Sakuragaoka, Kagoshima, 891-0175, Japan",
      "place_id": "ChIJOVhRyFhmPjURiez3eYsjnEU"
    },
    "鹿児島県鹿児島県鹿児島市真砂町５７－１０藤崎ビル１Ｆ": {
      "normalized_address": "鹿児島県鹿児島県鹿児島市真砂町５７－１０藤崎ビル１Ｆ",
      "raw_prefecture": "鹿児島県",
      "raw_address": "鹿児島県鹿児島市真砂町５７－１０藤崎ビル１Ｆ",
      "status": "ok",
      "updated_at": "2026-03-27T04:58:52+00:00",
      "lat": 31.5585048,
      "lng": 130.5535855,
      "formatted_address": "Japan, 〒890-0066 Kagoshima, Masagochō, 57−１０ 藤崎ビル 1f",
      "place_id": "EkVKYXBhbiwg44CSODkwLTAwNjYgS2Fnb3NoaW1hLCBNYXNhZ29jaMWNLCA1N-KIku-8ke-8kCDol6TltI7jg5Pjg6sgMWYiHhocChYKFAoSCUGaYVTTYD41EQXG_WqBCdwlEgIxZg"
    },
    "鹿児島県鹿児島県鹿屋市寿４－１５－２１－１": {
      "normalized_address": "鹿児島県鹿児島県鹿屋市寿４－１５－２１－１",
      "raw_prefecture": "鹿児島県",
      "raw_address": "鹿児島県鹿屋市寿４－１５－２１－１",
      "status": "ok",
      "updated_at": "2026-03-27T04:58:52+00:00",
      "lat": 31.3880216,
      "lng": 130.8812233,
      "formatted_address": "4-chōme-15-21-1 Kotobuki, Kanoya, Kagoshima 893-0014, Japan",
      "place_id": "ChIJC5gRT6qWPjURFoqF8GsmPcE"
    },
    "鹿児島県鹿児島県鹿屋市寿７－４－２４": {
      "normalized_address": "鹿児島県鹿児島県鹿屋市寿７－４－２４",
      "raw_prefecture": "鹿児島県",
      "raw_address": "鹿児島県鹿屋市寿７－４－２４",
      "status": "ok",
      "updated_at": "2026-03-27T04:58:53+00:00",
      "lat": 31.3846395,
      "lng": 130.8682747,
      "formatted_address": "7-chōme-4-24 Kotobuki, Kanoya, Kagoshima 893-0014, Japan",
      "place_id": "ChIJdWEH8U-RPjURtpQgLswcRRQ"
    },
    "鹿児島県鹿児島県鹿屋市旭原町３５９１－１６": {
      "normalized_address": "鹿児島県鹿児島県鹿屋市旭原町３５９１－１６",
      "raw_prefecture": "鹿児島県",
      "raw_address": "鹿児島県鹿屋市旭原町３５９１－１６",
      "status": "ok",
      "updated_at": "2026-03-27T04:58:53+00:00",
      "lat": 31.4001381,
      "lng": 130.8819939,
      "formatted_address": "3591-16 Asahibaruchō, Kanoya, Kagoshima 893-0022, Japan",
      "place_id": "ChIJcRbXuAiUPjUR53JXWdkauak"
    },
    "鹿児島県鹿児島県鹿屋市札元２－３６５６－１": {
      "normalized_address": "鹿児島県鹿児島県鹿屋市札元２－３６５６－１",
      "raw_prefecture": "鹿児島県",
      "raw_address": "鹿児島県鹿屋市札元２－３６５６－１",
      "status": "ok",
      "updated_at": "2026-03-27T04:58:53+00:00",
      "lat": 31.3991396,
      "lng": 130.8756929,
      "formatted_address": "2-chōme-3656-1 Fudamoto, Kanoya, Kagoshima 893-0013, Japan",
      "place_id": "ChIJSUwWVviTPjURUbUUzRu-QXk"
    }
  }
}
