{
  "version": 1,
  "generated_at": "2026-03-27T04:59:58+00:00",
  "source_file": "docs/data/2-12.json",
  "entries": {
    "千葉県千葉県佐倉市井野１５７４": {
      "normalized_address": "千葉県千葉県佐倉市井野１５７４",
      "raw_prefecture": "千葉県",
      "raw_address": "千葉県佐倉市井野１５７４",
      "status": "ok",
      "updated_at": "2026-03-27T04:59:40+00:00",
      "lat": 35.7178544,
      "lng": 140.1327157,
      "formatted_address": "1574 Ino, Sakura, Chiba 285-0855, Japan",
      "place_id": "ChIJFyBPu_yGImAR_XYjvTz2P_Y"
    },
    "千葉県千葉県佐倉市寺崎北３－３－２": {
      "normalized_address": "千葉県千葉県佐倉市寺崎北３－３－２",
      "raw_prefecture": "千葉県",
      "raw_address": "千葉県佐倉市寺崎北３－３－２",
      "status": "ok",
      "updated_at": "2026-03-27T04:59:40+00:00",
      "lat": 35.713066,
      "lng": 140.220461,
      "formatted_address": "Japan, 〒285-0819 Chiba, Sakura, Terazakikita, 3-chōme−３−２",
      "place_id": "ChIJ2a2NIimPImAR7qXkNNSPT08"
    },
    "千葉県千葉県佐倉市海隣寺町９７": {
      "normalized_address": "千葉県千葉県佐倉市海隣寺町９７",
      "raw_prefecture": "千葉県",
      "raw_address": "千葉県佐倉市海隣寺町９７",
      "status": "ok",
      "updated_at": "2026-03-27T04:59:40+00:00",
      "lat": 35.7234882,
      "lng": 140.2239702,
      "formatted_address": "97 Kairinjimachi, Sakura, Chiba 285-0013, Japan",
      "place_id": "ChIJsQGAhNWIImAR_zgFEMw1esc"
    },
    "千葉県千葉県八千代市大和田新田６３－６": {
      "normalized_address": "千葉県千葉県八千代市大和田新田６３－６",
      "raw_prefecture": "千葉県",
      "raw_address": "千葉県八千代市大和田新田６３－６",
      "status": "ok",
      "updated_at": "2026-03-27T04:59:40+00:00",
      "lat": 35.7202938,
      "lng": 140.0738713,
      "formatted_address": "63-6 Ōwada Shinden, Yachiyo, Chiba 276-0046, Japan",
      "place_id": "ChIJx65mwJOAImAR4t3dbcZ5gEY"
    },
    "千葉県千葉県八千代市大和田新田９４７－８": {
      "normalized_address": "千葉県千葉県八千代市大和田新田９４７－８",
      "raw_prefecture": "千葉県",
      "raw_address": "千葉県八千代市大和田新田９４７－８",
      "status": "ok",
      "updated_at": "2026-03-27T04:59:41+00:00",
      "lat": 35.7245297,
      "lng": 140.0785135,
      "formatted_address": "947-8 Ōwada Shinden, Yachiyo, Chiba 276-0046, Japan",
      "place_id": "ChIJW4wvQ5aAImARQtL7QxPaq_k"
    },
    "千葉県千葉県八街市用草５００": {
      "normalized_address": "千葉県千葉県八街市用草５００",
      "raw_prefecture": "千葉県",
      "raw_address": "千葉県八街市用草５００",
      "status": "ok",
      "updated_at": "2026-03-27T04:59:41+00:00",
      "lat": 35.64590099999999,
      "lng": 140.2758873,
      "formatted_address": "500 Mochikusa, Yachimata, Chiba 289-1138, Japan",
      "place_id": "ChIJvdCFNCOSImARK6O9vj6mJCw"
    },
    "千葉県千葉県千葉市中央区問屋町１３－４": {
      "normalized_address": "千葉県千葉県千葉市中央区問屋町１３－４",
      "raw_prefecture": "千葉県",
      "raw_address": "千葉県千葉市中央区問屋町１３－４",
      "status": "ok",
      "updated_at": "2026-03-27T04:59:41+00:00",
      "lat": 35.60315629999999,
      "lng": 140.1089163,
      "formatted_address": "13-4 Tonyachō, Chuo Ward, Chiba, 260-0025, Japan",
      "place_id": "ChIJpTs-HK2EImARDz3hZ6UxHUY"
    },
    "千葉県千葉県千葉市中央区川崎町１－３４ＧＬＯＢＯ蘇我店内": {
      "normalized_address": "千葉県千葉県千葉市中央区川崎町１－３４ＧＬＯＢＯ蘇我店内",
      "raw_prefecture": "千葉県",
      "raw_address": "千葉県千葉市中央区川崎町１－３４ＧＬＯＢＯ蘇我店内",
      "status": "ok",
      "updated_at": "2026-03-27T04:59:41+00:00",
      "lat": 35.5796423,
      "lng": 140.1248813,
      "formatted_address": "Japan, 〒260-0835 Chiba, Chuo Ward, Kawasakichō, １−３４ GLOBO内",
      "place_id": "ChIJ530ZSgybImARdZrGI-eIGSw"
    },
    "千葉県千葉県千葉市中央区東千葉２－３２－１": {
      "normalized_address": "千葉県千葉県千葉市中央区東千葉２－３２－１",
      "raw_prefecture": "千葉県",
      "raw_address": "千葉県千葉市中央区東千葉２－３２－１",
      "status": "ok",
      "updated_at": "2026-03-27T04:59:42+00:00",
      "lat": 35.62560879999999,
      "lng": 140.126449,
      "formatted_address": "2-chōme-32-1 Higashichiba, Chuo Ward, Chiba, 260-0041, Japan",
      "place_id": "ChIJvUxiicGEImAR5PHMdTKNy6Y"
    },
    "千葉県千葉県千葉市中央区都町８－１－１７": {
      "normalized_address": "千葉県千葉県千葉市中央区都町８－１－１７",
      "raw_prefecture": "千葉県",
      "raw_address": "千葉県千葉市中央区都町８－１－１７",
      "status": "ok",
      "updated_at": "2026-03-27T04:59:42+00:00",
      "lat": 35.617958,
      "lng": 140.1504043,
      "formatted_address": "8-chōme-1-17 Miyakochō, Chuo Ward, Chiba, 260-0001, Japan",
      "place_id": "ChIJjVxp0tKaImARgOCWufG5JYw"
    },
    "千葉県千葉県千葉市花見川区朝日ヶ丘１－３４－６": {
      "normalized_address": "千葉県千葉県千葉市花見川区朝日ヶ丘１－３４－６",
      "raw_prefecture": "千葉県",
      "raw_address": "千葉県千葉市花見川区朝日ヶ丘１－３４－６",
      "status": "ok",
      "updated_at": "2026-03-27T04:59:42+00:00",
      "lat": 35.6591622,
      "lng": 140.0896993,
      "formatted_address": "1-chōme-34-6 Asahigaoka, Hanamigawa Ward, Chiba, 262-0019, Japan",
      "place_id": "ChIJJ_VKW-WDImAR91hGN7EIHBE"
    },
    "千葉県千葉県印旛郡酒々井町中央台４－１１": {
      "normalized_address": "千葉県千葉県印旛郡酒々井町中央台４－１１",
      "raw_prefecture": "千葉県",
      "raw_address": "千葉県印旛郡酒々井町中央台４－１１",
      "status": "ok",
      "updated_at": "2026-03-27T04:59:42+00:00",
      "lat": 35.72476899999999,
      "lng": 140.2691174,
      "formatted_address": "4-chōme-11 Chūōdai, Shisui, Inba District, Chiba 285-0922, Japan",
      "place_id": "ChIJbZKTnR6MImARaoibRX0BGQI"
    },
    "千葉県千葉県君津市三直１５５２－３５": {
      "normalized_address": "千葉県千葉県君津市三直１５５２－３５",
      "raw_prefecture": "千葉県",
      "raw_address": "千葉県君津市三直１５５２－３５",
      "status": "ok",
      "updated_at": "2026-03-27T04:59:43+00:00",
      "lat": 35.3269809,
      "lng": 139.9445816,
      "formatted_address": "1552-35 Minō, Kimitsu, Chiba 299-1172, Japan",
      "place_id": "ChIJY-BoqPELGGARG06xQDgX6hk"
    },
    "千葉県千葉県富津市二間塚１７９４－１": {
      "normalized_address": "千葉県千葉県富津市二間塚１７９４－１",
      "raw_prefecture": "千葉県",
      "raw_address": "千葉県富津市二間塚１７９４－１",
      "status": "ok",
      "updated_at": "2026-03-27T04:59:43+00:00",
      "lat": 35.3247198,
      "lng": 139.8597261,
      "formatted_address": "1794-1 Futamazuka, Futtsu, Chiba 293-0002, Japan",
      "place_id": "ChIJDweDd3wNGGARnxXS3CkPWWk"
    },
    "千葉県千葉県富里市七栄６５４": {
      "normalized_address": "千葉県千葉県富里市七栄６５４",
      "raw_prefecture": "千葉県",
      "raw_address": "千葉県富里市七栄６５４",
      "status": "ok",
      "updated_at": "2026-03-27T04:59:43+00:00",
      "lat": 35.7292497,
      "lng": 140.3354693,
      "formatted_address": "Japan, 〒286-0221 Chiba, Tomisato, Nanae, ６５４ グランツミッテ3",
      "place_id": "ChIJeaj3XtiMImAR8snWrka8oAQ"
    },
    "千葉県千葉県富里市日吉台１－６－１０": {
      "normalized_address": "千葉県千葉県富里市日吉台１－６－１０",
      "raw_prefecture": "千葉県",
      "raw_address": "千葉県富里市日吉台１－６－１０",
      "status": "ok",
      "updated_at": "2026-03-27T04:59:43+00:00",
      "lat": 35.7738067,
      "lng": 140.321617,
      "formatted_address": "Japan, 〒286-0201 Chiba, Tomisato, Hiyoshidai, 1-chōme−６−１０",
      "place_id": "ChIJlQ5zEGyLImARZqI_7_fUEkY"
    },
    "千葉県千葉県山武市殿台２７３－３": {
      "normalized_address": "千葉県千葉県山武市殿台２７３－３",
      "raw_prefecture": "千葉県",
      "raw_address": "千葉県山武市殿台２７３－３",
      "status": "ok",
      "updated_at": "2026-03-27T04:59:44+00:00",
      "lat": 35.6037336,
      "lng": 140.4152586,
      "formatted_address": "273-3 Tonodai, Sammu, Chiba 289-1324, Japan",
      "place_id": "ChIJ92k5MzfqImARkzk16RJdqBM"
    },
    "千葉県千葉県山武市殿台２９６": {
      "normalized_address": "千葉県千葉県山武市殿台２９６",
      "raw_prefecture": "千葉県",
      "raw_address": "千葉県山武市殿台２９６",
      "status": "ok",
      "updated_at": "2026-03-27T04:59:44+00:00",
      "lat": 35.6029671,
      "lng": 140.4135896,
      "formatted_address": "296番地 Tonodai, Sammu, Chiba 289-1392, Japan",
      "place_id": "ChIJ2VWEETfqImARztzDM0sYXSY"
    },
    "千葉県千葉県市原市更級２－６－５": {
      "normalized_address": "千葉県千葉県市原市更級２－６－５",
      "raw_prefecture": "千葉県",
      "raw_address": "千葉県市原市更級２－６－５",
      "status": "ok",
      "updated_at": "2026-03-27T04:59:44+00:00",
      "lat": 35.5040267,
      "lng": 140.1015455,
      "formatted_address": "Japan, 〒290-0050 Chiba, Ichihara, Sarashina, 2-chōme−６−５",
      "place_id": "ChIJ5yJ21zSZImARR4QxHmEWayM"
    },
    "千葉県千葉県市川市二俣１－４－１７": {
      "normalized_address": "千葉県千葉県市川市二俣１－４－１７",
      "raw_prefecture": "千葉県",
      "raw_address": "千葉県市川市二俣１－４－１７",
      "status": "ok",
      "updated_at": "2026-03-27T04:59:44+00:00",
      "lat": 35.706766,
      "lng": 139.9481974,
      "formatted_address": "1-chōme-4-17 Futamata, Ichikawa, Chiba 272-0001, Japan",
      "place_id": "ChIJDT-sOMaAGGARDewzZvSXAVI"
    },
    "千葉県千葉県市川市八幡１－１－１": {
      "normalized_address": "千葉県千葉県市川市八幡１－１－１",
      "raw_prefecture": "千葉県",
      "raw_address": "千葉県市川市八幡１－１－１",
      "status": "ok",
      "updated_at": "2026-03-27T04:59:45+00:00",
      "lat": 35.7218095,
      "lng": 139.9307553,
      "formatted_address": "1-chōme-1-1 Yawata, Ichikawa, Chiba 272-0021, Japan",
      "place_id": "ChIJQy-WntGGGGARRemqrxdNzf4"
    },
    "千葉県千葉県市川市南大野２－３－１９": {
      "normalized_address": "千葉県千葉県市川市南大野２－３－１９",
      "raw_prefecture": "千葉県",
      "raw_address": "千葉県市川市南大野２－３－１９",
      "status": "ok",
      "updated_at": "2026-03-27T04:59:45+00:00",
      "lat": 35.7445913,
      "lng": 139.9538134,
      "formatted_address": "2-chōme-3-19 Minamiōno, Ichikawa, Chiba 272-0804, Japan",
      "place_id": "ChIJnYqH5ECBGGARhdzcBaNcH30"
    },
    "千葉県千葉県市川市堀之内３－３０－３３": {
      "normalized_address": "千葉県千葉県市川市堀之内３－３０－３３",
      "raw_prefecture": "千葉県",
      "raw_address": "千葉県市川市堀之内３－３０－３３",
      "status": "ok",
      "updated_at": "2026-03-27T04:59:45+00:00",
      "lat": 35.76362,
      "lng": 139.9121365,
      "formatted_address": "Japan, 〒272-0837 Chiba, Ichikawa, Horinouchi, 3-chōme−30−３３ ゴールウェイ",
      "place_id": "ChIJtQugvkCEGGARIbrLUrb1WHs"
    },
    "千葉県千葉県市川市宮久保３－２２－１８": {
      "normalized_address": "千葉県千葉県市川市宮久保３－２２－１８",
      "raw_prefecture": "千葉県",
      "raw_address": "千葉県市川市宮久保３－２２－１８",
      "status": "ok",
      "updated_at": "2026-03-27T04:59:46+00:00",
      "lat": 35.7352779,
      "lng": 139.9393812,
      "formatted_address": "3-chōme-22-18 Miyakubo, Ichikawa, Chiba 272-0822, Japan",
      "place_id": "ChIJNbOgpzWBGGARmMCEOrre0b0"
    },
    "千葉県千葉県市川市市川１－２３－４": {
      "normalized_address": "千葉県千葉県市川市市川１－２３－４",
      "raw_prefecture": "千葉県",
      "raw_address": "千葉県市川市市川１－２３－４",
      "status": "ok",
      "updated_at": "2026-03-27T04:59:46+00:00",
      "lat": 35.7304517,
      "lng": 139.9089472,
      "formatted_address": "Japan, 〒272-0034 Chiba, Ichikawa, 1-chōme−23−４ 後藤ビル",
      "place_id": "ChIJUXAlc5GGGGARhNeqAS6CJWc"
    },
    "千葉県千葉県市川市新井３－２－５": {
      "normalized_address": "千葉県千葉県市川市新井３－２－５",
      "raw_prefecture": "千葉県",
      "raw_address": "千葉県市川市新井３－２－５",
      "status": "ok",
      "updated_at": "2026-03-27T04:59:46+00:00",
      "lat": 35.6743427,
      "lng": 139.8980094,
      "formatted_address": "3-chōme-2-5 Arai, Ichikawa, Chiba 272-0144, Japan",
      "place_id": "ChIJxR8_KniHGGARfrXgFDmRIX8"
    },
    "千葉県千葉県市川市末広１－１－３１": {
      "normalized_address": "千葉県千葉県市川市末広１－１－３１",
      "raw_prefecture": "千葉県",
      "raw_address": "千葉県市川市末広１－１－３１",
      "status": "ok",
      "updated_at": "2026-03-27T04:59:46+00:00",
      "lat": 35.6857121,
      "lng": 139.9163708,
      "formatted_address": "Japan, 〒272-0121 Chiba, Ichikawa, Suehiro, 1-chōme−1−３１ 市川市行徳支所",
      "place_id": "ChIJw3eMCEKHGGARQJxgOv9r154"
    },
    "千葉県千葉県市川市田尻１００３": {
      "normalized_address": "千葉県千葉県市川市田尻１００３",
      "raw_prefecture": "千葉県",
      "raw_address": "千葉県市川市田尻１００３",
      "status": "ok",
      "updated_at": "2026-03-27T04:59:47+00:00",
      "lat": 35.6884076,
      "lng": 139.9430008,
      "formatted_address": "1003 Tajiri, Ichikawa, Chiba 272-0014, Japan",
      "place_id": "ChIJS-hauK6AGGAR6wCWLWhyMwU"
    },
    "千葉県千葉県市川市相之川２－１６－１０プレゼントシティ１Ｆ": {
      "normalized_address": "千葉県千葉県市川市相之川２－１６－１０プレゼントシティ１Ｆ",
      "raw_prefecture": "千葉県",
      "raw_address": "千葉県市川市相之川２－１６－１０プレゼントシティ１Ｆ",
      "status": "ok",
      "updated_at": "2026-03-27T04:59:47+00:00",
      "lat": 35.6765146,
      "lng": 139.8970291,
      "formatted_address": "Japan, 〒272-0143 Chiba, Ichikawa, Ainokawa, 2-chōme−16−１０ Ｔｈｅ Ｐｒｅｓｅｎｔ Ｃｉｔｙ",
      "place_id": "ChIJ5ZN6SnaHGGARgODUssmq62k"
    },
    "千葉県千葉県市川市菅野６－７－１": {
      "normalized_address": "千葉県千葉県市川市菅野６－７－１",
      "raw_prefecture": "千葉県",
      "raw_address": "千葉県市川市菅野６－７－１",
      "status": "ok",
      "updated_at": "2026-03-27T04:59:47+00:00",
      "lat": 35.73290679999999,
      "lng": 139.9193254,
      "formatted_address": "Japan, 〒272-0824 Chiba, Ichikawa, Sugano, 6-chōme−7−１ ホームセンター内",
      "place_id": "ChIJe5dBhb6GGGARaHNKD6MpPNg"
    },
    "千葉県千葉県市川市鬼高３－２８－１６": {
      "normalized_address": "千葉県千葉県市川市鬼高３－２８－１６",
      "raw_prefecture": "千葉県",
      "raw_address": "千葉県市川市鬼高３－２８－１６",
      "status": "ok",
      "updated_at": "2026-03-27T04:59:47+00:00",
      "lat": 35.7089876,
      "lng": 139.9374909,
      "formatted_address": "3-chōme-28-16 Onitaka, Ichikawa, Chiba 272-0015, Japan",
      "place_id": "ChIJ0xSvotKAGGARabdlleCXoeM"
    },
    "千葉県千葉県成田市ウイング土屋６３": {
      "normalized_address": "千葉県千葉県成田市ウイング土屋６３",
      "raw_prefecture": "千葉県",
      "raw_address": "千葉県成田市ウイング土屋６３",
      "status": "ok",
      "updated_at": "2026-03-27T04:59:48+00:00",
      "lat": 35.7952146,
      "lng": 140.320449,
      "formatted_address": "Uingutsuchiya, Narita, Chiba 286-0029, Japan",
      "place_id": "ChIJpyq7lR2LImAR-PQpaqWkUA4"
    },
    "千葉県千葉県我孫子市湖北台８－７－８": {
      "normalized_address": "千葉県千葉県我孫子市湖北台８－７－８",
      "raw_prefecture": "千葉県",
      "raw_address": "千葉県我孫子市湖北台８－７－８",
      "status": "ok",
      "updated_at": "2026-03-27T04:59:48+00:00",
      "lat": 35.8651359,
      "lng": 140.0715653,
      "formatted_address": "Japan, 〒270-1132 Chiba, Abiko, Kohokudai, 8-chōme−7−８ ユニディホームセンター我孫子店",
      "place_id": "ChIJIzA3tMd5ImARtrZVkYcZa-o"
    },
    "千葉県千葉県我孫子市湖北台９－７－７": {
      "normalized_address": "千葉県千葉県我孫子市湖北台９－７－７",
      "raw_prefecture": "千葉県",
      "raw_address": "千葉県我孫子市湖北台９－７－７",
      "status": "ok",
      "updated_at": "2026-03-27T04:59:48+00:00",
      "lat": 35.8655886,
      "lng": 140.0664683,
      "formatted_address": "9-chōme-7-7 Kohokudai, Abiko, Chiba 270-1132, Japan",
      "place_id": "ChIJEzXcNMl5ImAR9cidrv7SbW8"
    },
    "千葉県千葉県木更津市吾妻２－５－１６": {
      "normalized_address": "千葉県千葉県木更津市吾妻２－５－１６",
      "raw_prefecture": "千葉県",
      "raw_address": "千葉県木更津市吾妻２－５－１６",
      "status": "ok",
      "updated_at": "2026-03-27T04:59:48+00:00",
      "lat": 35.3902305,
      "lng": 139.9200207,
      "formatted_address": "2-chōme-5-16 Azuma, Kisarazu, Chiba 292-0065, Japan",
      "place_id": "ChIJyetZXUZzGGAROqrf9-SKVrs"
    },
    "千葉県千葉県木更津市桜井新町１－６－４": {
      "normalized_address": "千葉県千葉県木更津市桜井新町１－６－４",
      "raw_prefecture": "千葉県",
      "raw_address": "千葉県木更津市桜井新町１－６－４",
      "status": "ok",
      "updated_at": "2026-03-27T04:59:49+00:00",
      "lat": 35.3667107,
      "lng": 139.9250316,
      "formatted_address": "1-chōme-6-4 Sakuraishinmachi, Kisarazu, Chiba 292-0823, Japan",
      "place_id": "ChIJc8i7l7wMGGARdip0uoCMHyo"
    },
    "千葉県千葉県木更津市貝渕３－１３－２０": {
      "normalized_address": "千葉県千葉県木更津市貝渕３－１３－２０",
      "raw_prefecture": "千葉県",
      "raw_address": "千葉県木更津市貝渕３－１３－２０",
      "status": "ok",
      "updated_at": "2026-03-27T04:59:49+00:00",
      "lat": 35.3703677,
      "lng": 139.9182887,
      "formatted_address": "3-chōme-13-20 Kaifuchi, Kisarazu, Chiba 292-0833, Japan",
      "place_id": "ChIJFd-MmLcMGGARt0HnSIi0DZo"
    },
    "千葉県千葉県東金市東岩崎１－１": {
      "normalized_address": "千葉県千葉県東金市東岩崎１－１",
      "raw_prefecture": "千葉県",
      "raw_address": "千葉県東金市東岩崎１－１",
      "status": "ok",
      "updated_at": "2026-03-27T04:59:49+00:00",
      "lat": 35.5598711,
      "lng": 140.3660079,
      "formatted_address": "1-1 Higashiiwasaki, Togane, Chiba 283-8511, Japan",
      "place_id": "ChIJN_UG1aPqImARU4eur5u_id8"
    },
    "千葉県千葉県東金市田間８８４－２": {
      "normalized_address": "千葉県千葉県東金市田間８８４－２",
      "raw_prefecture": "千葉県",
      "raw_address": "千葉県東金市田間８８４－２",
      "status": "ok",
      "updated_at": "2026-03-27T04:59:49+00:00",
      "lat": 35.5712641,
      "lng": 140.379017,
      "formatted_address": "884-2 Tama, Togane, Chiba 283-0005, Japan",
      "place_id": "ChIJFSF_KJDqImARO-DiyC5TTsM"
    },
    "千葉県千葉県松戸市小金原４－１－２３": {
      "normalized_address": "千葉県千葉県松戸市小金原４－１－２３",
      "raw_prefecture": "千葉県",
      "raw_address": "千葉県松戸市小金原４－１－２３",
      "status": "ok",
      "updated_at": "2026-03-27T04:59:50+00:00",
      "lat": 35.8223975,
      "lng": 139.9362857,
      "formatted_address": "4-chōme-1-23 Koganehara, Matsudo, Chiba 270-0021, Japan",
      "place_id": "ChIJoWw4-6mEGGAROLShr92ccOA"
    },
    "千葉県千葉県松戸市小金原７－１８－１８": {
      "normalized_address": "千葉県千葉県松戸市小金原７－１８－１８",
      "raw_prefecture": "千葉県",
      "raw_address": "千葉県松戸市小金原７－１８－１８",
      "status": "ok",
      "updated_at": "2026-03-27T04:59:50+00:00",
      "lat": 35.8160141,
      "lng": 139.9495648,
      "formatted_address": "Japan, 〒270-0021 Chiba, Matsudo, Koganehara, 7-chōme−１８−１８",
      "place_id": "ChIJJzzzWEKDGGARDKXA2MEFI0U"
    },
    "千葉県千葉県松戸市新作１００－１９": {
      "normalized_address": "千葉県千葉県松戸市新作１００－１９",
      "raw_prefecture": "千葉県",
      "raw_address": "千葉県松戸市新作１００－１９",
      "status": "ok",
      "updated_at": "2026-03-27T04:59:50+00:00",
      "lat": 35.80509869999999,
      "lng": 139.9153835,
      "formatted_address": "100-19 Shinzaku, Matsudo, Chiba 271-0052, Japan",
      "place_id": "ChIJfUMossCEGGAR2o1El1fl478"
    },
    "千葉県千葉県松戸市日暮１－１０－１": {
      "normalized_address": "千葉県千葉県松戸市日暮１－１０－１",
      "raw_prefecture": "千葉県",
      "raw_address": "千葉県松戸市日暮１－１０－１",
      "status": "ok",
      "updated_at": "2026-03-27T04:59:50+00:00",
      "lat": 35.7925186,
      "lng": 139.9416161,
      "formatted_address": "Japan, 〒270-2253 Chiba, Matsudo, Higurashi, 1-chōme−１０−１",
      "place_id": "ChIJ041o-YGDGGARtDctpoaW6J4"
    },
    "千葉県千葉県松戸市牧の原２－３８": {
      "normalized_address": "千葉県千葉県松戸市牧の原２－３８",
      "raw_prefecture": "千葉県",
      "raw_address": "千葉県松戸市牧の原２－３８",
      "status": "ok",
      "updated_at": "2026-03-27T04:59:51+00:00",
      "lat": 35.78878950000001,
      "lng": 139.9537098,
      "formatted_address": "2-chōme-38 Makinohara, Matsudo, Chiba 270-2267, Japan",
      "place_id": "ChIJPwv-25mDGGARTRZZI5q8BxA"
    },
    "千葉県千葉県柏市光ヶ丘２－２３－８": {
      "normalized_address": "千葉県千葉県柏市光ヶ丘２－２３－８",
      "raw_prefecture": "千葉県",
      "raw_address": "千葉県柏市光ヶ丘２－２３－８",
      "status": "ok",
      "updated_at": "2026-03-27T04:59:51+00:00",
      "lat": 35.8267951,
      "lng": 139.9556196,
      "formatted_address": "2-chōme-23-8 Hikarigaoka, Kashiwa, Chiba 277-0065, Japan",
      "place_id": "ChIJhyUrbEiDGGARt3ZYp7ZFVzI"
    },
    "千葉県千葉県柏市十余二４０４－２８": {
      "normalized_address": "千葉県千葉県柏市十余二４０４－２８",
      "raw_prefecture": "千葉県",
      "raw_address": "千葉県柏市十余二４０４－２８",
      "status": "ok",
      "updated_at": "2026-03-27T04:59:51+00:00",
      "lat": 35.8878555,
      "lng": 139.9457929,
      "formatted_address": "404-28 Toyofuta, Kashiwa, Chiba 277-0872, Japan",
      "place_id": "ChIJRZGYbA2cGGARRMfYydNHH6Y"
    },
    "千葉県千葉県柏市大山台１－１０": {
      "normalized_address": "千葉県千葉県柏市大山台１－１０",
      "raw_prefecture": "千葉県",
      "raw_address": "千葉県柏市大山台１－１０",
      "status": "ok",
      "updated_at": "2026-03-27T04:59:51+00:00",
      "lat": 35.8801327,
      "lng": 139.9669898,
      "formatted_address": "1-chōme-10 Ōyamadai, Kashiwa, Chiba 277-0837, Japan",
      "place_id": "ChIJtQUp4VmcGGARPXOYgC47bKQ"
    },
    "千葉県千葉県柏市布施６８７": {
      "normalized_address": "千葉県千葉県柏市布施６８７",
      "raw_prefecture": "千葉県",
      "raw_address": "千葉県柏市布施６８７",
      "status": "ok",
      "updated_at": "2026-03-27T04:59:52+00:00",
      "lat": 35.8901407,
      "lng": 139.9949699,
      "formatted_address": "687 Fuse, Kashiwa, Chiba 277-0825, Japan",
      "place_id": "ChIJgQvEHKGdGGAR0cdRu9gq0BM"
    },
    "千葉県千葉県柏市旭町５－６－１９": {
      "normalized_address": "千葉県千葉県柏市旭町５－６－１９",
      "raw_prefecture": "千葉県",
      "raw_address": "千葉県柏市旭町５－６－１９",
      "status": "ok",
      "updated_at": "2026-03-27T04:59:52+00:00",
      "lat": 35.8547217,
      "lng": 139.9614649,
      "formatted_address": "5-chōme-6-19 Asahichō, Kashiwa, Chiba 277-0852, Japan",
      "place_id": "ChIJH0EWk8GcGGARQQfaiZWuHXE"
    },
    "千葉県千葉県柏市柏１－１－２０スカイプラザ柏": {
      "normalized_address": "千葉県千葉県柏市柏１－１－２０スカイプラザ柏",
      "raw_prefecture": "千葉県",
      "raw_address": "千葉県柏市柏１－１－２０スカイプラザ柏",
      "status": "ok",
      "updated_at": "2026-03-27T04:59:52+00:00",
      "lat": 35.86226750000001,
      "lng": 139.9719844,
      "formatted_address": "1-chōme-1-20 Kashiwa, Chiba 277-0005, Japan",
      "place_id": "ChIJK-njKOecGGARnekVWJBqf2I"
    },
    "千葉県千葉県流山市おおたかの森西１－１５－３": {
      "normalized_address": "千葉県千葉県流山市おおたかの森西１－１５－３",
      "raw_prefecture": "千葉県",
      "raw_address": "千葉県流山市おおたかの森西１－１５－３",
      "status": "ok",
      "updated_at": "2026-03-27T04:59:52+00:00",
      "lat": 35.872782,
      "lng": 139.9211821,
      "formatted_address": "1-chōme-15-3 Ōtakanomorinishi, Nagareyama, Chiba 270-0128, Japan",
      "place_id": "ChIJEdKbCZSbGGAR-ITjk_y1-kI"
    },
    "千葉県千葉県流山市下花輪１９１": {
      "normalized_address": "千葉県千葉県流山市下花輪１９１",
      "raw_prefecture": "千葉県",
      "raw_address": "千葉県流山市下花輪１９１",
      "status": "ok",
      "updated_at": "2026-03-27T04:59:53+00:00",
      "lat": 35.8757545,
      "lng": 139.9009028,
      "formatted_address": "191 Shimohanawa, Nagareyama, Chiba 270-0174, Japan",
      "place_id": "ChIJf5MnPMmbGGAR5YvsTmeN098"
    },
    "千葉県千葉県流山市南流山９－１－３": {
      "normalized_address": "千葉県千葉県流山市南流山９－１－３",
      "raw_prefecture": "千葉県",
      "raw_address": "千葉県流山市南流山９－１－３",
      "status": "ok",
      "updated_at": "2026-03-27T04:59:53+00:00",
      "lat": 35.8351894,
      "lng": 139.8965185,
      "formatted_address": "9-chōme-1-3 Minaminagareyama, Nagareyama, Chiba 270-0163, Japan",
      "place_id": "ChIJNTd67x2bGGARQaQ23ynDaII"
    },
    "千葉県千葉県浦安市明海４－１－１": {
      "normalized_address": "千葉県千葉県浦安市明海４－１－１",
      "raw_prefecture": "千葉県",
      "raw_address": "千葉県浦安市明海４－１－１",
      "status": "ok",
      "updated_at": "2026-03-27T04:59:53+00:00",
      "lat": 35.6430055,
      "lng": 139.9228303,
      "formatted_address": "4-chōme-1-1 Akemi, Urayasu, Chiba 279-0014, Japan",
      "place_id": "ChIJRQ-UIMx9GGARjqafbh6Rrds"
    },
    "千葉県千葉県浦安市猫実１－１－１浦安市役所６Ｆごみゼロ課": {
      "normalized_address": "千葉県千葉県浦安市猫実１－１－１浦安市役所６Ｆごみゼロ課",
      "raw_prefecture": "千葉県",
      "raw_address": "千葉県浦安市猫実１－１－１浦安市役所６Ｆ　ごみゼロ課",
      "status": "ok",
      "updated_at": "2026-03-27T04:59:53+00:00",
      "lat": 35.6530306,
      "lng": 139.9020719,
      "formatted_address": "1-chōme-1-1 Nekozane, Urayasu, Chiba 279-8501, Japan",
      "place_id": "ChIJyTiJwZt9GGARWSSyiN2xTlc"
    },
    "千葉県千葉県習志野市奏の杜２－１９－２１": {
      "normalized_address": "千葉県千葉県習志野市奏の杜２－１９－２１",
      "raw_prefecture": "千葉県",
      "raw_address": "千葉県習志野市奏の杜２－１９－２１",
      "status": "ok",
      "updated_at": "2026-03-27T04:59:54+00:00",
      "lat": 35.690993,
      "lng": 140.0106085,
      "formatted_address": "2-chōme-19-21 Kanadenomori, Narashino, Chiba 275-0028, Japan",
      "place_id": "ChIJm7-lJY1_GGARGmfxZrLvNLA"
    },
    "千葉県千葉県習志野市東習志野５－３０－３": {
      "normalized_address": "千葉県千葉県習志野市東習志野５－３０－３",
      "raw_prefecture": "千葉県",
      "raw_address": "千葉県習志野市東習志野５－３０－３",
      "status": "ok",
      "updated_at": "2026-03-27T04:59:54+00:00",
      "lat": 35.6953614,
      "lng": 140.0793316,
      "formatted_address": "5-chōme-30-3 Higashinarashino, Narashino, Chiba 275-0001, Japan",
      "place_id": "ChIJafpmtxiBImARbEcYjoW_nyU"
    },
    "千葉県千葉県船橋市夏見台３－８－７": {
      "normalized_address": "千葉県千葉県船橋市夏見台３－８－７",
      "raw_prefecture": "千葉県",
      "raw_address": "千葉県船橋市夏見台３－８－７",
      "status": "ok",
      "updated_at": "2026-03-27T04:59:54+00:00",
      "lat": 35.7202697,
      "lng": 139.9898289,
      "formatted_address": "3-chōme-8-7 Natsumidai, Funabashi, Chiba 273-0866, Japan",
      "place_id": "ChIJP3VBnUKAGGAR0OjeHNXAsls"
    },
    "千葉県千葉県船橋市松が丘４－１－３１": {
      "normalized_address": "千葉県千葉県船橋市松が丘４－１－３１",
      "raw_prefecture": "千葉県",
      "raw_address": "千葉県船橋市松が丘４－１－３１",
      "status": "ok",
      "updated_at": "2026-03-27T04:59:54+00:00",
      "lat": 35.730703,
      "lng": 140.0437726,
      "formatted_address": "4-chōme-1-31 Matsugaoka, Funabashi, Chiba 274-0064, Japan",
      "place_id": "ChIJgdb9j9x_ImARR5ZuqUoQnqs"
    },
    "千葉県千葉県船橋市西浦１－４－２": {
      "normalized_address": "千葉県千葉県船橋市西浦１－４－２",
      "raw_prefecture": "千葉県",
      "raw_address": "千葉県船橋市西浦１－４－２",
      "status": "ok",
      "updated_at": "2026-03-27T04:59:55+00:00",
      "lat": 35.6941681,
      "lng": 139.9642792,
      "formatted_address": "1-chōme-4-2 Nishiura, Funabashi, Chiba 273-0017, Japan",
      "place_id": "ChIJVyQJUpyAGGARw1_OjNXQROM"
    },
    "千葉県千葉県茂原市八千代１－９－１５": {
      "normalized_address": "千葉県千葉県茂原市八千代１－９－１５",
      "raw_prefecture": "千葉県",
      "raw_address": "千葉県茂原市八千代１－９－１５",
      "status": "ok",
      "updated_at": "2026-03-27T04:59:55+00:00",
      "lat": 35.42339490000001,
      "lng": 140.2959308,
      "formatted_address": "Japan, 〒297-0024 Chiba, Mobara, Yachiyo, 1-chōme−９−１５",
      "place_id": "ChIJr1ZZdw-5ImAR6_Af16_gVRE"
    },
    "千葉県千葉県茂原市長尾２６２３": {
      "normalized_address": "千葉県千葉県茂原市長尾２６２３",
      "raw_prefecture": "千葉県",
      "raw_address": "千葉県茂原市長尾２６２３",
      "status": "ok",
      "updated_at": "2026-03-27T04:59:55+00:00",
      "lat": 35.4501315,
      "lng": 140.2976017,
      "formatted_address": "2623 Nagao, Mobara, Chiba 297-0073, Japan",
      "place_id": "ChIJNwHC5i25ImARGdwugKzSE3c"
    },
    "千葉県千葉県野田市堤根１１４－２０": {
      "normalized_address": "千葉県千葉県野田市堤根１１４－２０",
      "raw_prefecture": "千葉県",
      "raw_address": "千葉県野田市堤根１１４－２０",
      "status": "ok",
      "updated_at": "2026-03-27T04:59:55+00:00",
      "lat": 35.9401088,
      "lng": 139.8881355,
      "formatted_address": "114-20 Tsutsumine, Noda, Chiba 278-0021, Japan",
      "place_id": "ChIJQfdX9WaYGGARqoKVlASkFMM"
    },
    "千葉県千葉県野田市宮崎２３": {
      "normalized_address": "千葉県千葉県野田市宮崎２３",
      "raw_prefecture": "千葉県",
      "raw_address": "千葉県野田市宮崎２３",
      "status": "ok",
      "updated_at": "2026-03-27T04:59:56+00:00",
      "lat": 35.9481703,
      "lng": 139.8718614,
      "formatted_address": "23 Miyazaki, Noda, Chiba 278-0005, Japan",
      "place_id": "ChIJL39IcgqYGGARO5JzIi4LqcY"
    },
    "千葉県千葉県鎌ケ谷市新鎌ケ谷２－６－１": {
      "normalized_address": "千葉県千葉県鎌ケ谷市新鎌ケ谷２－６－１",
      "raw_prefecture": "千葉県",
      "raw_address": "千葉県鎌ケ谷市新鎌ケ谷２－６－１",
      "status": "ok",
      "updated_at": "2026-03-27T04:59:56+00:00",
      "lat": 35.7768081,
      "lng": 140.00084,
      "formatted_address": "Japan, 〒273-0107 Chiba, Kamagaya, Shinkamagaya, 2-chōme−6−１ 福祉保健センター",
      "place_id": "ChIJRTB0WPSBGGARjXgQxTRU2T8"
    },
    "千葉県千葉県鎌ケ谷市新鎌ケ谷３－３－１５": {
      "normalized_address": "千葉県千葉県鎌ケ谷市新鎌ケ谷３－３－１５",
      "raw_prefecture": "千葉県",
      "raw_address": "千葉県鎌ケ谷市新鎌ケ谷３－３－１５",
      "status": "ok",
      "updated_at": "2026-03-27T04:59:56+00:00",
      "lat": 35.7782315,
      "lng": 140.0024133,
      "formatted_address": "3-chōme-3-15 Shinkamagaya, Kamagaya, Chiba 273-0107, Japan",
      "place_id": "ChIJw1x_zPWBGGARnVN-hfQdsKE"
    },
    "千葉県千葉県香取市仁良３００－１": {
      "normalized_address": "千葉県千葉県香取市仁良３００－１",
      "raw_prefecture": "千葉県",
      "raw_address": "千葉県香取市仁良３００－１",
      "status": "ok",
      "updated_at": "2026-03-27T04:59:56+00:00",
      "lat": 35.80338950000001,
      "lng": 140.5752345,
      "formatted_address": "300-1 Nira, Katori, Chiba 289-0407, Japan",
      "place_id": "ChIJ4-WZVxX7ImARX_xoZ_955SE"
    },
    "千葉県千葉県香取市佐原ロ２１２７市役所３Ｆ": {
      "normalized_address": "千葉県千葉県香取市佐原ロ２１２７市役所３Ｆ",
      "raw_prefecture": "千葉県",
      "raw_address": "千葉県香取市佐原ロ２１２７市役所３Ｆ",
      "status": "ok",
      "updated_at": "2026-03-27T04:59:57+00:00",
      "lat": 35.8970508,
      "lng": 140.4991951,
      "formatted_address": "Ro-2127 Sawara, Katori, Chiba 287-0001, Japan",
      "place_id": "ChIJU8bRP-T3ImARvFsO72wITe0"
    },
    "千葉県千葉県香取市岩部７００": {
      "normalized_address": "千葉県千葉県香取市岩部７００",
      "raw_prefecture": "千葉県",
      "raw_address": "千葉県香取市岩部７００",
      "status": "ok",
      "updated_at": "2026-03-27T04:59:57+00:00",
      "lat": 35.8101197,
      "lng": 140.5018915,
      "formatted_address": "700 Iwabe, Katori, Chiba 287-0102, Japan",
      "place_id": "ChIJ1ThxvZfwImAR1LQEUejRWFI"
    },
    "千葉県千葉県香取市羽根川３８": {
      "normalized_address": "千葉県千葉県香取市羽根川３８",
      "raw_prefecture": "千葉県",
      "raw_address": "千葉県香取市羽根川３８",
      "status": "ok",
      "updated_at": "2026-03-27T04:59:57+00:00",
      "lat": 35.8473856,
      "lng": 140.6021593,
      "formatted_address": "38 Hanegawa, Katori, Chiba 289-0331, Japan",
      "place_id": "ChIJKUpHjXP8ImARGHfXx6jpVc0"
    },
    "千葉県千葉県香取郡多古町多古５８４": {
      "normalized_address": "千葉県千葉県香取郡多古町多古５８４",
      "raw_prefecture": "千葉県",
      "raw_address": "千葉県香取郡多古町多古５８４",
      "status": "ok",
      "updated_at": "2026-03-27T04:59:57+00:00",
      "lat": 35.7359207,
      "lng": 140.4680433,
      "formatted_address": "584 Tako, Katori District, Chiba 289-2241, Japan",
      "place_id": "ChIJ21l0yy3uImARKPPB7lvYESs"
    },
    "千葉県千葉県香取郡東庄町石出２６９２－４": {
      "normalized_address": "千葉県千葉県香取郡東庄町石出２６９２－４",
      "raw_prefecture": "千葉県",
      "raw_address": "千葉県香取郡東庄町石出２６９２－４",
      "status": "ok",
      "updated_at": "2026-03-27T04:59:58+00:00",
      "lat": 35.8200664,
      "lng": 140.6978892,
      "formatted_address": "2692-4 Ishide, Tonosho, Katori District, Chiba 289-0612, Japan",
      "place_id": "ChIJg0q4HkcdI2ARZ4GpEYatJwg"
    },
    "千葉県千葉県香取郡東庄町笹川い４７１３－１３１": {
      "normalized_address": "千葉県千葉県香取郡東庄町笹川い４７１３－１３１",
      "raw_prefecture": "千葉県",
      "raw_address": "千葉県香取郡東庄町笹川い４７１３－１３１",
      "status": "ok",
      "updated_at": "2026-03-27T04:59:58+00:00",
      "lat": 35.8378204,
      "lng": 140.6681592,
      "formatted_address": "I-4713-131 Sasagawa, Tonosho, Katori District, Chiba 289-0601, Japan",
      "place_id": "ChIJN37RxEL9ImARzL5herf_MVI"
    },
    "千葉県千葉県香取郡神崎町神崎本宿１６３": {
      "normalized_address": "千葉県千葉県香取郡神崎町神崎本宿１６３",
      "raw_prefecture": "千葉県",
      "raw_address": "千葉県香取郡神崎町神崎本宿１６３",
      "status": "ok",
      "updated_at": "2026-03-27T04:59:58+00:00",
      "lat": 35.9016356,
      "lng": 140.4051612,
      "formatted_address": "163 Kōzakihonshuku, Kozaki, Katori District, Chiba 289-0221, Japan",
      "place_id": "ChIJS055cx5fImARQbBKGL37WQc"
    }
  }
}
