{
  "version": 1,
  "generated_at": "2026-03-28T03:29:25+00:00",
  "source_file": "docs/data/2-27.json",
  "entries": {
    "大阪府大阪府三島郡島本町桜井２－１－１": {
      "normalized_address": "大阪府大阪府三島郡島本町桜井２－１－１",
      "raw_prefecture": "大阪府",
      "raw_address": "大阪府三島郡島本町桜井２－１－１",
      "status": "ok",
      "updated_at": "2026-03-28T03:28:47+00:00",
      "lat": 34.8838199,
      "lng": 135.6630151,
      "formatted_address": "2-chōme-1-1 Sakurai, Shimamoto, Mishima District, Osaka 618-0022, Japan",
      "place_id": "ChIJ2ws57GkDAWARoS_2uXQfVSs"
    },
    "大阪府大阪府八尾市南太子堂３－２－２６": {
      "normalized_address": "大阪府大阪府八尾市南太子堂３－２－２６",
      "raw_prefecture": "大阪府",
      "raw_address": "大阪府八尾市南太子堂３－２－２６",
      "status": "ok",
      "updated_at": "2026-03-28T03:28:47+00:00",
      "lat": 34.6125725,
      "lng": 135.5867399,
      "formatted_address": "3-chōme-2-26 Minamitaishidō, Yao, Osaka 581-0056, Japan",
      "place_id": "ChIJhc9t-bPYAGAR0cKywtVUO6s"
    },
    "大阪府大阪府八尾市沼１－１": {
      "normalized_address": "大阪府大阪府八尾市沼１－１",
      "raw_prefecture": "大阪府",
      "raw_address": "大阪府八尾市沼１－１",
      "status": "ok",
      "updated_at": "2026-03-28T03:28:48+00:00",
      "lat": 34.5885984,
      "lng": 135.6027818,
      "formatted_address": "1-chōme-1 Numa, Yao, Osaka 581-0036, Japan",
      "place_id": "ChIJnQvgh38nAWAR8J84awQQE3Q"
    },
    "大阪府大阪府八尾市萱振町１－５４－１０": {
      "normalized_address": "大阪府大阪府八尾市萱振町１－５４－１０",
      "raw_prefecture": "大阪府",
      "raw_address": "大阪府八尾市萱振町１－５４－１０",
      "status": "ok",
      "updated_at": "2026-03-28T03:28:48+00:00",
      "lat": 34.6341848,
      "lng": 135.6069475,
      "formatted_address": "1-chōme-54-10 Kayafurichō, Yao, Osaka 581-0834, Japan",
      "place_id": "ChIJzSceZq8gAWAR-mDGVz4bdxo"
    },
    "大阪府大阪府南河内郡千早赤阪村大字水分１８０": {
      "normalized_address": "大阪府大阪府南河内郡千早赤阪村大字水分１８０",
      "raw_prefecture": "大阪府",
      "raw_address": "大阪府南河内郡千早赤阪村大字水分１８０",
      "status": "ok",
      "updated_at": "2026-03-28T03:28:48+00:00",
      "lat": 34.4647046,
      "lng": 135.6225153,
      "formatted_address": "180 Suibun, 大字 Chihayaakasaka, Minamikawachi District, Osaka 585-0041, Japan",
      "place_id": "ChIJxzOzIkMqAWARM3N8CtdKxWs"
    },
    "大阪府大阪府南河内郡太子町大字山田８８＿２Ｆ": {
      "normalized_address": "大阪府大阪府南河内郡太子町大字山田８８＿２Ｆ",
      "raw_prefecture": "大阪府",
      "raw_address": "大阪府南河内郡太子町大字山田８８＿２Ｆ",
      "status": "ok",
      "updated_at": "2026-03-28T03:28:48+00:00",
      "lat": 34.5190266,
      "lng": 135.6478277,
      "formatted_address": "2f, 88 Yamada, Taishi, Minamikawachi District, Osaka 583-0992, Japan",
      "place_id": "EkQyZiwgODggWWFtYWRhLCBUYWlzaGksIE1pbmFtaWthd2FjaGkgRGlzdHJpY3QsIE9zYWthIDU4My0wOTkyLCBKYXBhbiIeGhwKFgoUChIJwY0Ap3IpAWAR5aEzQVwWdTMSAjJm"
    },
    "大阪府大阪府南河内郡太子町春日８２－３": {
      "normalized_address": "大阪府大阪府南河内郡太子町春日８２－３",
      "raw_prefecture": "大阪府",
      "raw_address": "大阪府南河内郡太子町春日８２－３",
      "status": "ok",
      "updated_at": "2026-03-28T03:28:49+00:00",
      "lat": 34.5255975,
      "lng": 135.6440867,
      "formatted_address": "82-3 Kasuga, Taishi, Minamikawachi District, Osaka 583-0991, Japan",
      "place_id": "ChIJQ0lGOQ8pAWARS6ivh_xErX0"
    },
    "大阪府大阪府南河内郡河南町大字白木１３５９－６": {
      "normalized_address": "大阪府大阪府南河内郡河南町大字白木１３５９－６",
      "raw_prefecture": "大阪府",
      "raw_address": "大阪府南河内郡河南町大字白木１３５９－６",
      "status": "ok",
      "updated_at": "2026-03-28T03:28:49+00:00",
      "lat": 34.4916438,
      "lng": 135.6296131,
      "formatted_address": "1359-6 Shiraki, Kanan, Minamikawachi District, Osaka 585-0014, Japan",
      "place_id": "ChIJT9taYygqAWARNCUge3CrOF4"
    },
    "大阪府大阪府吹田市山田北１４‐１": {
      "normalized_address": "大阪府大阪府吹田市山田北１４‐１",
      "raw_prefecture": "大阪府",
      "raw_address": "大阪府吹田市山田北１４‐１",
      "status": "ok",
      "updated_at": "2026-03-28T03:28:49+00:00",
      "lat": 34.8092309,
      "lng": 135.5174621,
      "formatted_address": "14-1 Yamadakita, Suita, Osaka 565-0825, Japan",
      "place_id": "ChIJU8mx_Fr7AGAR2RHa_h14hE8"
    },
    "大阪府大阪府吹田市山田南３０－２５": {
      "normalized_address": "大阪府大阪府吹田市山田南３０－２５",
      "raw_prefecture": "大阪府",
      "raw_address": "大阪府吹田市山田南３０－２５",
      "status": "ok",
      "updated_at": "2026-03-28T03:28:49+00:00",
      "lat": 34.7902695,
      "lng": 135.5383969,
      "formatted_address": "30-25 Yamadaminami, Suita, Osaka 565-0823, Japan",
      "place_id": "ChIJmR0_CkLjAGARa_n6nDolfpA"
    },
    "大阪府大阪府吹田市片山町２－１－１５": {
      "normalized_address": "大阪府大阪府吹田市片山町２－１－１５",
      "raw_prefecture": "大阪府",
      "raw_address": "大阪府吹田市片山町２－１－１５",
      "status": "ok",
      "updated_at": "2026-03-28T03:28:50+00:00",
      "lat": 34.7649852,
      "lng": 135.520227,
      "formatted_address": "2-chōme-1-15 Katayamachō, Suita, Osaka 564-0082, Japan",
      "place_id": "ChIJZ9fES4fkAGAR1ptn2IPqtJQ"
    },
    "大阪府大阪府和泉市いぶき野２－９－２": {
      "normalized_address": "大阪府大阪府和泉市いぶき野２－９－２",
      "raw_prefecture": "大阪府",
      "raw_address": "大阪府和泉市いぶき野２－９－２",
      "status": "ok",
      "updated_at": "2026-03-28T03:28:50+00:00",
      "lat": 34.46685960000001,
      "lng": 135.4469562,
      "formatted_address": "2-chōme-9-2 Ibukino, Izumi, Osaka 594-0041, Japan",
      "place_id": "ChIJpyjzcuHPAGAR_XAvgfJdk1s"
    },
    "大阪府大阪府和泉市室堂町８２４－３６": {
      "normalized_address": "大阪府大阪府和泉市室堂町８２４－３６",
      "raw_prefecture": "大阪府",
      "raw_address": "大阪府和泉市室堂町８２４－３６",
      "status": "ok",
      "updated_at": "2026-03-28T03:28:50+00:00",
      "lat": 34.4717247,
      "lng": 135.4765921,
      "formatted_address": "824-36 Murodōchō, Izumi, Osaka 594-1101, Japan",
      "place_id": "ChIJkyYCkETQAGARe2LUFNCmC1U"
    },
    "大阪府大阪府四條畷市中野本町１－１": {
      "normalized_address": "大阪府大阪府四條畷市中野本町１－１",
      "raw_prefecture": "大阪府",
      "raw_address": "大阪府四條畷市中野本町１－１",
      "status": "ok",
      "updated_at": "2026-03-28T03:28:51+00:00",
      "lat": 34.7401005,
      "lng": 135.6397336,
      "formatted_address": "Japan, 〒575-0051 Osaka, Shijonawate, Nakanohonmachi, 1−１ 四條畷市役所",
      "place_id": "ChIJgdg5lAcfAWARDYRO2mbdIwA"
    },
    "大阪府大阪府堺市中区八田北町３３９": {
      "normalized_address": "大阪府大阪府堺市中区八田北町３３９",
      "raw_prefecture": "大阪府",
      "raw_address": "大阪府堺市中区八田北町３３９",
      "status": "ok",
      "updated_at": "2026-03-28T03:28:51+00:00",
      "lat": 34.5238221,
      "lng": 135.486183,
      "formatted_address": "339 Handakitachō, Naka Ward, Sakai, Osaka 599-8262, Japan",
      "place_id": "ChIJLQQZtffaAGARG31VBrJQmYs"
    },
    "大阪府大阪府堺市中区八田北町４６１－４": {
      "normalized_address": "大阪府大阪府堺市中区八田北町４６１－４",
      "raw_prefecture": "大阪府",
      "raw_address": "大阪府堺市中区八田北町４６１－４",
      "status": "ok",
      "updated_at": "2026-03-28T03:28:51+00:00",
      "lat": 34.5266833,
      "lng": 135.4859994,
      "formatted_address": "461-4 Handakitachō, Naka Ward, Sakai, Osaka 599-8262, Japan",
      "place_id": "ChIJU3r-O_jaAGARtWF2hWPzv5s"
    },
    "大阪府大阪府堺市北区百舌鳥赤畑町２－４５": {
      "normalized_address": "大阪府大阪府堺市北区百舌鳥赤畑町２－４５",
      "raw_prefecture": "大阪府",
      "raw_address": "大阪府堺市北区百舌鳥赤畑町２－４５",
      "status": "ok",
      "updated_at": "2026-03-28T03:28:52+00:00",
      "lat": 34.5620366,
      "lng": 135.4934647,
      "formatted_address": "2-chōme-45 Mozuakahatachō, Kita Ward, Sakai, Osaka 591-8037, Japan",
      "place_id": "ChIJHeoVmJvbAGARhlYalYmM-yE"
    },
    "大阪府大阪府堺市北区蔵前町２－１６－４３": {
      "normalized_address": "大阪府大阪府堺市北区蔵前町２－１６－４３",
      "raw_prefecture": "大阪府",
      "raw_address": "大阪府堺市北区蔵前町２－１６－４３",
      "status": "ok",
      "updated_at": "2026-03-28T03:28:52+00:00",
      "lat": 34.5752852,
      "lng": 135.5154356,
      "formatted_address": "2-chōme-16-43 Kuramaechō, Kita Ward, Sakai, Osaka 591-8004, Japan",
      "place_id": "ChIJbcEJBPDbAGARlkjJ-_1mUPg"
    },
    "大阪府大阪府堺市堺区一条通５－１８": {
      "normalized_address": "大阪府大阪府堺市堺区一条通５－１８",
      "raw_prefecture": "大阪府",
      "raw_address": "大阪府堺市堺区一条通５－１８",
      "status": "ok",
      "updated_at": "2026-03-28T03:28:52+00:00",
      "lat": 34.5664815,
      "lng": 135.4778307,
      "formatted_address": "5-18 Ichijōdōri, Sakai Ward, Sakai, Osaka 590-0048, Japan",
      "place_id": "ChIJPX8Hq2LbAGARO8Yym6A2Ul4"
    },
    "大阪府大阪府堺市西区上６７０－１９": {
      "normalized_address": "大阪府大阪府堺市西区上６７０－１９",
      "raw_prefecture": "大阪府",
      "raw_address": "大阪府堺市西区上６７０－１９",
      "status": "ok",
      "updated_at": "2026-03-28T03:28:52+00:00",
      "lat": 34.5234095,
      "lng": 135.458075,
      "formatted_address": "670-19 Kami, Nishi Ward, Sakai, Osaka 593-8311, Japan",
      "place_id": "ChIJ_5LXaSjbAGARWdXrdYhUUNA"
    },
    "大阪府大阪府堺市西区家原寺町１－１６－２２": {
      "normalized_address": "大阪府大阪府堺市西区家原寺町１－１６－２２",
      "raw_prefecture": "大阪府",
      "raw_address": "大阪府堺市西区家原寺町１－１６－２２",
      "status": "ok",
      "updated_at": "2026-03-28T03:28:53+00:00",
      "lat": 34.5377577,
      "lng": 135.4714447,
      "formatted_address": "Japan, 〒593-8304 Osaka, Sakai, Nishi Ward, Ebarajichō, 1-chōme−16−２２ ＹＯＵ ＳＨＯＰ ＨＯＮＭＡＣＨＩ",
      "place_id": "ChIJDd-gcRfbAGAR4SACMCP2sE8"
    },
    "大阪府大阪府大東市新田東本町１－２５": {
      "normalized_address": "大阪府大阪府大東市新田東本町１－２５",
      "raw_prefecture": "大阪府",
      "raw_address": "大阪府大東市新田東本町１－２５",
      "status": "ok",
      "updated_at": "2026-03-28T03:28:53+00:00",
      "lat": 34.7083842,
      "lng": 135.6081983,
      "formatted_address": "1-25 Shinden Higashihonmachi, Daito, Osaka 574-0054, Japan",
      "place_id": "ChIJOXIdBeUfAWAR0rdaCQJQxCM"
    },
    "大阪府大阪府大東市諸福５－１３－２５": {
      "normalized_address": "大阪府大阪府大東市諸福５－１３－２５",
      "raw_prefecture": "大阪府",
      "raw_address": "大阪府大東市諸福５－１３－２５",
      "status": "ok",
      "updated_at": "2026-03-28T03:28:53+00:00",
      "lat": 34.7051971,
      "lng": 135.5993824,
      "formatted_address": "5-chōme-13-25 Morofuku, Daito, Osaka 574-0044, Japan",
      "place_id": "ChIJOck7oh3gAGARMYb0hwhx-7o"
    },
    "大阪府大阪府大東市谷川１－１－１": {
      "normalized_address": "大阪府大阪府大東市谷川１－１－１",
      "raw_prefecture": "大阪府",
      "raw_address": "大阪府大東市谷川１－１－１",
      "status": "ok",
      "updated_at": "2026-03-28T03:28:54+00:00",
      "lat": 34.7120133,
      "lng": 135.6234349,
      "formatted_address": "1-chōme-1-1 Tanigawa, Daito, Osaka 574-8555, Japan",
      "place_id": "ChIJ-3lkxo0fAWARdn-D93LNPr8"
    },
    "大阪府大阪府大阪市中央区千日前２－１０－１": {
      "normalized_address": "大阪府大阪府大阪市中央区千日前２－１０－１",
      "raw_prefecture": "大阪府",
      "raw_address": "大阪府大阪市中央区千日前２－１０－１",
      "status": "ok",
      "updated_at": "2026-03-28T03:28:54+00:00",
      "lat": 34.6666466,
      "lng": 135.5025872,
      "formatted_address": "2-chōme-10-1 Sennichimae, Chuo Ward, Osaka, 542-0074, Japan",
      "place_id": "ChIJeY8GSWvnAGARDBOOgWZ90Is"
    },
    "大阪府大阪府大阪市住之江区北加賀屋３－５－５": {
      "normalized_address": "大阪府大阪府大阪市住之江区北加賀屋３－５－５",
      "raw_prefecture": "大阪府",
      "raw_address": "大阪府大阪市住之江区北加賀屋３－５－５",
      "status": "ok",
      "updated_at": "2026-03-28T03:28:54+00:00",
      "lat": 34.6236316,
      "lng": 135.4770705,
      "formatted_address": "3-chōme-5-5 Kitakagaya, Suminoe Ward, Osaka, 559-0011, Japan",
      "place_id": "ChIJ_Zg25m3dAGAR9Hs6mq1mdUI"
    },
    "大阪府大阪府大阪市住之江区泉１－１－１１１": {
      "normalized_address": "大阪府大阪府大阪市住之江区泉１－１－１１１",
      "raw_prefecture": "大阪府",
      "raw_address": "大阪府大阪市住之江区泉１－１－１１１",
      "status": "ok",
      "updated_at": "2026-03-28T03:28:55+00:00",
      "lat": 34.6126223,
      "lng": 135.4670005,
      "formatted_address": "Japan, 〒559-0023 Osaka, Suminoe Ward, Izumi, 1-chōme−1−１１１ 西南環境事業センター",
      "place_id": "ChIJvTotTD7dAGARNxW7PKLZ1V8"
    },
    "大阪府大阪府大阪市住吉区我孫子東２－６－２９": {
      "normalized_address": "大阪府大阪府大阪市住吉区我孫子東２－６－２９",
      "raw_prefecture": "大阪府",
      "raw_address": "大阪府大阪市住吉区我孫子東２－６－２９",
      "status": "ok",
      "updated_at": "2026-03-28T03:28:55+00:00",
      "lat": 34.6003747,
      "lng": 135.5125632,
      "formatted_address": "2-chōme-6-29 Abikohigashi, Sumiyoshi Ward, Osaka, 558-0013, Japan",
      "place_id": "ChIJIdRCJxbcAGARJS5dDJZWtyA"
    },
    "大阪府大阪府大阪市北区本庄西３－９－１０": {
      "normalized_address": "大阪府大阪府大阪市北区本庄西３－９－１０",
      "raw_prefecture": "大阪府",
      "raw_address": "大阪府大阪市北区本庄西３－９－１０",
      "status": "ok",
      "updated_at": "2026-03-28T03:28:55+00:00",
      "lat": 34.7144953,
      "lng": 135.5039928,
      "formatted_address": "3-chōme-9-10 Honjōnishi, Kita Ward, Osaka, 531-0073, Japan",
      "place_id": "ChIJ8TNI_pjmAGAR51me0oN3wUQ"
    },
    "大阪府大阪府大阪市城東区古市１－２２－１６": {
      "normalized_address": "大阪府大阪府大阪市城東区古市１－２２－１６",
      "raw_prefecture": "大阪府",
      "raw_address": "大阪府大阪市城東区古市１－２２－１６",
      "status": "ok",
      "updated_at": "2026-03-28T03:28:56+00:00",
      "lat": 34.7070217,
      "lng": 135.5597381,
      "formatted_address": "1-chōme-22-16 Furuichi, Joto Ward, Osaka, 536-0001, Japan",
      "place_id": "ChIJ9zEoz_7gAGARHZAMao18tU0"
    },
    "大阪府大阪府大阪市大正区小林西１－２０－２９": {
      "normalized_address": "大阪府大阪府大阪市大正区小林西１－２０－２９",
      "raw_prefecture": "大阪府",
      "raw_address": "大阪府大阪市大正区小林西１－２０－２９",
      "status": "ok",
      "updated_at": "2026-03-28T03:28:56+00:00",
      "lat": 34.645444,
      "lng": 135.4659307,
      "formatted_address": "Japan, 〒551-0013 Osaka, Taishō-ku, Kobayashinishi, 1-chōme−20−２９ 大阪市環境局西部環境事業センター",
      "place_id": "ChIJ6zxgeeznAGARe7GA9x8OxiY"
    },
    "大阪府大阪府大阪市平野区瓜破南１－３－４０": {
      "normalized_address": "大阪府大阪府大阪市平野区瓜破南１－３－４０",
      "raw_prefecture": "大阪府",
      "raw_address": "大阪府大阪市平野区瓜破南１－３－４０",
      "status": "ok",
      "updated_at": "2026-03-28T03:28:56+00:00",
      "lat": 34.5960896,
      "lng": 135.549587,
      "formatted_address": "Japan, 〒547-0023 Osaka, Hirano Ward, Uriwariminami, 1-chōme−3−４０ 大阪市環境局東南環境事業センター",
      "place_id": "ChIJ45BZ7DPZAGAR0juZlrQD9FE"
    },
    "大阪府大阪府大阪市平野区瓜破東２－５－４": {
      "normalized_address": "大阪府大阪府大阪市平野区瓜破東２－５－４",
      "raw_prefecture": "大阪府",
      "raw_address": "大阪府大阪市平野区瓜破東２－５－４",
      "status": "ok",
      "updated_at": "2026-03-28T03:28:57+00:00",
      "lat": 34.6089624,
      "lng": 135.5605206,
      "formatted_address": "2-chōme-5-4 Uriwarihigashi, Hirano Ward, Osaka, 547-0022, Japan",
      "place_id": "ChIJDxXHKtTeAGARICnjKRRvDY8"
    },
    "大阪府大阪府大阪市旭区大宮３－２０－２５": {
      "normalized_address": "大阪府大阪府大阪市旭区大宮３－２０－２５",
      "raw_prefecture": "大阪府",
      "raw_address": "大阪府大阪市旭区大宮３－２０－２５",
      "status": "ok",
      "updated_at": "2026-03-28T03:28:57+00:00",
      "lat": 34.7252495,
      "lng": 135.5493801,
      "formatted_address": "3-chōme-20-25 Ōmiya, Asahi-ku, Osaka, 535-0002, Japan",
      "place_id": "ChIJL_H4l2zhAGARRh9PtJIHIEo"
    },
    "大阪府大阪府大阪市東住吉区杭全１－６－２８": {
      "normalized_address": "大阪府大阪府大阪市東住吉区杭全１－６－２８",
      "raw_prefecture": "大阪府",
      "raw_address": "大阪府大阪市東住吉区杭全１－６－２８",
      "status": "ok",
      "updated_at": "2026-03-28T03:28:57+00:00",
      "lat": 34.6400236,
      "lng": 135.5356876,
      "formatted_address": "1-chōme-6-28 Kumata, Higashisumiyoshi Ward, Osaka, 546-0002, Japan",
      "place_id": "ChIJH709NW7eAGARTkkirfmmqiI"
    },
    "大阪府大阪府大阪市東住吉区鷹合３－３－１６": {
      "normalized_address": "大阪府大阪府大阪市東住吉区鷹合３－３－１６",
      "raw_prefecture": "大阪府",
      "raw_address": "大阪府大阪市東住吉区鷹合３－３－１６",
      "status": "ok",
      "updated_at": "2026-03-28T03:28:58+00:00",
      "lat": 34.6096864,
      "lng": 135.5284561,
      "formatted_address": "3-chōme-3-16 Takaai, Higashisumiyoshi Ward, Osaka, 546-0014, Japan",
      "place_id": "ChIJo1eZHp_eAGARo2TmIwe8kXA"
    },
    "大阪府大阪府大阪市東淀川区上新庄１－２－２０": {
      "normalized_address": "大阪府大阪府大阪市東淀川区上新庄１－２－２０",
      "raw_prefecture": "大阪府",
      "raw_address": "大阪府大阪市東淀川区上新庄１－２－２０",
      "status": "ok",
      "updated_at": "2026-03-28T03:28:58+00:00",
      "lat": 34.7455066,
      "lng": 135.5273735,
      "formatted_address": "Japan, 〒533-0006 Osaka, Higashiyodogawa Ward, Kamishinjō, 1-chōme−2−２０ 大阪市東北環境事業センター",
      "place_id": "ChIJxQx00_XjAGARNcKWnICmNiE"
    },
    "大阪府大阪府大阪市東淀川区大隅１－６－１２Ｂ１Ｆ": {
      "normalized_address": "大阪府大阪府大阪市東淀川区大隅１－６－１２Ｂ１Ｆ",
      "raw_prefecture": "大阪府",
      "raw_address": "大阪府大阪市東淀川区大隅１－６－１２Ｂ１Ｆ",
      "status": "ok",
      "updated_at": "2026-03-28T03:28:58+00:00",
      "lat": 34.7488041,
      "lng": 135.5426829,
      "formatted_address": "M.Bld, 1-chōme-6 Ōsumi, Higashiyodogawa Ward, Osaka, 533-0015, Japan",
      "place_id": "ChIJcyp1aujjAGARQnV0bFO_3sc"
    },
    "大阪府大阪府大阪市此花区朝日２－１８－５": {
      "normalized_address": "大阪府大阪府大阪市此花区朝日２－１８－５",
      "raw_prefecture": "大阪府",
      "raw_address": "大阪府大阪市此花区朝日２－１８－５",
      "status": "ok",
      "updated_at": "2026-03-28T03:28:59+00:00",
      "lat": 34.6853331,
      "lng": 135.4588311,
      "formatted_address": "2-chōme-18-5 Asahi, Konohana Ward, Osaka, 554-0011, Japan",
      "place_id": "ChIJ02UC2xnmAGARO2-nv3FcWDg"
    },
    "大阪府大阪府大阪市浪速区塩草２－１－１": {
      "normalized_address": "大阪府大阪府大阪市浪速区塩草２－１－１",
      "raw_prefecture": "大阪府",
      "raw_address": "大阪府大阪市浪速区塩草２－１－１",
      "status": "ok",
      "updated_at": "2026-03-28T03:28:59+00:00",
      "lat": 34.6600263,
      "lng": 135.4928728,
      "formatted_address": "2-chōme-1-1 Shiokusa, Naniwa Ward, Osaka, 556-0024, Japan",
      "place_id": "ChIJaTq5m3PnAGARPxsbNj7_O0Y"
    },
    "大阪府大阪府大阪市浪速区幸町１－３－１６": {
      "normalized_address": "大阪府大阪府大阪市浪速区幸町１－３－１６",
      "raw_prefecture": "大阪府",
      "raw_address": "大阪府大阪市浪速区幸町１－３－１６",
      "status": "ok",
      "updated_at": "2026-03-28T03:28:59+00:00",
      "lat": 34.6684365,
      "lng": 135.4924756,
      "formatted_address": "1-chōme-3-16 Saiwaichō, Naniwa Ward, Osaka, 556-0021, Japan",
      "place_id": "ChIJ__UP0g7nAGARUtDD9iy-bo8"
    },
    "大阪府大阪府大阪市淀川区西宮原２－７－１４": {
      "normalized_address": "大阪府大阪府大阪市淀川区西宮原２－７－１４",
      "raw_prefecture": "大阪府",
      "raw_address": "大阪府大阪市淀川区西宮原２－７－１４",
      "status": "ok",
      "updated_at": "2026-03-28T03:29:00+00:00",
      "lat": 34.7340164,
      "lng": 135.4908296,
      "formatted_address": "2-chōme-7-14 Nishimiyahara, Yodogawa Ward, Osaka, 532-0004, Japan",
      "place_id": "ChIJf9oIQUrkAGARcpOUz9g45qA"
    },
    "大阪府大阪府大阪市生野区巽中１－１－４": {
      "normalized_address": "大阪府大阪府大阪市生野区巽中１－１－４",
      "raw_prefecture": "大阪府",
      "raw_address": "大阪府大阪市生野区巽中１－１－４",
      "status": "ok",
      "updated_at": "2026-03-28T03:29:00+00:00",
      "lat": 34.6531239,
      "lng": 135.5487461,
      "formatted_address": "Japan, 〒544-0013 Osaka, Ikuno Ward, Tatsuminaka, 1-chōme−1−４ 大阪市東部環境事業センター",
      "place_id": "ChIJCam9Uj_eAGARFtMl5tHQpvs"
    },
    "大阪府大阪府大阪市西区北堀江１－５－４": {
      "normalized_address": "大阪府大阪府大阪市西区北堀江１－５－４",
      "raw_prefecture": "大阪府",
      "raw_address": "大阪府大阪市西区北堀江１－５－４",
      "status": "ok",
      "updated_at": "2026-03-28T03:29:00+00:00",
      "lat": 34.6737188,
      "lng": 135.4965299,
      "formatted_address": "1-chōme-5-4 Kitahorie, Nishi Ward, Osaka, 550-0014, Japan",
      "place_id": "ChIJ86IpTgXnAGARQOj4Xb_GhnE"
    },
    "大阪府大阪府大阪市西成区南津守５－５－２６": {
      "normalized_address": "大阪府大阪府大阪市西成区南津守５－５－２６",
      "raw_prefecture": "大阪府",
      "raw_address": "大阪府大阪市西成区南津守５－５－２６",
      "status": "ok",
      "updated_at": "2026-03-28T03:29:01+00:00",
      "lat": 34.6269202,
      "lng": 135.4777857,
      "formatted_address": "5-chōme-5-26 Minamitsumori, Nishinari Ward, Osaka, 557-0063, Japan",
      "place_id": "ChIJcxRz1G_dAGARnImR9IXCOC0"
    },
    "大阪府大阪府大阪市西淀川区大和田２－５－６６": {
      "normalized_address": "大阪府大阪府大阪市西淀川区大和田２－５－６６",
      "raw_prefecture": "大阪府",
      "raw_address": "大阪府大阪市西淀川区大和田２－５－６６",
      "status": "ok",
      "updated_at": "2026-03-28T03:29:01+00:00",
      "lat": 34.7035294,
      "lng": 135.4414063,
      "formatted_address": "Japan, 〒555-0032 Osaka, Nishiyodogawa Ward, Ōwada, 2-chōme−5−６６ 大阪市環境局・西北環境事業センター",
      "place_id": "ChIJHcEJIVvvAGARVh-fNKbaIcI"
    },
    "大阪府大阪府大阪市西淀川区歌島３－１－１": {
      "normalized_address": "大阪府大阪府大阪市西淀川区歌島３－１－１",
      "raw_prefecture": "大阪府",
      "raw_address": "大阪府大阪市西淀川区歌島３－１－１",
      "status": "ok",
      "updated_at": "2026-03-28T03:29:01+00:00",
      "lat": 34.712875,
      "lng": 135.461682,
      "formatted_address": "3-chōme-1-1 Utajima, Nishiyodogawa Ward, Osaka, 555-0021, Japan",
      "place_id": "ChIJL2U9_-7lAGAR5vjOQzwAmQI"
    },
    "大阪府大阪府大阪市都島区高倉町３－１１－４": {
      "normalized_address": "大阪府大阪府大阪市都島区高倉町３－１１－４",
      "raw_prefecture": "大阪府",
      "raw_address": "大阪府大阪市都島区高倉町３－１１－４",
      "status": "ok",
      "updated_at": "2026-03-28T03:29:01+00:00",
      "lat": 34.7200978,
      "lng": 135.5312038,
      "formatted_address": "3-chōme-11-4 Takakurachō, Miyakojima Ward, Osaka, 534-0011, Japan",
      "place_id": "ChIJ4bV9NEnhAGARh8huVgyctH4"
    },
    "大阪府大阪府大阪市鶴見区放出東１－３－２４": {
      "normalized_address": "大阪府大阪府大阪市鶴見区放出東１－３－２４",
      "raw_prefecture": "大阪府",
      "raw_address": "大阪府大阪市鶴見区放出東１－３－２４",
      "status": "ok",
      "updated_at": "2026-03-28T03:29:02+00:00",
      "lat": 34.6936747,
      "lng": 135.5598974,
      "formatted_address": "1-chōme-3-24 Hanatenhigashi, Tsurumi Ward, Osaka, 538-0044, Japan",
      "place_id": "ChIJB8vhzPTgAGARKzf98K1a7n8"
    },
    "大阪府大阪府大阪市鶴見区焼野２－１１－１": {
      "normalized_address": "大阪府大阪府大阪市鶴見区焼野２－１１－１",
      "raw_prefecture": "大阪府",
      "raw_address": "大阪府大阪市鶴見区焼野２－１１－１",
      "status": "ok",
      "updated_at": "2026-03-28T03:29:02+00:00",
      "lat": 34.7184151,
      "lng": 135.5843629,
      "formatted_address": "Japan, 〒538-0037 Osaka, Tsurumi Ward, Yakeno, 2-chōme−11−１ 環境事業センター",
      "place_id": "ChIJ78qiLTTgAGAR2-zpIUXhubg"
    },
    "大阪府大阪府大阪狭山市東池尻６－１６２２－１": {
      "normalized_address": "大阪府大阪府大阪狭山市東池尻６－１６２２－１",
      "raw_prefecture": "大阪府",
      "raw_address": "大阪府大阪狭山市東池尻６－１６２２－１",
      "status": "ok",
      "updated_at": "2026-03-28T03:29:02+00:00",
      "lat": 34.5176717,
      "lng": 135.5608019,
      "formatted_address": "6-chōme-1622-1 Higashiikejiri, Osakasayama, Osaka 589-0004, Japan",
      "place_id": "ChIJwSb9A3XXAGARhdvBFMxMgKg"
    },
    "大阪府大阪府大阪狭山市池之原２－１１０３－１": {
      "normalized_address": "大阪府大阪府大阪狭山市池之原２－１１０３－１",
      "raw_prefecture": "大阪府",
      "raw_address": "大阪府大阪狭山市池之原２－１１０３－１",
      "status": "ok",
      "updated_at": "2026-03-28T03:29:03+00:00",
      "lat": 34.5007757,
      "lng": 135.5468927,
      "formatted_address": "2-chōme-1103-1 Ikenohara, Osakasayama, Osaka 589-0031, Japan",
      "place_id": "ChIJ2V_EehfXAGARwxFTi3nnCnI"
    },
    "大阪府大阪府大阪狭山市狭山１－２３８４－１": {
      "normalized_address": "大阪府大阪府大阪狭山市狭山１－２３８４－１",
      "raw_prefecture": "大阪府",
      "raw_address": "大阪府大阪狭山市狭山１－２３８４－１",
      "status": "ok",
      "updated_at": "2026-03-28T03:29:03+00:00",
      "lat": 34.5037106,
      "lng": 135.5556395,
      "formatted_address": "1-chōme-2384-1 Sayama, Osakasayama, Osaka 589-0005, Japan",
      "place_id": "ChIJha8vfwXXAGARV8iriTa9YI4"
    },
    "大阪府大阪府守口市寺方本通１－６－２２": {
      "normalized_address": "大阪府大阪府守口市寺方本通１－６－２２",
      "raw_prefecture": "大阪府",
      "raw_address": "大阪府守口市寺方本通１－６－２２",
      "status": "ok",
      "updated_at": "2026-03-28T03:29:03+00:00",
      "lat": 34.7239092,
      "lng": 135.573477,
      "formatted_address": "1-chōme-6-22 Terakata Hondōri, Moriguchi, Osaka 570-0048, Japan",
      "place_id": "ChIJr-s8y7HhAGARipydNeOyUig"
    },
    "大阪府大阪府守口市金田町２－５５－６": {
      "normalized_address": "大阪府大阪府守口市金田町２－５５－６",
      "raw_prefecture": "大阪府",
      "raw_address": "大阪府守口市金田町２－５５－６",
      "status": "ok",
      "updated_at": "2026-03-28T03:29:04+00:00",
      "lat": 34.7596135,
      "lng": 135.5903625,
      "formatted_address": "2-chōme-55-6 Kindachō, Moriguchi, Osaka 570-0011, Japan",
      "place_id": "ChIJCRJT6_fhAGARyVn5QM1Ussg"
    },
    "大阪府大阪府富田林市大字甘南備２３４５": {
      "normalized_address": "大阪府大阪府富田林市大字甘南備２３４５",
      "raw_prefecture": "大阪府",
      "raw_address": "大阪府富田林市大字甘南備２３４５",
      "status": "ok",
      "updated_at": "2026-03-28T03:29:04+00:00",
      "lat": 34.457045,
      "lng": 135.6050481,
      "formatted_address": "2345 Kannabi, Tondabayashi, Osaka 584-0054, Japan",
      "place_id": "ChIJS0HDMHcqAWARhzyd8rL7jZA"
    },
    "大阪府大阪府富田林市常盤町１－１": {
      "normalized_address": "大阪府大阪府富田林市常盤町１－１",
      "raw_prefecture": "大阪府",
      "raw_address": "大阪府富田林市常盤町１－１",
      "status": "ok",
      "updated_at": "2026-03-28T03:29:04+00:00",
      "lat": 34.49983539999999,
      "lng": 135.5973052,
      "formatted_address": "1-1 Tokiwachō, Tondabayashi, Osaka 584-0032, Japan",
      "place_id": "ChIJqdH-FCHWAGARGgbuBAgWH6o"
    },
    "大阪府大阪府富田林市若松町西３－１５５８－３": {
      "normalized_address": "大阪府大阪府富田林市若松町西３－１５５８－３",
      "raw_prefecture": "大阪府",
      "raw_address": "大阪府富田林市若松町西３－１５５８－３",
      "status": "ok",
      "updated_at": "2026-03-28T03:29:05+00:00",
      "lat": 34.5105617,
      "lng": 135.602519,
      "formatted_address": "3-chōme-1558-3 Wakamatsuchōnishi, Tondabayashi, Osaka 584-0025, Japan",
      "place_id": "ChIJSxknTtYpAWARLtjdogjdzyo"
    },
    "大阪府大阪府富田林市藤沢台６－２－１０": {
      "normalized_address": "大阪府大阪府富田林市藤沢台６－２－１０",
      "raw_prefecture": "大阪府",
      "raw_address": "大阪府富田林市藤沢台６－２－１０",
      "status": "ok",
      "updated_at": "2026-03-28T03:29:05+00:00",
      "lat": 34.5064405,
      "lng": 135.5730089,
      "formatted_address": "Japan, 〒584-0071 Osaka, Tondabayashi, Fujisawadai, 6-chōme−2−１０ サンライズ藤沢A",
      "place_id": "ChIJiTMIbrLXAGARmnKQ7bt2zJw"
    },
    "大阪府大阪府寝屋川市緑町２－２": {
      "normalized_address": "大阪府大阪府寝屋川市緑町２－２",
      "raw_prefecture": "大阪府",
      "raw_address": "大阪府寝屋川市緑町２－２",
      "status": "ok",
      "updated_at": "2026-03-28T03:29:05+00:00",
      "lat": 34.77355319999999,
      "lng": 135.6258299,
      "formatted_address": "2-2 Midorimachi, Neyagawa, Osaka 572-0022, Japan",
      "place_id": "ChIJl4snwnYeAWARU8QMiQ_zpMA"
    },
    "大阪府大阪府岸和田市土生町２－４－３０": {
      "normalized_address": "大阪府大阪府岸和田市土生町２－４－３０",
      "raw_prefecture": "大阪府",
      "raw_address": "大阪府岸和田市土生町２－４－３０",
      "status": "ok",
      "updated_at": "2026-03-28T03:29:06+00:00",
      "lat": 34.4516763,
      "lng": 135.3781876,
      "formatted_address": "Japan, 〒596-0825 Osaka, Kishiwada, Habuchō, 2-chōme−4−３０ 環境整備事務所",
      "place_id": "ChIJocasIf_FAGARzWB9xvYfXqI"
    },
    "大阪府大阪府岸和田市西之内町６２－３": {
      "normalized_address": "大阪府大阪府岸和田市西之内町６２－３",
      "raw_prefecture": "大阪府",
      "raw_address": "大阪府岸和田市西之内町６２－３",
      "status": "ok",
      "updated_at": "2026-03-28T03:29:06+00:00",
      "lat": 34.4637657,
      "lng": 135.3939102,
      "formatted_address": "62-3 Nishinouchichō, Kishiwada, Osaka 596-0044, Japan",
      "place_id": "ChIJsY2oKI3FAGARsISHcEO_WDk"
    },
    "大阪府大阪府摂津市千里丘６－１－２": {
      "normalized_address": "大阪府大阪府摂津市千里丘６－１－２",
      "raw_prefecture": "大阪府",
      "raw_address": "大阪府摂津市千里丘６－１－２",
      "status": "ok",
      "updated_at": "2026-03-28T03:29:06+00:00",
      "lat": 34.7867311,
      "lng": 135.541023,
      "formatted_address": "6-chōme-1-2 Senrioka, Settsu, Osaka 566-0001, Japan",
      "place_id": "ChIJh-UXd2zjAGAR68v5Yqzn-tY"
    },
    "大阪府大阪府摂津市学園町１－７－５３": {
      "normalized_address": "大阪府大阪府摂津市学園町１－７－５３",
      "raw_prefecture": "大阪府",
      "raw_address": "大阪府摂津市学園町１－７－５３",
      "status": "ok",
      "updated_at": "2026-03-28T03:29:07+00:00",
      "lat": 34.7857642,
      "lng": 135.562314,
      "formatted_address": "1-chōme-7-53 Gakuenchō, Settsu, Osaka 566-0033, Japan",
      "place_id": "ChIJNSt5zQHjAGARTh5582t2sE4"
    },
    "大阪府大阪府摂津市鶴野１－３－１環境センター内２Ｆ": {
      "normalized_address": "大阪府大阪府摂津市鶴野１－３－１環境センター内２Ｆ",
      "raw_prefecture": "大阪府",
      "raw_address": "大阪府摂津市鶴野１－３－１環境センター内２Ｆ",
      "status": "ok",
      "updated_at": "2026-03-28T03:29:07+00:00",
      "lat": 34.77609959999999,
      "lng": 135.5643522,
      "formatted_address": "Japan, 〒566-0035 Osaka, Settsu, Tsuruno, 1-chōme−3−１ 環境センター 1",
      "place_id": "ElJKYXBhbiwg44CSNTY2LTAwMzUgT3Nha2EsIFNldHRzdSwgVHN1cnVubywgMS1jaMWNbWXiiJIz4oiS77yRIOeSsOWig-OCu-ODs-OCv-ODvCAxIh0aGwoWChQKEgmRF4SXUuIAYBFwftoK_MRGzhIBMQ"
    },
    "大阪府大阪府東大阪市中小阪４－７－６０": {
      "normalized_address": "大阪府大阪府東大阪市中小阪４－７－６０",
      "raw_prefecture": "大阪府",
      "raw_address": "大阪府東大阪市中小阪４－７－６０",
      "status": "ok",
      "updated_at": "2026-03-28T03:29:07+00:00",
      "lat": 34.6578638,
      "lng": 135.5933434,
      "formatted_address": "4-chōme-7-60 Nakakosaka, Higashiosaka, Osaka 577-0804, Japan",
      "place_id": "ChIJqeJbB4PfAGARKPDy89QQ9U8"
    },
    "大阪府大阪府東大阪市中石切町６－３－５２": {
      "normalized_address": "大阪府大阪府東大阪市中石切町６－３－５２",
      "raw_prefecture": "大阪府",
      "raw_address": "大阪府東大阪市中石切町６－３－５２",
      "status": "ok",
      "updated_at": "2026-03-28T03:29:07+00:00",
      "lat": 34.690466,
      "lng": 135.6348993,
      "formatted_address": "6-chōme-3-52 Nakaishikirichō, Higashiosaka, Osaka 579-8014, Japan",
      "place_id": "ChIJx7kiOEogAWAR6EeGQcG5yOw"
    },
    "大阪府大阪府東大阪市中鴻池町２－３－１３": {
      "normalized_address": "大阪府大阪府東大阪市中鴻池町２－３－１３",
      "raw_prefecture": "大阪府",
      "raw_address": "大阪府東大阪市中鴻池町２－３－１３",
      "status": "ok",
      "updated_at": "2026-03-28T03:29:08+00:00",
      "lat": 34.6979552,
      "lng": 135.6046525,
      "formatted_address": "Japan, 〒578-0972 Osaka, Higashiosaka, Kōnoikechō, 2-chōme−3 レオパレス鴻池",
      "place_id": "ChIJBXM7JP8fAWARqkDRsRdn26E"
    },
    "大阪府大阪府東大阪市五条町９－４５": {
      "normalized_address": "大阪府大阪府東大阪市五条町９－４５",
      "raw_prefecture": "大阪府",
      "raw_address": "大阪府東大阪市五条町９－４５",
      "status": "ok",
      "updated_at": "2026-03-28T03:29:08+00:00",
      "lat": 34.6671974,
      "lng": 135.6486813,
      "formatted_address": "Japan, 〒579-8042 Osaka, Higashiosaka, Gojōchō, 9−４５ 東大阪市立五条老人センター",
      "place_id": "ChIJ518wTRchAWARy_976d9f7Z4"
    },
    "大阪府大阪府東大阪市南四条町１－７": {
      "normalized_address": "大阪府大阪府東大阪市南四条町１－７",
      "raw_prefecture": "大阪府",
      "raw_address": "大阪府東大阪市南四条町１－７",
      "status": "ok",
      "updated_at": "2026-03-28T03:29:08+00:00",
      "lat": 34.65809240000001,
      "lng": 135.6407308,
      "formatted_address": "1-7 Minamishijōchō, Higashiosaka, Osaka 579-8054, Japan",
      "place_id": "ChIJyZx1NSAhAWAR7tJh72PW2QE"
    },
    "大阪府大阪府東大阪市南四条町２－１９": {
      "normalized_address": "大阪府大阪府東大阪市南四条町２－１９",
      "raw_prefecture": "大阪府",
      "raw_address": "大阪府東大阪市南四条町２－１９",
      "status": "ok",
      "updated_at": "2026-03-28T03:29:09+00:00",
      "lat": 34.657304,
      "lng": 135.6399626,
      "formatted_address": "2-19 Minamishijōchō, Higashiosaka, Osaka 579-8054, Japan",
      "place_id": "ChIJ0W6PQyAhAWARYYgIS1oPOAM"
    },
    "大阪府大阪府東大阪市吉田下島４－３４": {
      "normalized_address": "大阪府大阪府東大阪市吉田下島４－３４",
      "raw_prefecture": "大阪府",
      "raw_address": "大阪府東大阪市吉田下島４－３４",
      "status": "ok",
      "updated_at": "2026-03-28T03:29:09+00:00",
      "lat": 34.6713509,
      "lng": 135.6201161,
      "formatted_address": "4-34 Yoshitashimojima, Higashiosaka, Osaka 578-0983, Japan",
      "place_id": "ChIJ2QEkG14gAWAR7YebfFMppYI"
    },
    "大阪府大阪府東大阪市吉田４－３－２０": {
      "normalized_address": "大阪府大阪府東大阪市吉田４－３－２０",
      "raw_prefecture": "大阪府",
      "raw_address": "大阪府東大阪市吉田４－３－２０",
      "status": "ok",
      "updated_at": "2026-03-28T03:29:09+00:00",
      "lat": 34.6710083,
      "lng": 135.6217138,
      "formatted_address": "4-chōme-3-20 Yoshita, Higashiosaka, Osaka 578-0924, Japan",
      "place_id": "ChIJT4BRV14gAWARlRF-YvqucJ4"
    },
    "大阪府大阪府東大阪市小阪２－１２－１０": {
      "normalized_address": "大阪府大阪府東大阪市小阪２－１２－１０",
      "raw_prefecture": "大阪府",
      "raw_address": "大阪府東大阪市小阪２－１２－１０",
      "status": "ok",
      "updated_at": "2026-03-28T03:29:10+00:00",
      "lat": 34.6638617,
      "lng": 135.5863509,
      "formatted_address": "2-chōme-12-10 Kosaka, Higashiosaka, Osaka 577-0801, Japan",
      "place_id": "ChIJydDvzpbfAGARby4K3So0aFk"
    },
    "大阪府大阪府東大阪市岩田町４－３－２２": {
      "normalized_address": "大阪府大阪府東大阪市岩田町４－３－２２",
      "raw_prefecture": "大阪府",
      "raw_address": "大阪府東大阪市岩田町４－３－２２",
      "status": "ok",
      "updated_at": "2026-03-28T03:29:10+00:00",
      "lat": 34.66352930000001,
      "lng": 135.6078292,
      "formatted_address": "4-chōme-3-22 Iwatachō, Higashiosaka, Osaka 578-0941, Japan",
      "place_id": "ChIJU3T1Bn0gAWARNLscGwHnbB0"
    },
    "大阪府大阪府東大阪市岩田町６－１－１": {
      "normalized_address": "大阪府大阪府東大阪市岩田町６－１－１",
      "raw_prefecture": "大阪府",
      "raw_address": "大阪府東大阪市岩田町６－１－１",
      "status": "ok",
      "updated_at": "2026-03-28T03:29:10+00:00",
      "lat": 34.6693505,
      "lng": 135.606729,
      "formatted_address": "Japan, 〒578-0941 Osaka, Higashiosaka, Iwatachō, 6-chōme−1−１ 環境部美化推進課",
      "place_id": "ChIJ_24ea3ogAWARxM7xmnocqPM"
    },
    "大阪府大阪府東大阪市日下町３－１－７": {
      "normalized_address": "大阪府大阪府東大阪市日下町３－１－７",
      "raw_prefecture": "大阪府",
      "raw_address": "大阪府東大阪市日下町３－１－７",
      "status": "ok",
      "updated_at": "2026-03-28T03:29:10+00:00",
      "lat": 34.6923634,
      "lng": 135.6597892,
      "formatted_address": "Kusakacho, Higashiosaka, Osaka 579-8003, Japan",
      "place_id": "ChIJ2Q8EoqIhAWARJ2uV2P8oXRY"
    },
    "大阪府大阪府東大阪市楠根１－１２－１２": {
      "normalized_address": "大阪府大阪府東大阪市楠根１－１２－１２",
      "raw_prefecture": "大阪府",
      "raw_address": "大阪府東大阪市楠根１－１２－１２",
      "status": "ok",
      "updated_at": "2026-03-28T03:29:11+00:00",
      "lat": 34.6833836,
      "lng": 135.5819082,
      "formatted_address": "Japan, 〒577-0006 Osaka, Higashiosaka, Kusune, 1-chōme−12−１２ 東大阪市楠根行政サービスセンター",
      "place_id": "ChIJH81tgODfAGARpUoRYOLt7Jo"
    },
    "大阪府大阪府東大阪市水走４－６－２５": {
      "normalized_address": "大阪府大阪府東大阪市水走４－６－２５",
      "raw_prefecture": "大阪府",
      "raw_address": "大阪府東大阪市水走４－６－２５",
      "status": "ok",
      "updated_at": "2026-03-28T03:29:11+00:00",
      "lat": 34.6857077,
      "lng": 135.6314547,
      "formatted_address": "4-chōme-6-25 Mizuhai, Higashiosaka, Osaka 578-0921, Japan",
      "place_id": "ChIJDSc41k4gAWAREqLtJNAmXTI"
    },
    "大阪府大阪府東大阪市渋川町２－１２－８": {
      "normalized_address": "大阪府大阪府東大阪市渋川町２－１２－８",
      "raw_prefecture": "大阪府",
      "raw_address": "大阪府東大阪市渋川町２－１２－８",
      "status": "ok",
      "updated_at": "2026-03-28T03:29:11+00:00",
      "lat": 34.6472578,
      "lng": 135.5613757,
      "formatted_address": "Japan, 〒577-0836 Osaka, Higashiosaka, Shibukawachō, 2-chōme−12−８ 西部環境事業所",
      "place_id": "ChIJTYSOHVPeAGAR6ifweVgMM0g"
    },
    "大阪府大阪府枚方市北船橋町３２": {
      "normalized_address": "大阪府大阪府枚方市北船橋町３２",
      "raw_prefecture": "大阪府",
      "raw_address": "大阪府枚方市北船橋町３２",
      "status": "ok",
      "updated_at": "2026-03-28T03:29:12+00:00",
      "lat": 34.8550683,
      "lng": 135.6831824,
      "formatted_address": "32 Kitafunahashichō, Hirakata, Osaka 573-1117, Japan",
      "place_id": "ChIJ5zXSCGcbAWARE2zkc1Iahg8"
    },
    "大阪府大阪府枚方市東田宮１－１３－１７": {
      "normalized_address": "大阪府大阪府枚方市東田宮１－１３－１７",
      "raw_prefecture": "大阪府",
      "raw_address": "大阪府枚方市東田宮１－１３－１７",
      "status": "ok",
      "updated_at": "2026-03-28T03:29:12+00:00",
      "lat": 34.8072132,
      "lng": 135.6528863,
      "formatted_address": "1-chōme-13-17 Higashitamiya, Hirakata, Osaka 573-0023, Japan",
      "place_id": "ChIJTz9sqkAcAWAR1hHAHblERvA"
    },
    "大阪府大阪府枚方市田口４－２６": {
      "normalized_address": "大阪府大阪府枚方市田口４－２６",
      "raw_prefecture": "大阪府",
      "raw_address": "大阪府枚方市田口４－２６",
      "status": "ok",
      "updated_at": "2026-03-28T03:29:12+00:00",
      "lat": 34.8246948,
      "lng": 135.6815929,
      "formatted_address": "4 Chome-26 Taguchi, Hirakata, Osaka 573-1162, Japan",
      "place_id": "ChIJD1f7AowbAWARsljoaASNPkg"
    },
    "大阪府大阪府柏原市安堂町１－５５": {
      "normalized_address": "大阪府大阪府柏原市安堂町１－５５",
      "raw_prefecture": "大阪府",
      "raw_address": "大阪府柏原市安堂町１－５５",
      "status": "ok",
      "updated_at": "2026-03-28T03:29:13+00:00",
      "lat": 34.5793176,
      "lng": 135.6286809,
      "formatted_address": "1-55 Andōchō, Kashiwara, Osaka 582-0016, Japan",
      "place_id": "ChIJxf92JMYnAWAR2brhsnxwhsE"
    },
    "大阪府大阪府池田市井口堂１－１２－２": {
      "normalized_address": "大阪府大阪府池田市井口堂１－１２－２",
      "raw_prefecture": "大阪府",
      "raw_address": "大阪府池田市井口堂１－１２－２",
      "status": "ok",
      "updated_at": "2026-03-28T03:29:13+00:00",
      "lat": 34.8120791,
      "lng": 135.4411002,
      "formatted_address": "1-chōme-12-2 Iguchidō, Ikeda, Osaka 563-0023, Japan",
      "place_id": "ChIJNyS995nwAGARo0DTQFZiBfE"
    },
    "大阪府大阪府池田市天神２－３－８": {
      "normalized_address": "大阪府大阪府池田市天神２－３－８",
      "raw_prefecture": "大阪府",
      "raw_address": "大阪府池田市天神２－３－８",
      "status": "ok",
      "updated_at": "2026-03-28T03:29:13+00:00",
      "lat": 34.8079516,
      "lng": 135.4420474,
      "formatted_address": "2-chōme-3-8 Tenjin, Ikeda, Osaka 563-0031, Japan",
      "place_id": "ChIJARjQMoXwAGARQ-n8rf9_OAE"
    },
    "大阪府大阪府河内長野市上原町８７４": {
      "normalized_address": "大阪府大阪府河内長野市上原町８７４",
      "raw_prefecture": "大阪府",
      "raw_address": "大阪府河内長野市上原町８７４",
      "status": "ok",
      "updated_at": "2026-03-28T03:29:13+00:00",
      "lat": 34.4471773,
      "lng": 135.5562662,
      "formatted_address": "874 Uwaharachō, Kawachinagano, Osaka 586-0037, Japan",
      "place_id": "ChIJ2UqTJTHUAGAR_Ezc3slxwZU"
    },
    "大阪府大阪府河内長野市原町１－１－１": {
      "normalized_address": "大阪府大阪府河内長野市原町１－１－１",
      "raw_prefecture": "大阪府",
      "raw_address": "大阪府河内長野市原町１－１－１",
      "status": "ok",
      "updated_at": "2026-03-28T03:29:14+00:00",
      "lat": 34.4583766,
      "lng": 135.5636973,
      "formatted_address": "1-chōme-1-1 Harachō, Kawachinagano, Osaka 586-0021, Japan",
      "place_id": "ChIJC7PHRNPVAGARw43KySvG-AE"
    },
    "大阪府大阪府河内長野市日野１５６４－３": {
      "normalized_address": "大阪府大阪府河内長野市日野１５６４－３",
      "raw_prefecture": "大阪府",
      "raw_address": "大阪府河内長野市日野１５６４－３",
      "status": "ok",
      "updated_at": "2026-03-28T03:29:14+00:00",
      "lat": 34.4044661,
      "lng": 135.5286469,
      "formatted_address": "1564-3 Hino, Kawachinagano, Osaka 586-0085, Japan",
      "place_id": "ChIJh2vyDYPUAGARCjyfonL0EXk"
    },
    "大阪府大阪府泉佐野市りんくう往来南３りんくうプレジャータウンシークル１Ｆ": {
      "normalized_address": "大阪府大阪府泉佐野市りんくう往来南３りんくうプレジャータウンシークル１Ｆ",
      "raw_prefecture": "大阪府",
      "raw_address": "大阪府泉佐野市りんくう往来南３りんくうプレジャータウンシークル１Ｆ",
      "status": "ok",
      "updated_at": "2026-03-28T03:29:14+00:00",
      "lat": 34.4088471,
      "lng": 135.2974153,
      "formatted_address": "Japan, 〒598-0047 大阪府泉佐野市りんくう往来南３",
      "place_id": "ChIJU4kOZ_63AGAR-agfP-UmX9A"
    },
    "大阪府大阪府泉佐野市葵町３－６－５０": {
      "normalized_address": "大阪府大阪府泉佐野市葵町３－６－５０",
      "raw_prefecture": "大阪府",
      "raw_address": "大阪府泉佐野市葵町３－６－５０",
      "status": "ok",
      "updated_at": "2026-03-28T03:29:15+00:00",
      "lat": 34.3988975,
      "lng": 135.3173698,
      "formatted_address": "3-chōme-6-50 Aoichō, Izumisano, Osaka 598-0014, Japan",
      "place_id": "ChIJTbwfsTjIAGARFfzIWSyco7A"
    },
    "大阪府大阪府泉佐野市高松南３－５－２３": {
      "normalized_address": "大阪府大阪府泉佐野市高松南３－５－２３",
      "raw_prefecture": "大阪府",
      "raw_address": "大阪府泉佐野市高松南３－５－２３",
      "status": "ok",
      "updated_at": "2026-03-28T03:29:15+00:00",
      "lat": 34.4016705,
      "lng": 135.307684,
      "formatted_address": "3-chōme-5-23 Takamatsuminami, Izumisano, Osaka 598-0015, Japan",
      "place_id": "ChIJ1bdfyhnIAGARHVm4x7e6pYg"
    },
    "大阪府大阪府泉大津市北豊中町３－１－１": {
      "normalized_address": "大阪府大阪府泉大津市北豊中町３－１－１",
      "raw_prefecture": "大阪府",
      "raw_address": "大阪府泉大津市北豊中町３－１－１",
      "status": "ok",
      "updated_at": "2026-03-28T03:29:15+00:00",
      "lat": 34.4945411,
      "lng": 135.4260063,
      "formatted_address": "3-chōme-1-1 Kitatoyonakachō, Izumiotsu, Osaka 595-0012, Japan",
      "place_id": "ChIJg9LTTRHFAGARRhzzhVxU-28"
    },
    "大阪府大阪府泉大津市池園町７－１１": {
      "normalized_address": "大阪府大阪府泉大津市池園町７－１１",
      "raw_prefecture": "大阪府",
      "raw_address": "大阪府泉大津市池園町７－１１",
      "status": "ok",
      "updated_at": "2026-03-28T03:29:15+00:00",
      "lat": 34.5071575,
      "lng": 135.4229301,
      "formatted_address": "7-11 Ikezonochō, Izumiotsu, Osaka 595-0017, Japan",
      "place_id": "ChIJ29Lq6-LEAGARPiRTymIx2ak"
    },
    "大阪府大阪府箕面市牧落４－１－２７": {
      "normalized_address": "大阪府大阪府箕面市牧落４－１－２７",
      "raw_prefecture": "大阪府",
      "raw_address": "大阪府箕面市牧落４－１－２７",
      "status": "ok",
      "updated_at": "2026-03-28T03:29:16+00:00",
      "lat": 34.8215422,
      "lng": 135.472988,
      "formatted_address": "4-chōme-1-27 Makiochi, Minoh, Osaka 562-0004, Japan",
      "place_id": "ChIJSWtLpFz6AGARI38NQyndrzA"
    },
    "大阪府大阪府箕面市西宿２－１－１１": {
      "normalized_address": "大阪府大阪府箕面市西宿２－１－１１",
      "raw_prefecture": "大阪府",
      "raw_address": "大阪府箕面市西宿２－１－１１",
      "status": "ok",
      "updated_at": "2026-03-28T03:29:16+00:00",
      "lat": 34.8300583,
      "lng": 135.4901034,
      "formatted_address": "2-chōme-1-11 Nishijuku, Minoh, Osaka 562-0034, Japan",
      "place_id": "ChIJpTLBgK37AGARDVZNbXQC09s"
    },
    "大阪府大阪府羽曳野市古市７－９－９": {
      "normalized_address": "大阪府大阪府羽曳野市古市７－９－９",
      "raw_prefecture": "大阪府",
      "raw_address": "大阪府羽曳野市古市７－９－９",
      "status": "ok",
      "updated_at": "2026-03-28T03:29:16+00:00",
      "lat": 34.5438656,
      "lng": 135.6085799,
      "formatted_address": "7-chōme-9-9 Furuichi, Habikino, Osaka 583-0852, Japan",
      "place_id": "ChIJ3z5wWRooAWARnKRuncZ8ObA"
    },
    "大阪府大阪府羽曳野市恵我之荘６－２２－２": {
      "normalized_address": "大阪府大阪府羽曳野市恵我之荘６－２２－２",
      "raw_prefecture": "大阪府",
      "raw_address": "大阪府羽曳野市恵我之荘６－２２－２",
      "status": "ok",
      "updated_at": "2026-03-28T03:29:17+00:00",
      "lat": 34.5768141,
      "lng": 135.5671061,
      "formatted_address": "Japan, 〒583-0886 Osaka, Habikino, Eganoshō, 6-chōme−22−２ バイクショップスティブル",
      "place_id": "ChIJSZbuBPzYAGARJLlZetjmrtc"
    },
    "大阪府大阪府羽曳野市誉田４－１－１": {
      "normalized_address": "大阪府大阪府羽曳野市誉田４－１－１",
      "raw_prefecture": "大阪府",
      "raw_address": "大阪府羽曳野市誉田４－１－１",
      "status": "ok",
      "updated_at": "2026-03-28T03:29:17+00:00",
      "lat": 34.5581392,
      "lng": 135.606179,
      "formatted_address": "4-chōme-1-1 Konda, Habikino, Osaka 583-0857, Japan",
      "place_id": "ChIJ25a4EfwnAWAR9zptqennyQ0"
    },
    "大阪府大阪府羽曳野市野々上２－１２－１": {
      "normalized_address": "大阪府大阪府羽曳野市野々上２－１２－１",
      "raw_prefecture": "大阪府",
      "raw_address": "大阪府羽曳野市野々上２－１２－１",
      "status": "ok",
      "updated_at": "2026-03-28T03:29:17+00:00",
      "lat": 34.5592093,
      "lng": 135.5942488,
      "formatted_address": "2-chōme-12-1 Nonoue, Habikino, Osaka 583-0871, Japan",
      "place_id": "ChIJA5UyEA_YAGARDUr38GRU-zw"
    },
    "大阪府大阪府茨木市大池１－１１－２８": {
      "normalized_address": "大阪府大阪府茨木市大池１－１１－２８",
      "raw_prefecture": "大阪府",
      "raw_address": "大阪府茨木市大池１－１１－２８",
      "status": "ok",
      "updated_at": "2026-03-28T03:29:18+00:00",
      "lat": 34.8108741,
      "lng": 135.5772288,
      "formatted_address": "1-chōme-11-28 Ōike, Ibaraki, Osaka 567-0826, Japan",
      "place_id": "ChIJ_TvWYsHiAGARzNJF40jqH5Y"
    },
    "大阪府大阪府茨木市松ケ本町９－３３": {
      "normalized_address": "大阪府大阪府茨木市松ケ本町９－３３",
      "raw_prefecture": "大阪府",
      "raw_address": "大阪府茨木市松ケ本町９－３３",
      "status": "ok",
      "updated_at": "2026-03-28T03:29:18+00:00",
      "lat": 34.809183,
      "lng": 135.5578038,
      "formatted_address": "9-33 Matsugamotochō, Ibaraki, Osaka 567-0033, Japan",
      "place_id": "ChIJTbJLNi_jAGARNfHhkzZR-xY"
    },
    "大阪府大阪府藤井寺市岡１－１－１藤井寺市役所": {
      "normalized_address": "大阪府大阪府藤井寺市岡１－１－１藤井寺市役所",
      "raw_prefecture": "大阪府",
      "raw_address": "大阪府藤井寺市岡１－１－１藤井寺市役所",
      "status": "ok",
      "updated_at": "2026-03-28T03:29:18+00:00",
      "lat": 34.5743447,
      "lng": 135.5975073,
      "formatted_address": "1-chōme-1-1 Oka, Fujiidera, Osaka 583-8583, Japan",
      "place_id": "ChIJ6yjZ5XbYAGARTr7kB8kAIIQ"
    },
    "大阪府大阪府豊中市三和町２－７－５５": {
      "normalized_address": "大阪府大阪府豊中市三和町２－７－５５",
      "raw_prefecture": "大阪府",
      "raw_address": "大阪府豊中市三和町２－７－５５",
      "status": "ok",
      "updated_at": "2026-03-28T03:29:18+00:00",
      "lat": 34.740599,
      "lng": 135.4784346,
      "formatted_address": "2-chōme-7-55 Sanwachō, Toyonaka, Osaka 561-0828, Japan",
      "place_id": "ChIJAbM-rKjlAGARrAdwrFvCF88"
    },
    "大阪府大阪府豊中市上新田１－８５－３": {
      "normalized_address": "大阪府大阪府豊中市上新田１－８５－３",
      "raw_prefecture": "大阪府",
      "raw_address": "大阪府豊中市上新田１－８５－３",
      "status": "ok",
      "updated_at": "2026-03-28T03:29:19+00:00",
      "lat": 34.8023909,
      "lng": 135.4936229,
      "formatted_address": "1-chōme-85-3 Kamishinden, Toyonaka, Osaka 560-0085, Japan",
      "place_id": "ChIJff9qtyP7AGAR7f4hdQaqKmI"
    },
    "大阪府大阪府豊中市中桜塚２－１４－１": {
      "normalized_address": "大阪府大阪府豊中市中桜塚２－１４－１",
      "raw_prefecture": "大阪府",
      "raw_address": "大阪府豊中市中桜塚２－１４－１",
      "status": "ok",
      "updated_at": "2026-03-28T03:29:19+00:00",
      "lat": 34.7815958,
      "lng": 135.4690295,
      "formatted_address": "2-chōme-14-1 Nakasakurazuka, Toyonaka, Osaka 561-0881, Japan",
      "place_id": "ChIJtyrt3cn6AGARf6SoWw7V-kM"
    },
    "大阪府大阪府豊中市原田西町２－２－２": {
      "normalized_address": "大阪府大阪府豊中市原田西町２－２－２",
      "raw_prefecture": "大阪府",
      "raw_address": "大阪府豊中市原田西町２－２－２",
      "status": "ok",
      "updated_at": "2026-03-28T03:29:19+00:00",
      "lat": 34.7701284,
      "lng": 135.4451923,
      "formatted_address": "2-2-2 Harada Nishimachi, Toyonaka, Osaka 561-0806, Japan",
      "place_id": "ChIJ5Qa7pwbwAGARnEVN9zmRDRA"
    },
    "大阪府大阪府豊中市庄内栄町４－１１－２０": {
      "normalized_address": "大阪府大阪府豊中市庄内栄町４－１１－２０",
      "raw_prefecture": "大阪府",
      "raw_address": "大阪府豊中市庄内栄町４－１１－２０",
      "status": "ok",
      "updated_at": "2026-03-28T03:29:20+00:00",
      "lat": 34.7469121,
      "lng": 135.4676368,
      "formatted_address": "4-chōme-11-20 Shōnaisakaemachi, Toyonaka, Osaka 561-0834, Japan",
      "place_id": "ChIJiVRE3HLlAGARoAL64kFElgI"
    },
    "大阪府大阪府豊中市服部南町１－７－１３": {
      "normalized_address": "大阪府大阪府豊中市服部南町１－７－１３",
      "raw_prefecture": "大阪府",
      "raw_address": "大阪府豊中市服部南町１－７－１３",
      "status": "ok",
      "updated_at": "2026-03-28T03:29:20+00:00",
      "lat": 34.7609832,
      "lng": 135.4763959,
      "formatted_address": "1-chōme-7-13 Hattori Minamimachi, Toyonaka, Osaka 561-0853, Japan",
      "place_id": "ChIJzRUPxRflAGAR7yDW7Z-6Ia8"
    },
    "大阪府大阪府豊中市東寺内町１０－３６－１０２": {
      "normalized_address": "大阪府大阪府豊中市東寺内町１０－３６－１０２",
      "raw_prefecture": "大阪府",
      "raw_address": "大阪府豊中市東寺内町１０－３６－１０２",
      "status": "ok",
      "updated_at": "2026-03-28T03:29:20+00:00",
      "lat": 34.7722373,
      "lng": 135.495829,
      "formatted_address": "10-36-102 Higashiterauchichō, Toyonaka, Osaka 561-0871, Japan",
      "place_id": "ChIJJbswPd3kAGARIQKDE4SfiMk"
    },
    "大阪府大阪府豊中市西緑丘１－１－３５": {
      "normalized_address": "大阪府大阪府豊中市西緑丘１－１－３５",
      "raw_prefecture": "大阪府",
      "raw_address": "大阪府豊中市西緑丘１－１－３５",
      "status": "ok",
      "updated_at": "2026-03-28T03:29:21+00:00",
      "lat": 34.8092241,
      "lng": 135.4732942,
      "formatted_address": "1-chōme-1-35 Nishimidorigaoka, Toyonaka, Osaka 560-0005, Japan",
      "place_id": "ChIJGcc2APT6AGARNoHlBh0hXGM"
    },
    "大阪府大阪府豊能郡能勢町宿野１７０－５７": {
      "normalized_address": "大阪府大阪府豊能郡能勢町宿野１７０－５７",
      "raw_prefecture": "大阪府",
      "raw_address": "大阪府豊能郡能勢町宿野１７０－５７",
      "status": "ok",
      "updated_at": "2026-03-28T03:29:21+00:00",
      "lat": 34.9937398,
      "lng": 135.4380386,
      "formatted_address": "170-57 Shukuno, Nose, Toyono District, Osaka 563-0341, Japan",
      "place_id": "ChIJV5gF4mxaAGARd31fV3bKOUQ"
    },
    "大阪府大阪府貝塚市久保１‐１‐４４": {
      "normalized_address": "大阪府大阪府貝塚市久保１‐１‐４４",
      "raw_prefecture": "大阪府",
      "raw_address": "大阪府貝塚市久保１‐１‐４４",
      "status": "ok",
      "updated_at": "2026-03-28T03:29:21+00:00",
      "lat": 34.4489579,
      "lng": 135.3739862,
      "formatted_address": "1-chōme-1-44 Kubo, Kaizuka, Osaka 597-0031, Japan",
      "place_id": "ChIJ7V9wcgDGAGARxadSwsmGVYo"
    },
    "大阪府大阪府貝塚市畠中１－１７－１": {
      "normalized_address": "大阪府大阪府貝塚市畠中１－１７－１",
      "raw_prefecture": "大阪府",
      "raw_address": "大阪府貝塚市畠中１－１７－１",
      "status": "ok",
      "updated_at": "2026-03-28T03:29:21+00:00",
      "lat": 34.4376741,
      "lng": 135.3584406,
      "formatted_address": "1-chōme-17-1 Hatakenaka, Kaizuka, Osaka 597-0072, Japan",
      "place_id": "ChIJ5VBbD6HIAGARlDlML1TyHEQ"
    },
    "大阪府大阪府門真市中町１－１門真市役所別館１Ｆ": {
      "normalized_address": "大阪府大阪府門真市中町１－１門真市役所別館１Ｆ",
      "raw_prefecture": "大阪府",
      "raw_address": "大阪府門真市中町１－１門真市役所　別館１Ｆ",
      "status": "ok",
      "updated_at": "2026-03-28T03:29:22+00:00",
      "lat": 34.7394018,
      "lng": 135.5877159,
      "formatted_address": "Japan, 〒571-0055 Osaka, Kadoma, Nakamachi, 11−１ 別館",
      "place_id": "ChIJNbPzysPhAGAR2Yczqa-mg28"
    },
    "大阪府大阪府門真市四宮１－２－１６": {
      "normalized_address": "大阪府大阪府門真市四宮１－２－１６",
      "raw_prefecture": "大阪府",
      "raw_address": "大阪府門真市四宮１－２－１６",
      "status": "ok",
      "updated_at": "2026-03-28T03:29:22+00:00",
      "lat": 34.738432,
      "lng": 135.6125757,
      "formatted_address": "1-chōme-2-16 Shinomiya, Kadoma, Osaka 571-0017, Japan",
      "place_id": "ChIJz9m8tDMeAWARg6Sx_4clSak"
    },
    "大阪府大阪府門真市松生町１－１１ららぽーと門真１階１２７０": {
      "normalized_address": "大阪府大阪府門真市松生町１－１１ららぽーと門真１階１２７０",
      "raw_prefecture": "大阪府",
      "raw_address": "大阪府門真市松生町１－１１ららぽーと門真　１階１２７０",
      "status": "ok",
      "updated_at": "2026-03-28T03:29:22+00:00",
      "lat": 34.7313825,
      "lng": 135.5841642,
      "formatted_address": "Japan, 〒571-8620 Osaka, Kadoma, Matsuochō, 1−１１ ららぽーと門真 階1270",
      "place_id": "ElZKYXBhbiwg44CSNTcxLTg2MjAgT3Nha2EsIEthZG9tYSwgTWF0c3VvY2jFjSwgMeKIku-8ke-8kSDjgonjgonjgb3jg7zjgajploDnnJ8g6ZqOMTI3MCIjGiEKFgoUChIJyRUT08fhAGARyueSbKjehJ0SB-majjEyNzA"
    },
    "大阪府大阪府門真市深田町１９－５クリーンセンター内": {
      "normalized_address": "大阪府大阪府門真市深田町１９－５クリーンセンター内",
      "raw_prefecture": "大阪府",
      "raw_address": "大阪府門真市深田町１９－５クリーンセンター内",
      "status": "ok",
      "updated_at": "2026-03-28T03:29:23+00:00",
      "lat": 34.7307315,
      "lng": 135.5871593,
      "formatted_address": "19-5 Fukadachō, Kadoma, Osaka 571-0042, Japan",
      "place_id": "ChIJJXSHJc_hAGARneGduYI7rAY"
    },
    "大阪府大阪府阪南市下出７６－２": {
      "normalized_address": "大阪府大阪府阪南市下出７６－２",
      "raw_prefecture": "大阪府",
      "raw_address": "大阪府阪南市下出７６－２",
      "status": "ok",
      "updated_at": "2026-03-28T03:29:23+00:00",
      "lat": 34.3587227,
      "lng": 135.2427532,
      "formatted_address": "76-2 Shimoide, Hannan, Osaka 599-0202, Japan",
      "place_id": "ChIJseS-hCK3AGARaPuZE3dQI3Q"
    },
    "大阪府大阪府高槻市土室町３９－１５": {
      "normalized_address": "大阪府大阪府高槻市土室町３９－１５",
      "raw_prefecture": "大阪府",
      "raw_address": "大阪府高槻市土室町３９－１５",
      "status": "ok",
      "updated_at": "2026-03-28T03:29:23+00:00",
      "lat": 34.8488789,
      "lng": 135.5836802,
      "formatted_address": "39-15 Hamurochō, Takatsuki, Osaka 569-1147, Japan",
      "place_id": "ChIJhZkfA2v9AGARGFt-EVW5xRs"
    },
    "大阪府大阪府高槻市安満新町１－８": {
      "normalized_address": "大阪府大阪府高槻市安満新町１－８",
      "raw_prefecture": "大阪府",
      "raw_address": "大阪府高槻市安満新町１－８",
      "status": "ok",
      "updated_at": "2026-03-28T03:29:23+00:00",
      "lat": 34.8566208,
      "lng": 135.6254686,
      "formatted_address": "Japan, 〒569-1106 Osaka, Takatsuki, Amashinmachi, 1−８ ＹＯＵ ＳＨＯＰ 畑田",
      "place_id": "ChIJAbsTXs8CAWARn3bv15efmi8"
    },
    "大阪府大阪府高槻市川西町１－３３－２２": {
      "normalized_address": "大阪府大阪府高槻市川西町１－３３－２２",
      "raw_prefecture": "大阪府",
      "raw_address": "大阪府高槻市川西町１－３３－２２",
      "status": "ok",
      "updated_at": "2026-03-28T03:29:24+00:00",
      "lat": 34.8496488,
      "lng": 135.6027431,
      "formatted_address": "1-chōme-33-22 Kawanishichō, Takatsuki, Osaka 569-1133, Japan",
      "place_id": "ChIJ7yXOGKcCAWARW8lMSVan-D0"
    },
    "大阪府大阪府高槻市柳川町１－２－８": {
      "normalized_address": "大阪府大阪府高槻市柳川町１－２－８",
      "raw_prefecture": "大阪府",
      "raw_address": "大阪府高槻市柳川町１－２－８",
      "status": "ok",
      "updated_at": "2026-03-28T03:29:24+00:00",
      "lat": 34.82392919999999,
      "lng": 135.5937594,
      "formatted_address": "1-chōme-2-8 Yanagawachō, Takatsuki, Osaka 569-0853, Japan",
      "place_id": "ChIJKY4lnaXiAGAR2pc3Cvw6bVU"
    },
    "大阪府大阪府高槻市深沢町１－１－７": {
      "normalized_address": "大阪府大阪府高槻市深沢町１－１－７",
      "raw_prefecture": "大阪府",
      "raw_address": "大阪府高槻市深沢町１－１－７",
      "status": "ok",
      "updated_at": "2026-03-28T03:29:24+00:00",
      "lat": 34.8293018,
      "lng": 135.6319155,
      "formatted_address": "1-chōme-1-7 Fukazawachō, Takatsuki, Osaka 569-0035, Japan",
      "place_id": "ChIJdax6cBkdAWARz-VgiTMbpGM"
    },
    "大阪府大阪府高槻市芥川町２－２４－３４": {
      "normalized_address": "大阪府大阪府高槻市芥川町２－２４－３４",
      "raw_prefecture": "大阪府",
      "raw_address": "大阪府高槻市芥川町２－２４－３４",
      "status": "ok",
      "updated_at": "2026-03-28T03:29:24+00:00",
      "lat": 34.8538595,
      "lng": 135.615378,
      "formatted_address": "2-chōme-24-34 Akutagawachō, Takatsuki, Osaka 569-1123, Japan",
      "place_id": "ChIJQRGOj7kCAWARPZQYvonS9XQ"
    },
    "大阪府大阪府高石市西取石６－６": {
      "normalized_address": "大阪府大阪府高石市西取石６－６",
      "raw_prefecture": "大阪府",
      "raw_address": "大阪府高石市西取石６－６",
      "status": "ok",
      "updated_at": "2026-03-28T03:29:25+00:00",
      "lat": 34.5183527,
      "lng": 135.4452783,
      "formatted_address": "6-chōme-6-6 Nishitoriishi, Takaishi, Osaka 592-0012, Japan",
      "place_id": "ChIJI70kK9TEAGARwF-NfU0txs4"
    }
  }
}
