{
  "version": 1,
  "generated_at": "2026-03-28T03:29:56+00:00",
  "source_file": "docs/data/2-28.json",
  "entries": {
    "兵庫県兵庫県たつの市御津町苅屋３５６－１": {
      "normalized_address": "兵庫県兵庫県たつの市御津町苅屋３５６－１",
      "raw_prefecture": "兵庫県",
      "raw_address": "兵庫県たつの市御津町苅屋３５６－１",
      "status": "ok",
      "updated_at": "2026-03-28T03:29:25+00:00",
      "lat": 34.7853676,
      "lng": 134.560268,
      "formatted_address": "356-1 Mitsuchō Kariya, Tatsuno, Hyogo 671-1321, Japan",
      "place_id": "ChIJYyI4EDrlVDURmOEKypo-Cvc"
    },
    "兵庫県兵庫県たつの市揖保川町正條２７９－１": {
      "normalized_address": "兵庫県兵庫県たつの市揖保川町正條２７９－１",
      "raw_prefecture": "兵庫県",
      "raw_address": "兵庫県たつの市揖保川町正條２７９－１",
      "status": "ok",
      "updated_at": "2026-03-28T03:29:25+00:00",
      "lat": 34.8309235,
      "lng": 134.5286289,
      "formatted_address": "279-1 Ibogawachō Shōjō, Tatsuno, Hyogo 671-1621, Japan",
      "place_id": "ChIJx9huL2v7VDURxWpVhG1anU8"
    },
    "兵庫県兵庫県たつの市新宮町宮内１６": {
      "normalized_address": "兵庫県兵庫県たつの市新宮町宮内１６",
      "raw_prefecture": "兵庫県",
      "raw_address": "兵庫県たつの市新宮町宮内１６",
      "status": "ok",
      "updated_at": "2026-03-28T03:29:26+00:00",
      "lat": 34.9261807,
      "lng": 134.5478629,
      "formatted_address": "16 Shingūchō Miyauchi, Tatsuno, Hyogo 679-4311, Japan",
      "place_id": "ChIJM-lLr7UCVTUR0wJ1Z2Au_HA"
    },
    "兵庫県兵庫県たつの市誉田町広山４８８－１": {
      "normalized_address": "兵庫県兵庫県たつの市誉田町広山４８８－１",
      "raw_prefecture": "兵庫県",
      "raw_address": "兵庫県たつの市誉田町広山４８８－１",
      "status": "ok",
      "updated_at": "2026-03-28T03:29:26+00:00",
      "lat": 34.8479575,
      "lng": 134.564256,
      "formatted_address": "488-1 Hondachō Hiroyama, Tatsuno, Hyogo 679-4134, Japan",
      "place_id": "ChIJo0VbM0fjVDURreaPXFWkVqs"
    },
    "兵庫県兵庫県たつの市龍野町富永１００５－１": {
      "normalized_address": "兵庫県兵庫県たつの市龍野町富永１００５－１",
      "raw_prefecture": "兵庫県",
      "raw_address": "兵庫県たつの市龍野町富永１００５－１",
      "status": "ok",
      "updated_at": "2026-03-28T03:29:26+00:00",
      "lat": 34.8580845,
      "lng": 134.5452559,
      "formatted_address": "1005-1 Tatsunochō Tominaga, Tatsuno, Hyogo 679-4167, Japan",
      "place_id": "ChIJ4cnnA7b8VDUR-mxHhh0NyAs"
    },
    "兵庫県兵庫県三田市南が丘１－４０－１０": {
      "normalized_address": "兵庫県兵庫県三田市南が丘１－４０－１０",
      "raw_prefecture": "兵庫県",
      "raw_address": "兵庫県三田市南が丘１－４０－１０",
      "status": "ok",
      "updated_at": "2026-03-28T03:29:26+00:00",
      "lat": 34.879165,
      "lng": 135.2168764,
      "formatted_address": "1-chōme-40-10 Minamigaoka, Sanda, Hyogo 669-1535, Japan",
      "place_id": "ChIJ3ygoBQVkAGAR-yyIYcL1llY"
    },
    "兵庫県兵庫県伊丹市南本町４－２－１３": {
      "normalized_address": "兵庫県兵庫県伊丹市南本町４－２－１３",
      "raw_prefecture": "兵庫県",
      "raw_address": "兵庫県伊丹市南本町４－２－１３",
      "status": "ok",
      "updated_at": "2026-03-28T03:29:27+00:00",
      "lat": 34.7727705,
      "lng": 135.4187735,
      "formatted_address": "4-chōme-2-13 Minamihonmachi, Itami, Hyogo 664-0852, Japan",
      "place_id": "ChIJD5E2qEnwAGAR7mJrb96TI8k"
    },
    "兵庫県兵庫県伊丹市昆陽池２－１０３": {
      "normalized_address": "兵庫県兵庫県伊丹市昆陽池２－１０３",
      "raw_prefecture": "兵庫県",
      "raw_address": "兵庫県伊丹市昆陽池２－１０３",
      "status": "ok",
      "updated_at": "2026-03-28T03:29:27+00:00",
      "lat": 34.7860425,
      "lng": 135.3944965,
      "formatted_address": "2-chōme-103 Koyaike, Itami, Hyogo 664-0015, Japan",
      "place_id": "ChIJZ_wNoBLxAGARYvG4CFNMMpo"
    },
    "兵庫県兵庫県伊丹市瑞穂町１－１０": {
      "normalized_address": "兵庫県兵庫県伊丹市瑞穂町１－１０",
      "raw_prefecture": "兵庫県",
      "raw_address": "兵庫県伊丹市瑞穂町１－１０",
      "status": "ok",
      "updated_at": "2026-03-28T03:29:27+00:00",
      "lat": 34.7895545,
      "lng": 135.4053586,
      "formatted_address": "1-chōme-10 Mizuhochō, Itami, Hyogo 664-0013, Japan",
      "place_id": "ChIJbzuO4wTxAGARJgfbJW4JNNg"
    },
    "兵庫県兵庫県伊丹市荒牧７－１１－１６": {
      "normalized_address": "兵庫県兵庫県伊丹市荒牧７－１１－１６",
      "raw_prefecture": "兵庫県",
      "raw_address": "兵庫県伊丹市荒牧７－１１－１６",
      "status": "ok",
      "updated_at": "2026-03-28T03:29:41+00:00",
      "lat": 34.8147921,
      "lng": 135.3871589,
      "formatted_address": "7-chōme-11-16 Aramaki, Itami, Hyogo 664-0001, Japan",
      "place_id": "ChIJ_7WqFLH2AGARejWEJxlr3Yk"
    },
    "兵庫県兵庫県加古川市別府町緑町２": {
      "normalized_address": "兵庫県兵庫県加古川市別府町緑町２",
      "raw_prefecture": "兵庫県",
      "raw_address": "兵庫県加古川市別府町緑町２",
      "status": "ok",
      "updated_at": "2026-03-28T03:29:41+00:00",
      "lat": 34.7285232,
      "lng": 134.8492381,
      "formatted_address": "Midorimachi-2 Befuchō, Kakogawa, Hyogo 675-0124, Japan",
      "place_id": "ChIJIy9SS9bZVDURSbU1lt0SgWc"
    },
    "兵庫県兵庫県加古川市加古川寺家町１７３－１ニッケパークタウン内１Ｆ": {
      "normalized_address": "兵庫県兵庫県加古川市加古川寺家町１７３－１ニッケパークタウン内１Ｆ",
      "raw_prefecture": "兵庫県",
      "raw_address": "兵庫県加古川市加古川寺家町１７３－１ニッケパークタウン内１Ｆ",
      "status": "ok",
      "updated_at": "2026-03-28T03:29:41+00:00",
      "lat": 34.7701917,
      "lng": 134.8350878,
      "formatted_address": "Jikemachi-173-1 Kakogawachō, Kakogawa, Hyogo 675-0066, Japan",
      "place_id": "ChIJM5y3yA3YVDURcolE2rbgn_8"
    },
    "兵庫県兵庫県加古川市平岡町一色３７３－１": {
      "normalized_address": "兵庫県兵庫県加古川市平岡町一色３７３－１",
      "raw_prefecture": "兵庫県",
      "raw_address": "兵庫県加古川市平岡町一色３７３－１",
      "status": "ok",
      "updated_at": "2026-03-28T03:29:41+00:00",
      "lat": 34.7366775,
      "lng": 134.854519,
      "formatted_address": "Ishiki-373-1 Hiraokachō, Kakogawa, Hyogo 675-0115, Japan",
      "place_id": "ChIJCTqXToHXVDURtv601inDyk0"
    },
    "兵庫県兵庫県加古郡播磨町二子４１８－３": {
      "normalized_address": "兵庫県兵庫県加古郡播磨町二子４１８－３",
      "raw_prefecture": "兵庫県",
      "raw_address": "兵庫県加古郡播磨町二子４１８－３",
      "status": "ok",
      "updated_at": "2026-03-28T03:29:42+00:00",
      "lat": 34.711892,
      "lng": 134.8774396,
      "formatted_address": "Futago, Harima, Kako District, Hyogo 675-0162, Japan",
      "place_id": "ChIJ8dFepgXXVDURcz0SdftIeVQ"
    },
    "兵庫県兵庫県加古郡播磨町北本荘２－６－３０": {
      "normalized_address": "兵庫県兵庫県加古郡播磨町北本荘２－６－３０",
      "raw_prefecture": "兵庫県",
      "raw_address": "兵庫県加古郡播磨町北本荘２－６－３０",
      "status": "ok",
      "updated_at": "2026-03-28T03:29:42+00:00",
      "lat": 34.7189719,
      "lng": 134.8605987,
      "formatted_address": "2-chōme-6-30 Kitahonjō, Harima, Kako District, Hyogo 675-0144, Japan",
      "place_id": "ChIJm91Pmm_XVDURxSzPknU5Eng"
    },
    "兵庫県兵庫県加古郡播磨町古田１－１－１１": {
      "normalized_address": "兵庫県兵庫県加古郡播磨町古田１－１－１１",
      "raw_prefecture": "兵庫県",
      "raw_address": "兵庫県加古郡播磨町古田１－１－１１",
      "status": "ok",
      "updated_at": "2026-03-28T03:29:42+00:00",
      "lat": 34.7238381,
      "lng": 134.8672518,
      "formatted_address": "1-chōme-1-11 Furuta, Harima, Kako District, Hyogo 675-0146, Japan",
      "place_id": "ChIJta7H8HTXVDURBpnkiofvzLk"
    },
    "兵庫県兵庫県加古郡播磨町新島５９": {
      "normalized_address": "兵庫県兵庫県加古郡播磨町新島５９",
      "raw_prefecture": "兵庫県",
      "raw_address": "兵庫県加古郡播磨町新島５９",
      "status": "ok",
      "updated_at": "2026-03-28T03:29:42+00:00",
      "lat": 34.6958848,
      "lng": 134.8488315,
      "formatted_address": "59 Niijima, Harima, Kako District, Hyogo 675-0155, Japan",
      "place_id": "ChIJpZYc0ADaVDURV0aOgAmdOZ4"
    },
    "兵庫県兵庫県加古郡播磨町東本荘１－５－３０": {
      "normalized_address": "兵庫県兵庫県加古郡播磨町東本荘１－５－３０",
      "raw_prefecture": "兵庫県",
      "raw_address": "兵庫県加古郡播磨町東本荘１－５－３０",
      "status": "ok",
      "updated_at": "2026-03-28T03:29:43+00:00",
      "lat": 34.7153524,
      "lng": 134.8680584,
      "formatted_address": "1-chōme-5-30 Higashihonjō, Harima, Kako District, Hyogo 675-0156, Japan",
      "place_id": "ChIJo-gaH23XVDURq9-MYP1Hryg"
    },
    "兵庫県兵庫県加古郡播磨町東本荘１－５－４０": {
      "normalized_address": "兵庫県兵庫県加古郡播磨町東本荘１－５－４０",
      "raw_prefecture": "兵庫県",
      "raw_address": "兵庫県加古郡播磨町東本荘１－５－４０",
      "status": "ok",
      "updated_at": "2026-03-28T03:29:43+00:00",
      "lat": 34.7150229,
      "lng": 134.8673099,
      "formatted_address": "1-chōme-5-40 Higashihonjō, Harima, Kako District, Hyogo 675-0156, Japan",
      "place_id": "ChIJuy4H-mzXVDURj9pKLZ56Hcs"
    },
    "兵庫県兵庫県加古郡播磨町西野添１－１４－１７": {
      "normalized_address": "兵庫県兵庫県加古郡播磨町西野添１－１４－１７",
      "raw_prefecture": "兵庫県",
      "raw_address": "兵庫県加古郡播磨町西野添１－１４－１７",
      "status": "ok",
      "updated_at": "2026-03-28T03:29:43+00:00",
      "lat": 34.7201673,
      "lng": 134.8794853,
      "formatted_address": "Japan, 〒675-0160 Hyogo, Kako District, Harima, Nishinozoe, 1-chōme−14−１７ 野添コミュニティセンタ",
      "place_id": "ChIJt6yb7gfXVDURjHcVOuG7yN4"
    },
    "兵庫県兵庫県加東市社５０": {
      "normalized_address": "兵庫県兵庫県加東市社５０",
      "raw_prefecture": "兵庫県",
      "raw_address": "兵庫県加東市社５０",
      "status": "ok",
      "updated_at": "2026-03-28T03:29:43+00:00",
      "lat": 34.9186586,
      "lng": 134.9734001,
      "formatted_address": "50 Yashiro, Kato, Hyogo 673-1493, Japan",
      "place_id": "ChIJbQp-F2UzVTURQGT82F7O16M"
    },
    "兵庫県兵庫県姫路市市川橋通１－５－１": {
      "normalized_address": "兵庫県兵庫県姫路市市川橋通１－５－１",
      "raw_prefecture": "兵庫県",
      "raw_address": "兵庫県姫路市市川橋通１－５－１",
      "status": "ok",
      "updated_at": "2026-03-28T03:29:44+00:00",
      "lat": 34.8280576,
      "lng": 134.7140817,
      "formatted_address": "1-chōme-5-1 Ichikawabashidōri, Himeji, Hyogo 670-0825, Japan",
      "place_id": "ChIJnd6XRPHfVDURt1w_pjmSYzo"
    },
    "兵庫県兵庫県姫路市東辻井１－３－２７": {
      "normalized_address": "兵庫県兵庫県姫路市東辻井１－３－２７",
      "raw_prefecture": "兵庫県",
      "raw_address": "兵庫県姫路市東辻井１－３－２７",
      "status": "ok",
      "updated_at": "2026-03-28T03:29:44+00:00",
      "lat": 34.8444587,
      "lng": 134.6786175,
      "formatted_address": "1-chōme-3-27 Higashitsujii, Himeji, Hyogo 670-0084, Japan",
      "place_id": "ChIJqyL_wyPgVDURAcRpWUZwA5g"
    },
    "兵庫県兵庫県姫路市白鳥台２－１－５": {
      "normalized_address": "兵庫県兵庫県姫路市白鳥台２－１－５",
      "raw_prefecture": "兵庫県",
      "raw_address": "兵庫県姫路市白鳥台２－１－５",
      "status": "ok",
      "updated_at": "2026-03-28T03:29:44+00:00",
      "lat": 34.8831336,
      "lng": 134.6250307,
      "formatted_address": "Japan, 〒671-2245 Hyogo, Himeji, Hakuchōdai, 2-chōme−1−５ 崎谷商会",
      "place_id": "ChIJpRh_Uf0dVTURi_aKUD6expI"
    },
    "兵庫県兵庫県姫路市大津区西土井２４５－５": {
      "normalized_address": "兵庫県兵庫県姫路市大津区西土井２４５－５",
      "raw_prefecture": "兵庫県",
      "raw_address": "兵庫県姫路市大津区西土井２４５－５",
      "status": "ok",
      "updated_at": "2026-03-28T03:29:45+00:00",
      "lat": 34.8073329,
      "lng": 134.6118021,
      "formatted_address": "Nishidoi-245 Ōtsuku, Himeji, Hyogo 671-1141, Japan",
      "place_id": "ChIJIycJeQnkVDUR0V0-OYKpZXQ"
    },
    "兵庫県兵庫県姫路市飾磨区蓼野町１４９": {
      "normalized_address": "兵庫県兵庫県姫路市飾磨区蓼野町１４９",
      "raw_prefecture": "兵庫県",
      "raw_address": "兵庫県姫路市飾磨区蓼野町１４９",
      "status": "ok",
      "updated_at": "2026-03-28T03:29:45+00:00",
      "lat": 34.805666,
      "lng": 134.6617768,
      "formatted_address": "Tadenochō-149 Shikamaku, Himeji, Hyogo 672-8072, Japan",
      "place_id": "ChIJAdrvvh_hVDURvKllR2gdaT0"
    },
    "兵庫県兵庫県宝塚市大原野字南宮２－７": {
      "normalized_address": "兵庫県兵庫県宝塚市大原野字南宮２－７",
      "raw_prefecture": "兵庫県",
      "raw_address": "兵庫県宝塚市大原野字南宮２－７",
      "status": "ok",
      "updated_at": "2026-03-28T03:29:45+00:00",
      "lat": 34.9061188,
      "lng": 135.3075143,
      "formatted_address": "Minamimiya-2-7 Ōharano, Takarazuka, Hyogo 669-1211, Japan",
      "place_id": "ChIJGTLJOAVeAGAR800rH9LykpA"
    },
    "兵庫県兵庫県宝塚市安倉西３－４４４－１": {
      "normalized_address": "兵庫県兵庫県宝塚市安倉西３－４４４－１",
      "raw_prefecture": "兵庫県",
      "raw_address": "兵庫県宝塚市安倉西３－４４４－１",
      "status": "ok",
      "updated_at": "2026-03-28T03:29:45+00:00",
      "lat": 34.7960583,
      "lng": 135.3731011,
      "formatted_address": "3-chōme-444-1 Akuranishi, Takarazuka, Hyogo 665-0825, Japan",
      "place_id": "ChIJaW4BCv3zAGARrlan6dtQ-ng"
    },
    "兵庫県兵庫県宝塚市小浜１－２－１５": {
      "normalized_address": "兵庫県兵庫県宝塚市小浜１－２－１５",
      "raw_prefecture": "兵庫県",
      "raw_address": "兵庫県宝塚市小浜１－２－１５",
      "status": "ok",
      "updated_at": "2026-03-28T03:29:46+00:00",
      "lat": 34.7993524,
      "lng": 135.3667297,
      "formatted_address": "1-chōme-2-15 Kohama, Takarazuka, Hyogo 665-0827, Japan",
      "place_id": "ChIJad6ocfjzAGARh325_RMDZhY"
    },
    "兵庫県兵庫県宝塚市東洋町１－１": {
      "normalized_address": "兵庫県兵庫県宝塚市東洋町１－１",
      "raw_prefecture": "兵庫県",
      "raw_address": "兵庫県宝塚市東洋町１－１",
      "status": "ok",
      "updated_at": "2026-03-28T03:29:46+00:00",
      "lat": 34.7998048,
      "lng": 135.3602848,
      "formatted_address": "1-1 Tōyōchō, Takarazuka, Hyogo 665-8665, Japan",
      "place_id": "ChIJFzD72Av0AGAR5vwfdIsjvAw"
    },
    "兵庫県兵庫県尼崎市名神町２－１８－９": {
      "normalized_address": "兵庫県兵庫県尼崎市名神町２－１８－９",
      "raw_prefecture": "兵庫県",
      "raw_address": "兵庫県尼崎市名神町２－１８－９",
      "status": "ok",
      "updated_at": "2026-03-28T03:29:46+00:00",
      "lat": 34.7433415,
      "lng": 135.4163277,
      "formatted_address": "2-chōme-18-9 Meishinchō, Amagasaki, Hyogo 661-0021, Japan",
      "place_id": "ChIJeSBUBdLvAGARW8tUuTrVLpo"
    },
    "兵庫県兵庫県尼崎市次屋３－１１－１": {
      "normalized_address": "兵庫県兵庫県尼崎市次屋３－１１－１",
      "raw_prefecture": "兵庫県",
      "raw_address": "兵庫県尼崎市次屋３－１１－１",
      "status": "ok",
      "updated_at": "2026-03-28T03:29:46+00:00",
      "lat": 34.740898,
      "lng": 135.4416782,
      "formatted_address": "3-chōme-11-1 Tsugiya, Amagasaki, Hyogo 661-0965, Japan",
      "place_id": "ChIJN5V-c47vAGARFxoUiqqZMkQ"
    },
    "兵庫県兵庫県尼崎市武庫之荘東２－３２－１５": {
      "normalized_address": "兵庫県兵庫県尼崎市武庫之荘東２－３２－１５",
      "raw_prefecture": "兵庫県",
      "raw_address": "兵庫県尼崎市武庫之荘東２－３２－１５",
      "status": "ok",
      "updated_at": "2026-03-28T03:29:47+00:00",
      "lat": 34.7573006,
      "lng": 135.3986425,
      "formatted_address": "2-chōme-32-15 Mukonosōhigashi, Amagasaki, Hyogo 661-0032, Japan",
      "place_id": "ChIJbQRipcbxAGARa7lwm0mvqPs"
    },
    "兵庫県兵庫県尼崎市浜田町５－３": {
      "normalized_address": "兵庫県兵庫県尼崎市浜田町５－３",
      "raw_prefecture": "兵庫県",
      "raw_address": "兵庫県尼崎市浜田町５－３",
      "status": "ok",
      "updated_at": "2026-03-28T03:29:47+00:00",
      "lat": 34.7253411,
      "lng": 135.400817,
      "formatted_address": "5-chōme-3 Hamadachō, Amagasaki, Hyogo 660-0062, Japan",
      "place_id": "ChIJswoqpEfuAGARZQvugCqS9KY"
    },
    "兵庫県兵庫県尼崎市西昆陽２－１－１": {
      "normalized_address": "兵庫県兵庫県尼崎市西昆陽２－１－１",
      "raw_prefecture": "兵庫県",
      "raw_address": "兵庫県尼崎市西昆陽２－１－１",
      "status": "ok",
      "updated_at": "2026-03-28T03:29:47+00:00",
      "lat": 34.7689571,
      "lng": 135.3798313,
      "formatted_address": "2-chōme-1-1 Nishikoya, Amagasaki, Hyogo 661-0047, Japan",
      "place_id": "ChIJE2-pJILxAGARJ6ZY_Ue3aRE"
    },
    "兵庫県兵庫県川西市下加茂１－１３－２１": {
      "normalized_address": "兵庫県兵庫県川西市下加茂１－１３－２１",
      "raw_prefecture": "兵庫県",
      "raw_address": "兵庫県川西市下加茂１－１３－２１",
      "status": "ok",
      "updated_at": "2026-03-28T03:29:48+00:00",
      "lat": 34.8190539,
      "lng": 135.4121928,
      "formatted_address": "1-chōme-13-21 Shitakamo, Kawanishi, Hyogo 666-0022, Japan",
      "place_id": "ChIJvwWBgirxAGARVFrwfLMvDXE"
    },
    "兵庫県兵庫県揖保郡太子町鵤２８０－１": {
      "normalized_address": "兵庫県兵庫県揖保郡太子町鵤２８０－１",
      "raw_prefecture": "兵庫県",
      "raw_address": "兵庫県揖保郡太子町鵤２８０－１",
      "status": "ok",
      "updated_at": "2026-03-28T03:29:48+00:00",
      "lat": 34.8331836,
      "lng": 134.5722229,
      "formatted_address": "280-1 Ikaruga, Taishi, Ibo District, Hyogo 671-1561, Japan",
      "place_id": "ChIJGVYIxGbjVDURglQuyVTJ3LY"
    },
    "兵庫県兵庫県明石市大久保町高丘６－６－５": {
      "normalized_address": "兵庫県兵庫県明石市大久保町高丘６－６－５",
      "raw_prefecture": "兵庫県",
      "raw_address": "兵庫県明石市大久保町高丘６－６－５",
      "status": "ok",
      "updated_at": "2026-03-28T03:29:48+00:00",
      "lat": 34.7038021,
      "lng": 134.9458702,
      "formatted_address": "6-chōme-6-5 Ōkubochō Takaoka, Akashi, Hyogo 674-0057, Japan",
      "place_id": "ChIJn9HyL7_VVDURmfjvC0WeJU0"
    },
    "兵庫県兵庫県明石市藤江８９０－７３": {
      "normalized_address": "兵庫県兵庫県明石市藤江８９０－７３",
      "raw_prefecture": "兵庫県",
      "raw_address": "兵庫県明石市藤江８９０－７３",
      "status": "ok",
      "updated_at": "2026-03-28T03:29:48+00:00",
      "lat": 34.6703455,
      "lng": 134.9566864,
      "formatted_address": "890-73 Fujie, Akashi, Hyogo 673-0044, Japan",
      "place_id": "ChIJ3yMPQVzUVDURzTdAopLIvSQ"
    },
    "兵庫県兵庫県明石市魚住町住吉１－１１－９": {
      "normalized_address": "兵庫県兵庫県明石市魚住町住吉１－１１－９",
      "raw_prefecture": "兵庫県",
      "raw_address": "兵庫県明石市魚住町住吉１－１１－９",
      "status": "ok",
      "updated_at": "2026-03-28T03:29:49+00:00",
      "lat": 34.6915896,
      "lng": 134.9041671,
      "formatted_address": "1-chōme-11-9 Uozumichō Sumiyoshi, Akashi, Hyogo 674-0083, Japan",
      "place_id": "ChIJ4_at1cHWVDURGbpvxNCtpOw"
    },
    "兵庫県兵庫県神戸市中央区吾妻通２－２－１５": {
      "normalized_address": "兵庫県兵庫県神戸市中央区吾妻通２－２－１５",
      "raw_prefecture": "兵庫県",
      "raw_address": "兵庫県神戸市中央区吾妻通２－２－１５",
      "status": "ok",
      "updated_at": "2026-03-28T03:29:49+00:00",
      "lat": 34.6990792,
      "lng": 135.2067039,
      "formatted_address": "2-chōme-2-15 Azumadōri, Chuo Ward, Kobe, Hyogo 651-0076, Japan",
      "place_id": "ChIJh8pqoJKOAGARDn-J7xD-N8w"
    },
    "兵庫県兵庫県神戸市中央区吾妻通４－１－６": {
      "normalized_address": "兵庫県兵庫県神戸市中央区吾妻通４－１－６",
      "raw_prefecture": "兵庫県",
      "raw_address": "兵庫県神戸市中央区吾妻通４－１－６",
      "status": "ok",
      "updated_at": "2026-03-28T03:29:49+00:00",
      "lat": 34.6982781,
      "lng": 135.2046316,
      "formatted_address": "4-chōme-1-6 Azumadōri, Chuo Ward, Kobe, Hyogo 651-0076, Japan",
      "place_id": "ChIJY6ONXu2OAGARvDMPO9ajj80"
    },
    "兵庫県兵庫県神戸市兵庫区湊町４－２－６": {
      "normalized_address": "兵庫県兵庫県神戸市兵庫区湊町４－２－６",
      "raw_prefecture": "兵庫県",
      "raw_address": "兵庫県神戸市兵庫区湊町４－２－６",
      "status": "ok",
      "updated_at": "2026-03-28T03:29:50+00:00",
      "lat": 34.6758352,
      "lng": 135.1702197,
      "formatted_address": "Japan, 〒652-0812 Hyogo, Kobe, Hyogo Ward, Minatochō, 4-chōme−2−６ ワールドアイ神戸湊町",
      "place_id": "ChIJI_t-BguPAGAR4loIv4J5OP8"
    },
    "兵庫県兵庫県神戸市北区藤原北町１－２３（神戸電鉄高架下）": {
      "normalized_address": "兵庫県兵庫県神戸市北区藤原北町１－２３（神戸電鉄高架下）",
      "raw_prefecture": "兵庫県",
      "raw_address": "兵庫県神戸市北区藤原北町１－２３（神戸電鉄高架下）",
      "status": "ok",
      "updated_at": "2026-03-28T03:29:50+00:00",
      "lat": 34.6991369,
      "lng": 135.1984294,
      "formatted_address": "1-chōme-6-5 Ninomiyachō, Chuo Ward, Kobe, Hyogo 651-0093, Japan",
      "place_id": "ChIJ7Tr6KO-OAGAR6CX8sAqzbuY"
    },
    "兵庫県兵庫県神戸市垂水区舞子台５－１－１０": {
      "normalized_address": "兵庫県兵庫県神戸市垂水区舞子台５－１－１０",
      "raw_prefecture": "兵庫県",
      "raw_address": "兵庫県神戸市垂水区舞子台５－１－１０",
      "status": "ok",
      "updated_at": "2026-03-28T03:29:50+00:00",
      "lat": 34.636476,
      "lng": 135.0314509,
      "formatted_address": "5-chōme-1-10 Maikodai, Tarumi-ku, Kobe, Hyogo 655-0046, Japan",
      "place_id": "ChIJX5s9Qi6CAGARRqu8lH5uG8M"
    },
    "兵庫県兵庫県神戸市東灘区甲南町４－１３－１３": {
      "normalized_address": "兵庫県兵庫県神戸市東灘区甲南町４－１３－１３",
      "raw_prefecture": "兵庫県",
      "raw_address": "兵庫県神戸市東灘区甲南町４－１３－１３",
      "status": "ok",
      "updated_at": "2026-03-28T03:29:50+00:00",
      "lat": 34.7211546,
      "lng": 135.2706159,
      "formatted_address": "Japan, 〒658-0084 Hyogo, Kobe, Higashinada Ward, Kōnanchō, 4-chōme−13−１３ 13−203",
      "place_id": "ChIJv5n1Of2MAGARorw7f_QnFJY"
    },
    "兵庫県兵庫県神戸市東灘区青木１－２－３４": {
      "normalized_address": "兵庫県兵庫県神戸市東灘区青木１－２－３４",
      "raw_prefecture": "兵庫県",
      "raw_address": "兵庫県神戸市東灘区青木１－２－３４",
      "status": "ok",
      "updated_at": "2026-03-28T03:29:51+00:00",
      "lat": 34.7149748,
      "lng": 135.2867705,
      "formatted_address": "1-chōme-2-34 Ōgi, Higashinada Ward, Kobe, Hyogo 658-0027, Japan",
      "place_id": "ChIJg6bWwDuNAGARyfGN0SelJEI"
    },
    "兵庫県兵庫県神戸市灘区徳井町３－２－１２": {
      "normalized_address": "兵庫県兵庫県神戸市灘区徳井町３－２－１２",
      "raw_prefecture": "兵庫県",
      "raw_address": "兵庫県神戸市灘区徳井町３－２－１２",
      "status": "ok",
      "updated_at": "2026-03-28T03:29:51+00:00",
      "lat": 34.7149234,
      "lng": 135.2459992,
      "formatted_address": "3-chōme-2-12 Tokuichō, Nada Ward, Kobe, Hyogo 657-0033, Japan",
      "place_id": "ChIJwejTAkmMAGARL0mOMhkjv30"
    },
    "兵庫県兵庫県神戸市西区伊川谷町有瀬１４５８－１": {
      "normalized_address": "兵庫県兵庫県神戸市西区伊川谷町有瀬１４５８－１",
      "raw_prefecture": "兵庫県",
      "raw_address": "兵庫県神戸市西区伊川谷町有瀬１４５８－１",
      "status": "ok",
      "updated_at": "2026-03-28T03:29:51+00:00",
      "lat": 34.663541,
      "lng": 135.0128091,
      "formatted_address": "Arise-1458-1 Ikawadanichō, Nishi Ward, Kobe, Hyogo 651-2113, Japan",
      "place_id": "ChIJrf3FGM-BAGARCq7JJyk-DCM"
    },
    "兵庫県兵庫県神戸市西区大沢１－５－２": {
      "normalized_address": "兵庫県兵庫県神戸市西区大沢１－５－２",
      "raw_prefecture": "兵庫県",
      "raw_address": "兵庫県神戸市西区大沢１－５－２",
      "status": "ok",
      "updated_at": "2026-03-28T03:29:51+00:00",
      "lat": 34.7082468,
      "lng": 134.938233,
      "formatted_address": "1-chōme-5-2 Ōsawa, Nishi Ward, Kobe, Hyogo 651-2414, Japan",
      "place_id": "ChIJnzSwuMPVVDURsxVNFS6m8H8"
    },
    "兵庫県兵庫県神戸市西区持子３－１９－１": {
      "normalized_address": "兵庫県兵庫県神戸市西区持子３－１９－１",
      "raw_prefecture": "兵庫県",
      "raw_address": "兵庫県神戸市西区持子３－１９－１",
      "status": "ok",
      "updated_at": "2026-03-28T03:29:52+00:00",
      "lat": 34.6722268,
      "lng": 134.9819738,
      "formatted_address": "3-chōme-19-1 Mochiko, Nishi Ward, Kobe, Hyogo 651-2131, Japan",
      "place_id": "ChIJObpA79_UVDURpVIGj7tp2Zs"
    },
    "兵庫県兵庫県神戸市長田区三番町４－８－１": {
      "normalized_address": "兵庫県兵庫県神戸市長田区三番町４－８－１",
      "raw_prefecture": "兵庫県",
      "raw_address": "兵庫県神戸市長田区三番町４－８－１",
      "status": "ok",
      "updated_at": "2026-03-28T03:29:52+00:00",
      "lat": 34.6681955,
      "lng": 135.1545371,
      "formatted_address": "4-chōme-8-1 Sanbanchō, Nagata Ward, Kobe, Hyogo 653-0011, Japan",
      "place_id": "ChIJYWZ2KXmPAGARMdpPdEGn8d0"
    },
    "兵庫県兵庫県神戸市長田区東尻池町１－１０－２０": {
      "normalized_address": "兵庫県兵庫県神戸市長田区東尻池町１－１０－２０",
      "raw_prefecture": "兵庫県",
      "raw_address": "兵庫県神戸市長田区東尻池町１－１０－２０",
      "status": "ok",
      "updated_at": "2026-03-28T03:29:52+00:00",
      "lat": 34.6625146,
      "lng": 135.1560402,
      "formatted_address": "1-chōme-10-20 Higashishiriikechō, Nagata Ward, Kobe, Hyogo 653-0022, Japan",
      "place_id": "ChIJZ8qvhYOPAGARrqf22OTycGg"
    },
    "兵庫県兵庫県神戸市須磨区常盤町２－４－１１": {
      "normalized_address": "兵庫県兵庫県神戸市須磨区常盤町２－４－１１",
      "raw_prefecture": "兵庫県",
      "raw_address": "兵庫県神戸市須磨区常盤町２－４－１１",
      "status": "ok",
      "updated_at": "2026-03-28T03:29:53+00:00",
      "lat": 34.6551394,
      "lng": 135.1393379,
      "formatted_address": "2-chōme-4-11 Tokiwachō, Suma Ward, Kobe, Hyogo 654-0028, Japan",
      "place_id": "ChIJY29cRHeFAGARkA3oY3KKQnc"
    },
    "兵庫県兵庫県西宮市両度町１－２３": {
      "normalized_address": "兵庫県兵庫県西宮市両度町１－２３",
      "raw_prefecture": "兵庫県",
      "raw_address": "兵庫県西宮市両度町１－２３",
      "status": "ok",
      "updated_at": "2026-03-28T03:29:53+00:00",
      "lat": 34.742599,
      "lng": 135.3526804,
      "formatted_address": "1-23 Ryōdochō, Nishinomiya, Hyogo 662-0841, Japan",
      "place_id": "ChIJQ23kDkHyAGARUJB4FfW9czs"
    },
    "兵庫県兵庫県西宮市両度町６－２８": {
      "normalized_address": "兵庫県兵庫県西宮市両度町６－２８",
      "raw_prefecture": "兵庫県",
      "raw_address": "兵庫県西宮市両度町６－２８",
      "status": "ok",
      "updated_at": "2026-03-28T03:29:53+00:00",
      "lat": 34.7425829,
      "lng": 135.3539702,
      "formatted_address": "6-28 Ryōdochō, Nishinomiya, Hyogo 662-0841, Japan",
      "place_id": "ChIJbcVZV0DyAGARVtCQk4edz1M"
    },
    "兵庫県兵庫県西宮市丸橋町８－９６": {
      "normalized_address": "兵庫県兵庫県西宮市丸橋町８－９６",
      "raw_prefecture": "兵庫県",
      "raw_address": "兵庫県西宮市丸橋町８－９６",
      "status": "ok",
      "updated_at": "2026-03-28T03:29:54+00:00",
      "lat": 34.7528166,
      "lng": 135.3536447,
      "formatted_address": "8-96 Maruhashichō, Nishinomiya, Hyogo 662-0831, Japan",
      "place_id": "ChIJa5ken0nyAGAR8FAk5PkoB34"
    },
    "兵庫県兵庫県西宮市今津巽町５－１０": {
      "normalized_address": "兵庫県兵庫県西宮市今津巽町５－１０",
      "raw_prefecture": "兵庫県",
      "raw_address": "兵庫県西宮市今津巽町５－１０",
      "status": "ok",
      "updated_at": "2026-03-28T03:29:54+00:00",
      "lat": 34.7227711,
      "lng": 135.3523967,
      "formatted_address": "5-10 Imazutatsumichō, Nishinomiya, Hyogo 663-8223, Japan",
      "place_id": "ChIJp2VgknXyAGARzg-VLNQbi0w"
    },
    "兵庫県兵庫県西宮市郷免町４－２３": {
      "normalized_address": "兵庫県兵庫県西宮市郷免町４－２３",
      "raw_prefecture": "兵庫県",
      "raw_address": "兵庫県西宮市郷免町４－２３",
      "status": "ok",
      "updated_at": "2026-03-28T03:29:54+00:00",
      "lat": 34.7357722,
      "lng": 135.3205602,
      "formatted_address": "4-23 Gōmenchō, Nishinomiya, Hyogo 662-0965, Japan",
      "place_id": "ChIJ9zW7UubyAGARLlrEj44hX_c"
    },
    "兵庫県兵庫県赤穂市中広１４９４": {
      "normalized_address": "兵庫県兵庫県赤穂市中広１４９４",
      "raw_prefecture": "兵庫県",
      "raw_address": "兵庫県赤穂市中広１４９４",
      "status": "ok",
      "updated_at": "2026-03-28T03:29:54+00:00",
      "lat": 34.73737819999999,
      "lng": 134.3838225,
      "formatted_address": "1494 Nakahiro, Ako, Hyogo 678-0232, Japan",
      "place_id": "ChIJxYDmjHVfVDURwXZSpX8nKz4"
    },
    "兵庫県兵庫県赤穂市加里屋８１": {
      "normalized_address": "兵庫県兵庫県赤穂市加里屋８１",
      "raw_prefecture": "兵庫県",
      "raw_address": "兵庫県赤穂市加里屋８１",
      "status": "ok",
      "updated_at": "2026-03-28T03:29:55+00:00",
      "lat": 34.7527447,
      "lng": 134.3922031,
      "formatted_address": "Kariya, Ako, Hyogo 678-0239, Japan",
      "place_id": "ChIJTeuL4W5fVDUR0JH1WszHG0o"
    },
    "兵庫県兵庫県養父市八鹿町上小田３３－２": {
      "normalized_address": "兵庫県兵庫県養父市八鹿町上小田３３－２",
      "raw_prefecture": "兵庫県",
      "raw_address": "兵庫県養父市八鹿町上小田３３－２",
      "status": "ok",
      "updated_at": "2026-03-28T03:29:55+00:00",
      "lat": 35.4172356,
      "lng": 134.7845909,
      "formatted_address": "33-2 Yōkachō Kamioda, Yabu, Hyogo 667-0004, Japan",
      "place_id": "ChIJnx29wOfg_18ROWBWj85ReZE"
    },
    "兵庫県兵庫県高砂市中島３－７－２５": {
      "normalized_address": "兵庫県兵庫県高砂市中島３－７－２５",
      "raw_prefecture": "兵庫県",
      "raw_address": "兵庫県高砂市中島３－７－２５",
      "status": "ok",
      "updated_at": "2026-03-28T03:29:55+00:00",
      "lat": 34.7714279,
      "lng": 134.8015127,
      "formatted_address": "3-chōme-7-25 Nakashima, Takasago, Hyogo 676-0001, Japan",
      "place_id": "ChIJ2a-2NOzYVDUR-S31GDFQ6Gg"
    },
    "兵庫県兵庫県高砂市伊保崎南９－１８": {
      "normalized_address": "兵庫県兵庫県高砂市伊保崎南９－１８",
      "raw_prefecture": "兵庫県",
      "raw_address": "兵庫県高砂市伊保崎南９－１８",
      "status": "ok",
      "updated_at": "2026-03-28T03:29:55+00:00",
      "lat": 34.7672352,
      "lng": 134.7853635,
      "formatted_address": "9-18 Ihozakiminami, Takasago, Hyogo 676-0075, Japan",
      "place_id": "ChIJu-U30dnYVDURv2a-oC9tsL0"
    }
  }
}
