{
  "version": 1,
  "generated_at": "2026-03-29T13:32:20+00:00",
  "source_file": "docs/data/2-40.json",
  "entries": {
    "福岡県福岡県久留米市上津１－６－１８": {
      "normalized_address": "福岡県福岡県久留米市上津１－６－１８",
      "raw_prefecture": "福岡県",
      "raw_address": "福岡県久留米市上津１－６－１８",
      "status": "ok",
      "updated_at": "2026-03-29T13:31:58+00:00",
      "lat": 33.2887027,
      "lng": 130.5272322,
      "formatted_address": "1-chōme-6-18 Kamitsu, Kurume, Fukuoka 830-0055, Japan",
      "place_id": "ChIJeX1WELylQTURGA7g16Qn86M"
    },
    "福岡県福岡県久留米市城島町城島１３７－３": {
      "normalized_address": "福岡県福岡県久留米市城島町城島１３７－３",
      "raw_prefecture": "福岡県",
      "raw_address": "福岡県久留米市城島町城島１３７－３",
      "status": "ok",
      "updated_at": "2026-03-29T13:31:58+00:00",
      "lat": 33.2526732,
      "lng": 130.4285524,
      "formatted_address": "137-3 Jōjimamachi Jōjima, Kurume, Fukuoka 830-0207, Japan",
      "place_id": "ChIJNRth1AuxQTURc42n8q0In1w"
    },
    "福岡県福岡県久留米市東合川１－８－３５": {
      "normalized_address": "福岡県福岡県久留米市東合川１－８－３５",
      "raw_prefecture": "福岡県",
      "raw_address": "福岡県久留米市東合川１－８－３５",
      "status": "ok",
      "updated_at": "2026-03-29T13:31:59+00:00",
      "lat": 33.3192356,
      "lng": 130.5083557,
      "formatted_address": "Kurume, Fukuoka, Japan",
      "place_id": "ChIJk9hrB4SmQTURhaATncBSVbw"
    },
    "福岡県福岡県京都郡苅田町与原２－１－１": {
      "normalized_address": "福岡県福岡県京都郡苅田町与原２－１－１",
      "raw_prefecture": "福岡県",
      "raw_address": "福岡県京都郡苅田町与原２－１－１",
      "status": "ok",
      "updated_at": "2026-03-29T13:31:59+00:00",
      "lat": 33.7568782,
      "lng": 130.9803835,
      "formatted_address": "Japan, 〒800-0323 Fukuoka, Miyako District, Kanda, Yobaru, 2-chōme−１−１",
      "place_id": "ChIJvRfS4YrpQzURfVAycJ34_Hc"
    },
    "福岡県福岡県京都郡苅田町京町２－５": {
      "normalized_address": "福岡県福岡県京都郡苅田町京町２－５",
      "raw_prefecture": "福岡県",
      "raw_address": "福岡県京都郡苅田町京町２－５",
      "status": "ok",
      "updated_at": "2026-03-29T13:31:59+00:00",
      "lat": 33.7781656,
      "lng": 130.9807699,
      "formatted_address": "2 Chome Kyomachi, Kanda, Miyako District, Fukuoka 800-0351, Japan",
      "place_id": "ChIJo0FFbkDqQzURGlIgQIl4QXk"
    },
    "福岡県福岡県京都郡苅田町大字鋤崎４８１－１": {
      "normalized_address": "福岡県福岡県京都郡苅田町大字鋤崎４８１－１",
      "raw_prefecture": "福岡県",
      "raw_address": "福岡県京都郡苅田町大字鋤崎４８１－１",
      "status": "ok",
      "updated_at": "2026-03-29T13:31:59+00:00",
      "lat": 33.7464702,
      "lng": 130.9388859,
      "formatted_address": "481-1 Sukizaki, Kanda, Miyako District, Fukuoka 800-0332, Japan",
      "place_id": "ChIJwRhZjGfCQzURj-vSUk2RVdI"
    },
    "福岡県福岡県京都郡苅田町富久町１－１７－８": {
      "normalized_address": "福岡県福岡県京都郡苅田町富久町１－１７－８",
      "raw_prefecture": "福岡県",
      "raw_address": "福岡県京都郡苅田町富久町１－１７－８",
      "status": "ok",
      "updated_at": "2026-03-29T13:32:00+00:00",
      "lat": 33.7763929,
      "lng": 130.9786107,
      "formatted_address": "Japan, 〒800-0352 Fukuoka, Miyako District, Kanda, Tomihisachō, 1-chōme−１７−８",
      "place_id": "ChIJA4AsfxXqQzURdgZuGU7vU6s"
    },
    "福岡県福岡県京都郡苅田町富久町１－１９－１": {
      "normalized_address": "福岡県福岡県京都郡苅田町富久町１－１９－１",
      "raw_prefecture": "福岡県",
      "raw_address": "福岡県京都郡苅田町富久町１－１９－１",
      "status": "ok",
      "updated_at": "2026-03-29T13:32:00+00:00",
      "lat": 33.7761727,
      "lng": 130.979965,
      "formatted_address": "Japan, 〒800-0352 Fukuoka, Miyako District, 京都郡苅田町Tomihisachō, 1-chōme−１９−１",
      "place_id": "ChIJVVUlxj_qQzUR15On1qm3z08"
    },
    "福岡県福岡県京都郡苅田町尾倉４－１－７": {
      "normalized_address": "福岡県福岡県京都郡苅田町尾倉４－１－７",
      "raw_prefecture": "福岡県",
      "raw_address": "福岡県京都郡苅田町尾倉４－１－７",
      "status": "ok",
      "updated_at": "2026-03-29T13:32:00+00:00",
      "lat": 33.7628969,
      "lng": 130.9753433,
      "formatted_address": "Japan, 〒800-0353 Fukuoka, Miyako District, Kanda, Ogura, 4-chōme−１−７",
      "place_id": "ChIJKaw0Qx7qQzURNUb1BOkYS-Y"
    },
    "福岡県福岡県京都郡苅田町幸町６－９１": {
      "normalized_address": "福岡県福岡県京都郡苅田町幸町６－９１",
      "raw_prefecture": "福岡県",
      "raw_address": "福岡県京都郡苅田町幸町６－９１",
      "status": "ok",
      "updated_at": "2026-03-29T13:32:00+00:00",
      "lat": 33.7909347,
      "lng": 130.9857595,
      "formatted_address": "6-91 Saiwaimachi, Kanda, Miyako District, Fukuoka 800-0314, Japan",
      "place_id": "ChIJ9w9bBVnqQzURehrmi6WmMO0"
    },
    "福岡県福岡県京都郡苅田町新津１－１０－１": {
      "normalized_address": "福岡県福岡県京都郡苅田町新津１－１０－１",
      "raw_prefecture": "福岡県",
      "raw_address": "福岡県京都郡苅田町新津１－１０－１",
      "status": "ok",
      "updated_at": "2026-03-29T13:32:01+00:00",
      "lat": 33.7527702,
      "lng": 130.9751319,
      "formatted_address": "1-chōme-10-1 Aratsu, Kanda, Miyako District, Fukuoka 800-0344, Japan",
      "place_id": "ChIJxbvSEvLpQzURlokioXjjBj4"
    },
    "福岡県福岡県京都郡苅田町若久町１－３－７": {
      "normalized_address": "福岡県福岡県京都郡苅田町若久町１－３－７",
      "raw_prefecture": "福岡県",
      "raw_address": "福岡県京都郡苅田町若久町１－３－７",
      "status": "ok",
      "updated_at": "2026-03-29T13:32:01+00:00",
      "lat": 33.7953114,
      "lng": 130.9749099,
      "formatted_address": "Japan, 〒800-0302 Fukuoka, Miyako District, Kanda, Wakahisachō, 1-chōme−３−７",
      "place_id": "ChIJhw5rZWHqQzURZ8TXtV3btKo"
    },
    "福岡県福岡県京都郡苅田町鳥越町１－３": {
      "normalized_address": "福岡県福岡県京都郡苅田町鳥越町１－３",
      "raw_prefecture": "福岡県",
      "raw_address": "福岡県京都郡苅田町鳥越町１－３",
      "status": "ok",
      "updated_at": "2026-03-29T13:32:01+00:00",
      "lat": 33.8100056,
      "lng": 130.989286,
      "formatted_address": "1-3 Torigoechō, Kanda, Miyako District, Fukuoka 800-0304, Japan",
      "place_id": "ChIJ3T2d3ufqQzUR9SG3aIwCHUQ"
    },
    "福岡県福岡県北九州市八幡東区東田２－１－１０": {
      "normalized_address": "福岡県福岡県北九州市八幡東区東田２－１－１０",
      "raw_prefecture": "福岡県",
      "raw_address": "福岡県北九州市八幡東区東田２－１－１０",
      "status": "ok",
      "updated_at": "2026-03-29T13:32:01+00:00",
      "lat": 33.8670911,
      "lng": 130.8095536,
      "formatted_address": "2-chōme-1-10 Higashida, Yahatahigashi Ward, Kitakyushu, Fukuoka 805-0071, Japan",
      "place_id": "ChIJCVsAAM3HQzURGVuA8xwNOXo"
    },
    "福岡県福岡県北九州市八幡西区永犬丸４－１０－３０": {
      "normalized_address": "福岡県福岡県北九州市八幡西区永犬丸４－１０－３０",
      "raw_prefecture": "福岡県",
      "raw_address": "福岡県北九州市八幡西区永犬丸４－１０－３０",
      "status": "ok",
      "updated_at": "2026-03-29T13:32:02+00:00",
      "lat": 33.8406224,
      "lng": 130.7337203,
      "formatted_address": "4-chōme-10-30 Einomaru, Yahatanishi Ward, Kitakyushu, Fukuoka 807-0851, Japan",
      "place_id": "ChIJGZNvs7_OQzURQP_5wbjErwI"
    },
    "福岡県福岡県北九州市小倉南区徳力新町１－８－２３": {
      "normalized_address": "福岡県福岡県北九州市小倉南区徳力新町１－８－２３",
      "raw_prefecture": "福岡県",
      "raw_address": "福岡県北九州市小倉南区徳力新町１－８－２３",
      "status": "ok",
      "updated_at": "2026-03-29T13:32:02+00:00",
      "lat": 33.8364886,
      "lng": 130.868728,
      "formatted_address": "1-chōme-8-23 Tokurikishinmachi, Kokuraminami Ward, Kitakyushu, Fukuoka 802-0979, Japan",
      "place_id": "ChIJj2inS9fGQzURDsViNygwurc"
    },
    "福岡県福岡県北九州市小倉南区湯川１－６－８": {
      "normalized_address": "福岡県福岡県北九州市小倉南区湯川１－６－８",
      "raw_prefecture": "福岡県",
      "raw_address": "福岡県北九州市小倉南区湯川１－６－８",
      "status": "ok",
      "updated_at": "2026-03-29T13:32:02+00:00",
      "lat": 33.8460363,
      "lng": 130.8996389,
      "formatted_address": "1-chōme-6-8 Yugawa, Kokuraminami Ward, Kitakyushu, Fukuoka 800-0257, Japan",
      "place_id": "ChIJx3946erAQzURCU2XpBZkBhY"
    },
    "福岡県福岡県北九州市戸畑区土取町１－１６": {
      "normalized_address": "福岡県福岡県北九州市戸畑区土取町１－１６",
      "raw_prefecture": "福岡県",
      "raw_address": "福岡県北九州市戸畑区土取町１－１６",
      "status": "ok",
      "updated_at": "2026-03-29T13:32:03+00:00",
      "lat": 33.887241,
      "lng": 130.8406314,
      "formatted_address": "1-16 Tsuchitorimachi, Tobata Ward, Kitakyushu, Fukuoka 804-0014, Japan",
      "place_id": "ChIJpfPm937HQzURMnmGW4lixTs"
    },
    "福岡県福岡県古賀市花鶴丘２－１０－１５": {
      "normalized_address": "福岡県福岡県古賀市花鶴丘２－１０－１５",
      "raw_prefecture": "福岡県",
      "raw_address": "福岡県古賀市花鶴丘２－１０－１５",
      "status": "ok",
      "updated_at": "2026-03-29T13:32:03+00:00",
      "lat": 33.7242148,
      "lng": 130.4646247,
      "formatted_address": "2-chōme-10-15 Kazurugaoka, Koga, Fukuoka 811-3104, Japan",
      "place_id": "ChIJV2ASVAyIQTUR7ReWqCqN_GY"
    },
    "福岡県福岡県古賀市駅東１－１－１第二庁舎２Ｆ環境課": {
      "normalized_address": "福岡県福岡県古賀市駅東１－１－１第二庁舎２Ｆ環境課",
      "raw_prefecture": "福岡県",
      "raw_address": "福岡県古賀市駅東１－１－１第二庁舎２Ｆ　環境課",
      "status": "ok",
      "updated_at": "2026-03-29T13:32:03+00:00",
      "lat": 33.7288142,
      "lng": 130.4700038,
      "formatted_address": "1-chōme-1-1 Ekihigashi, Koga, Fukuoka 811-3102, Japan",
      "place_id": "ChIJe3BreAiIQTURtmDCM8UX2HQ"
    },
    "福岡県福岡県嘉穂郡桂川町大字土居４２４－１": {
      "normalized_address": "福岡県福岡県嘉穂郡桂川町大字土居４２４－１",
      "raw_prefecture": "福岡県",
      "raw_address": "福岡県嘉穂郡桂川町大字土居４２４－１",
      "status": "ok",
      "updated_at": "2026-03-29T13:32:03+00:00",
      "lat": 33.5789177,
      "lng": 130.6780993,
      "formatted_address": "424-1 Toi, Keisen, Kaho District, Fukuoka 820-0696, Japan",
      "place_id": "ChIJ5X5KByt5QTURktxG0dDI74A"
    },
    "福岡県福岡県嘉麻市上８１５": {
      "normalized_address": "福岡県福岡県嘉麻市上８１５",
      "raw_prefecture": "福岡県",
      "raw_address": "福岡県嘉麻市上８１５",
      "status": "ok",
      "updated_at": "2026-03-29T13:32:04+00:00",
      "lat": 33.5371337,
      "lng": 130.767361,
      "formatted_address": "815 Kami, Kama, Fukuoka 820-0311, Japan",
      "place_id": "ChIJdyq_Q2V7QTURdt79NZ_MKa8"
    },
    "福岡県福岡県大牟田市健老町４６７": {
      "normalized_address": "福岡県福岡県大牟田市健老町４６７",
      "raw_prefecture": "福岡県",
      "raw_address": "福岡県大牟田市健老町４６７",
      "status": "ok",
      "updated_at": "2026-03-29T13:32:04+00:00",
      "lat": 33.048744,
      "lng": 130.4292166,
      "formatted_address": "467 Kenrōmachi, Omuta, Fukuoka 836-0011, Japan",
      "place_id": "ChIJZzX3TvhOQDURbGfqU7ZSZzc"
    },
    "福岡県福岡県大牟田市常盤町１－８": {
      "normalized_address": "福岡県福岡県大牟田市常盤町１－８",
      "raw_prefecture": "福岡県",
      "raw_address": "福岡県大牟田市常盤町１－８",
      "status": "ok",
      "updated_at": "2026-03-29T13:32:04+00:00",
      "lat": 33.0332817,
      "lng": 130.448609,
      "formatted_address": "Tokiwamachi, Omuta, Fukuoka 836-0832, Japan",
      "place_id": "ChIJ3Q1DLUtOQDURsLMshKU3u_o"
    },
    "福岡県福岡県大野城市御笠川１－１７－１２": {
      "normalized_address": "福岡県福岡県大野城市御笠川１－１７－１２",
      "raw_prefecture": "福岡県",
      "raw_address": "福岡県大野城市御笠川１－１７－１２",
      "status": "ok",
      "updated_at": "2026-03-29T13:32:04+00:00",
      "lat": 33.5451895,
      "lng": 130.4808655,
      "formatted_address": "1-chōme-17-12 Mikasagawa, Onojo, Fukuoka 816-0912, Japan",
      "place_id": "ChIJseU5Fn2aQTURp_0NfOpPgCg"
    },
    "福岡県福岡県大野城市曙町２－２－１": {
      "normalized_address": "福岡県福岡県大野城市曙町２－２－１",
      "raw_prefecture": "福岡県",
      "raw_address": "福岡県大野城市曙町２－２－１",
      "status": "ok",
      "updated_at": "2026-03-29T13:32:05+00:00",
      "lat": 33.5360121,
      "lng": 130.4785414,
      "formatted_address": "2-chōme-2-1 Akebonomachi, Onojo, Fukuoka 816-0934, Japan",
      "place_id": "ChIJsynM4XCaQTURueyg2Fds8SY"
    },
    "福岡県福岡県太宰府市観世音寺１－１－１": {
      "normalized_address": "福岡県福岡県太宰府市観世音寺１－１－１",
      "raw_prefecture": "福岡県",
      "raw_address": "福岡県太宰府市観世音寺１－１－１",
      "status": "ok",
      "updated_at": "2026-03-29T13:32:05+00:00",
      "lat": 33.5127717,
      "lng": 130.5239182,
      "formatted_address": "1-chōme-1-1 Kanzeonji, Dazaifu, Fukuoka 818-0101, Japan",
      "place_id": "ChIJTY5fN7ibQTURpnf7eDmlulE"
    },
    "福岡県福岡県宗像市田熊２－３－３６": {
      "normalized_address": "福岡県福岡県宗像市田熊２－３－３６",
      "raw_prefecture": "福岡県",
      "raw_address": "福岡県宗像市田熊２－３－３６",
      "status": "ok",
      "updated_at": "2026-03-29T13:32:05+00:00",
      "lat": 33.8012213,
      "lng": 130.5365607,
      "formatted_address": "2-chōme-3-36 Taguma, Munakata, Fukuoka 811-3431, Japan",
      "place_id": "ChIJe8Eyz74uQjURdfAi7QuizqQ"
    },
    "福岡県福岡県小郡市小郡２５５－１南別館１Ｆ": {
      "normalized_address": "福岡県福岡県小郡市小郡２５５－１南別館１Ｆ",
      "raw_prefecture": "福岡県",
      "raw_address": "福岡県小郡市小郡２５５－１南別館１Ｆ",
      "status": "ok",
      "updated_at": "2026-03-29T13:32:05+00:00",
      "lat": 33.396489,
      "lng": 130.5555046,
      "formatted_address": "1f, 255-1 Ogōri, Ogori, Fukuoka 838-0141, Japan",
      "place_id": "EjAxZiwgMjU1LTEgT2fFjXJpLCBPZ29yaSwgRnVrdW9rYSA4MzgtMDE0MSwgSmFwYW4iHhocChYKFAoSCUcjyjb4oUE1ES4qwwRTrrdVEgIxZg"
    },
    "福岡県福岡県春日市原町３－１－５": {
      "normalized_address": "福岡県福岡県春日市原町３－１－５",
      "raw_prefecture": "福岡県",
      "raw_address": "福岡県春日市原町３－１－５",
      "status": "ok",
      "updated_at": "2026-03-29T13:32:06+00:00",
      "lat": 33.5325883,
      "lng": 130.4705044,
      "formatted_address": "3-chōme-1-5 Haramachi, Kasuga, Fukuoka 816-8501, Japan",
      "place_id": "ChIJ8brUhJ-QQTURLDJTtBWUsdw"
    },
    "福岡県福岡県春日市大和町４－２６": {
      "normalized_address": "福岡県福岡県春日市大和町４－２６",
      "raw_prefecture": "福岡県",
      "raw_address": "福岡県春日市大和町４－２６",
      "status": "ok",
      "updated_at": "2026-03-29T13:32:06+00:00",
      "lat": 33.5356303,
      "lng": 130.4568488,
      "formatted_address": "4-chōme-26 Yamatomachi, Kasuga, Fukuoka 816-0874, Japan",
      "place_id": "ChIJC-CW172QQTURvUJGZGflQaU"
    },
    "福岡県福岡県春日市春日公園６－２": {
      "normalized_address": "福岡県福岡県春日市春日公園６－２",
      "raw_prefecture": "福岡県",
      "raw_address": "福岡県春日市春日公園６－２",
      "status": "ok",
      "updated_at": "2026-03-29T13:32:06+00:00",
      "lat": 33.5166704,
      "lng": 130.4756499,
      "formatted_address": "6-chōme-2 Kasugakōen, Kasuga, Fukuoka 816-0811, Japan",
      "place_id": "ChIJCc6xxwaaQTUR2f8yMS7xUBk"
    },
    "福岡県福岡県田川市大字川宮１５５０": {
      "normalized_address": "福岡県福岡県田川市大字川宮１５５０",
      "raw_prefecture": "福岡県",
      "raw_address": "福岡県田川市大字川宮１５５０",
      "status": "ok",
      "updated_at": "2026-03-29T13:32:06+00:00",
      "lat": 33.63928060000001,
      "lng": 130.7986236,
      "formatted_address": "Japan, 〒826-0042 Fukuoka, Tagawa, Kawamiya, １５５０ 1550番地",
      "place_id": "ChIJJUdgvCnYQzURqHXLJi0OtZE"
    },
    "福岡県福岡県直方市大字下境３９１２－１": {
      "normalized_address": "福岡県福岡県直方市大字下境３９１２－１",
      "raw_prefecture": "福岡県",
      "raw_address": "福岡県直方市大字下境３９１２－１",
      "status": "ok",
      "updated_at": "2026-03-29T13:32:07+00:00",
      "lat": 33.716278,
      "lng": 130.7291307,
      "formatted_address": "3912-1 Shimozakai, Nogata, Fukuoka 822-0007, Japan",
      "place_id": "ChIJ32rKkk7RQzURd2O1uL9ZpfE"
    },
    "福岡県福岡県直方市大字下新入１９２３－１": {
      "normalized_address": "福岡県福岡県直方市大字下新入１９２３－１",
      "raw_prefecture": "福岡県",
      "raw_address": "福岡県直方市大字下新入１９２３－１",
      "status": "ok",
      "updated_at": "2026-03-29T13:32:07+00:00",
      "lat": 33.7630181,
      "lng": 130.6834129,
      "formatted_address": "1923-1 Shimoshinnyū, Nogata, Fukuoka 822-0032, Japan",
      "place_id": "ChIJfVHbr63TQzURR6TRAlXUVL8"
    },
    "福岡県福岡県直方市大字知古２１－１": {
      "normalized_address": "福岡県福岡県直方市大字知古２１－１",
      "raw_prefecture": "福岡県",
      "raw_address": "福岡県直方市大字知古２１－１",
      "status": "ok",
      "updated_at": "2026-03-29T13:32:07+00:00",
      "lat": 33.7584347,
      "lng": 130.7302016,
      "formatted_address": "21-1 Chiko, Nogata, Fukuoka 822-0022, Japan",
      "place_id": "ChIJSVtI25DRQzURHFAxjQBF1uM"
    },
    "福岡県福岡県直方市殿町７－１": {
      "normalized_address": "福岡県福岡県直方市殿町７－１",
      "raw_prefecture": "福岡県",
      "raw_address": "福岡県直方市殿町７－１",
      "status": "ok",
      "updated_at": "2026-03-29T13:32:07+00:00",
      "lat": 33.7440642,
      "lng": 130.7296084,
      "formatted_address": "7-1 Tonomachi, Nogata, Fukuoka 822-0017, Japan",
      "place_id": "ChIJ8b0G63bRQzURq6bY9OuxIfw"
    },
    "福岡県福岡県福岡市中央区今泉１－２５－１西鉄福岡駅高架下": {
      "normalized_address": "福岡県福岡県福岡市中央区今泉１－２５－１西鉄福岡駅高架下",
      "raw_prefecture": "福岡県",
      "raw_address": "福岡県福岡市中央区今泉１－２５－１西鉄福岡駅高架下",
      "status": "ok",
      "updated_at": "2026-03-29T13:32:08+00:00",
      "lat": 33.5870834,
      "lng": 130.4010139,
      "formatted_address": "Japan, 〒810-0004 Fukuoka, 福岡市中央区Chuo Ward, Imaizumi, 1-chōme−２５−１",
      "place_id": "ChIJO0icrpqRQTURy6-oENHrsQk"
    },
    "福岡県福岡県福岡市中央区地行浜２－２－１": {
      "normalized_address": "福岡県福岡県福岡市中央区地行浜２－２－１",
      "raw_prefecture": "福岡県",
      "raw_address": "福岡県福岡市中央区地行浜２－２－１",
      "status": "ok",
      "updated_at": "2026-03-29T13:32:08+00:00",
      "lat": 33.5931341,
      "lng": 130.3635701,
      "formatted_address": "2-chōme-2-1 Jigyōhama, Chuo Ward, Fukuoka, 810-0065, Japan",
      "place_id": "ChIJRwsDyEySQTURH36CNDgl6xw"
    },
    "福岡県福岡県福岡市南区向野１－２０－７": {
      "normalized_address": "福岡県福岡県福岡市南区向野１－２０－７",
      "raw_prefecture": "福岡県",
      "raw_address": "福岡県福岡市南区向野１－２０－７",
      "status": "ok",
      "updated_at": "2026-03-29T13:32:08+00:00",
      "lat": 33.56190240000001,
      "lng": 130.4207901,
      "formatted_address": "1-chōme-20-7 Mukaino, Minami Ward, Fukuoka, 815-0035, Japan",
      "place_id": "ChIJUeMF9A-RQTUR8vFZJ9Vi2TM"
    },
    "福岡県福岡県福岡市博多区千代６－１－７０": {
      "normalized_address": "福岡県福岡県福岡市博多区千代６－１－７０",
      "raw_prefecture": "福岡県",
      "raw_address": "福岡県福岡市博多区千代６－１－７０",
      "status": "ok",
      "updated_at": "2026-03-29T13:32:08+00:00",
      "lat": 33.6063297,
      "lng": 130.4092357,
      "formatted_address": "6-chōme-1-70 Chiyo, Hakata Ward, Fukuoka, 812-0044, Japan",
      "place_id": "ChIJR8KVFueRQTURbV2d8ZDpKLs"
    },
    "福岡県福岡県福岡市博多区那珂３－５－１５": {
      "normalized_address": "福岡県福岡県福岡市博多区那珂３－５－１５",
      "raw_prefecture": "福岡県",
      "raw_address": "福岡県福岡市博多区那珂３－５－１５",
      "status": "ok",
      "updated_at": "2026-03-29T13:32:09+00:00",
      "lat": 33.5711519,
      "lng": 130.4385522,
      "formatted_address": "3-chōme-5-15 Naka, Hakata Ward, Fukuoka, 812-0893, Japan",
      "place_id": "ChIJU618sVGQQTURduPRHTgAEhk"
    },
    "福岡県福岡県福岡市博多区那珂６－２３－１ららぽーと福岡１階１５０５０": {
      "normalized_address": "福岡県福岡県福岡市博多区那珂６－２３－１ららぽーと福岡１階１５０５０",
      "raw_prefecture": "福岡県",
      "raw_address": "福岡県福岡市博多区那珂６－２３－１ららぽーと福岡１階１５０５０",
      "status": "ok",
      "updated_at": "2026-03-29T13:32:09+00:00",
      "lat": 33.5651676,
      "lng": 130.4409414,
      "formatted_address": "6-chōme-23-1 Naka, Hakata Ward, Fukuoka, 812-8627, Japan",
      "place_id": "ChIJEdlnmueRQTURANHkHiY3d-U"
    },
    "福岡県福岡県福岡市城南区長尾２－７－１２": {
      "normalized_address": "福岡県福岡県福岡市城南区長尾２－７－１２",
      "raw_prefecture": "福岡県",
      "raw_address": "福岡県福岡市城南区長尾２－７－１２",
      "status": "ok",
      "updated_at": "2026-03-29T13:32:09+00:00",
      "lat": 33.5582113,
      "lng": 130.3838201,
      "formatted_address": "Japan, 〒814-0123 Fukuoka, Jonan Ward, Nagao, 2-chōme−7−１２ ＹＳＰ友泉",
      "place_id": "ChIJbZ0b7OSTQTURi7fT3Xcq8oI"
    },
    "福岡県福岡県福岡市城南区長尾３－１５－１４": {
      "normalized_address": "福岡県福岡県福岡市城南区長尾３－１５－１４",
      "raw_prefecture": "福岡県",
      "raw_address": "福岡県福岡市城南区長尾３－１５－１４",
      "status": "ok",
      "updated_at": "2026-03-29T13:32:10+00:00",
      "lat": 33.553371,
      "lng": 130.3871374,
      "formatted_address": "3-chōme-15-14 Nagao, Jonan Ward, Fukuoka, 814-0123, Japan",
      "place_id": "ChIJa5Ys8fyTQTURVsfDZ_u9oHU"
    },
    "福岡県福岡県福岡市城南区長尾５－３０－１７": {
      "normalized_address": "福岡県福岡県福岡市城南区長尾５－３０－１７",
      "raw_prefecture": "福岡県",
      "raw_address": "福岡県福岡市城南区長尾５－３０－１７",
      "status": "ok",
      "updated_at": "2026-03-29T13:32:10+00:00",
      "lat": 33.5574568,
      "lng": 130.3790488,
      "formatted_address": "5-chōme-30-17 Nagao, Jonan Ward, Fukuoka, 814-0123, Japan",
      "place_id": "ChIJWRFQFfCTQTURbEfYR3wmaxY"
    },
    "福岡県福岡県福岡市早良区小田部２－１４－２５": {
      "normalized_address": "福岡県福岡県福岡市早良区小田部２－１４－２５",
      "raw_prefecture": "福岡県",
      "raw_address": "福岡県福岡市早良区小田部２－１４－２５",
      "status": "ok",
      "updated_at": "2026-03-29T13:32:10+00:00",
      "lat": 33.5677543,
      "lng": 130.3351401,
      "formatted_address": "2-chōme-14-25 Kotabe, Sawara Ward, Fukuoka, 814-0032, Japan",
      "place_id": "ChIJjRXjPGKTQTURFvOPP4Rsds4"
    },
    "福岡県福岡県福岡市早良区次郎丸６－２－１０": {
      "normalized_address": "福岡県福岡県福岡市早良区次郎丸６－２－１０",
      "raw_prefecture": "福岡県",
      "raw_address": "福岡県福岡市早良区次郎丸６－２－１０",
      "status": "ok",
      "updated_at": "2026-03-29T13:32:10+00:00",
      "lat": 33.5509075,
      "lng": 130.3341833,
      "formatted_address": "6-chōme-2-10 Jirōmaru, Sawara Ward, Fukuoka, 814-0165, Japan",
      "place_id": "ChIJVxjUeZSUQTURg1s29Yh43zQ"
    },
    "福岡県福岡県福岡市東区千早４－７－３": {
      "normalized_address": "福岡県福岡県福岡市東区千早４－７－３",
      "raw_prefecture": "福岡県",
      "raw_address": "福岡県福岡市東区千早４－７－３",
      "status": "ok",
      "updated_at": "2026-03-29T13:32:11+00:00",
      "lat": 33.6461789,
      "lng": 130.435185,
      "formatted_address": "4-chōme-7-3 Chihaya, Higashi Ward, Fukuoka, 813-0044, Japan",
      "place_id": "ChIJqaFZmAOPQTURmACmDbEH3ws"
    },
    "福岡県福岡県福岡市西区今津１８５１－４": {
      "normalized_address": "福岡県福岡県福岡市西区今津１８５１－４",
      "raw_prefecture": "福岡県",
      "raw_address": "福岡県福岡市西区今津１８５１－４",
      "status": "ok",
      "updated_at": "2026-03-29T13:32:11+00:00",
      "lat": 33.603387,
      "lng": 130.2592598,
      "formatted_address": "1851-4 Imazu, Nishi Ward, Fukuoka, 819-0165, Japan",
      "place_id": "ChIJ_WXF83rsQTURzeJBoNkUJPE"
    },
    "福岡県福岡県福岡市西区徳永北１３－８": {
      "normalized_address": "福岡県福岡県福岡市西区徳永北１３－８",
      "raw_prefecture": "福岡県",
      "raw_address": "福岡県福岡市西区徳永北１３－８",
      "status": "ok",
      "updated_at": "2026-03-29T13:32:11+00:00",
      "lat": 33.5739012,
      "lng": 130.2565519,
      "formatted_address": "13-8 Tokunagakita, Nishi Ward, Fukuoka, 819-0378, Japan",
      "place_id": "ChIJhaJnn7zrQTURMALPa5P1YiI"
    },
    "福岡県福岡県福岡市西区石丸１－３－１８": {
      "normalized_address": "福岡県福岡県福岡市西区石丸１－３－１８",
      "raw_prefecture": "福岡県",
      "raw_address": "福岡県福岡市西区石丸１－３－１８",
      "status": "ok",
      "updated_at": "2026-03-29T13:32:11+00:00",
      "lat": 33.5744096,
      "lng": 130.3226209,
      "formatted_address": "1-chōme-3-18 Ishimaru, Nishi Ward, Fukuoka, 819-0025, Japan",
      "place_id": "ChIJg-omF1mTQTURSyLtVVZ0cMA"
    },
    "福岡県福岡県筑後市大字前津２１０５－２": {
      "normalized_address": "福岡県福岡県筑後市大字前津２１０５－２",
      "raw_prefecture": "福岡県",
      "raw_address": "福岡県筑後市大字前津２１０５－２",
      "status": "ok",
      "updated_at": "2026-03-29T13:32:12+00:00",
      "lat": 33.2256134,
      "lng": 130.520503,
      "formatted_address": "2105-2 Maezu, Chikugo, Fukuoka 833-0002, Japan",
      "place_id": "ChIJh3r5dvuuQTURdPMlwdzm7KU"
    },
    "福岡県福岡県筑紫野市石崎１丁目１－１": {
      "normalized_address": "福岡県福岡県筑紫野市石崎１丁目１－１",
      "raw_prefecture": "福岡県",
      "raw_address": "福岡県筑紫野市石崎１丁目１－１",
      "status": "ok",
      "updated_at": "2026-03-29T13:32:12+00:00",
      "lat": 33.4879974,
      "lng": 130.5249994,
      "formatted_address": "1-chōme-1-1 Ishizaki, Chikushino, Fukuoka 818-0068, Japan",
      "place_id": "ChIJrZIDcWOZQTURnRCE9elXREE"
    },
    "福岡県福岡県築上郡上毛町大字垂水１３２１－１": {
      "normalized_address": "福岡県福岡県築上郡上毛町大字垂水１３２１－１",
      "raw_prefecture": "福岡県",
      "raw_address": "福岡県築上郡上毛町大字垂水１３２１－１",
      "status": "ok",
      "updated_at": "2026-03-29T13:32:12+00:00",
      "lat": 33.5784627,
      "lng": 131.164114,
      "formatted_address": "1321-1 Tarumi, Koge, Chikujo District, Fukuoka 871-0913, Japan",
      "place_id": "ChIJ3zRnulb6QzURybMAU5tPF0o"
    },
    "福岡県福岡県築上郡吉富町大字広津２２６－１": {
      "normalized_address": "福岡県福岡県築上郡吉富町大字広津２２６－１",
      "raw_prefecture": "福岡県",
      "raw_address": "福岡県築上郡吉富町大字広津２２６－１",
      "status": "ok",
      "updated_at": "2026-03-29T13:32:12+00:00",
      "lat": 33.6026605,
      "lng": 131.1759577,
      "formatted_address": "226-1 Hirotsu, Yoshitomi, Chikujo District, Fukuoka 871-0811, Japan",
      "place_id": "ChIJRdwrPXT6QzURG6BqMY-8O5s"
    },
    "福岡県福岡県築上郡築上町大字椎田８９１－２": {
      "normalized_address": "福岡県福岡県築上郡築上町大字椎田８９１－２",
      "raw_prefecture": "福岡県",
      "raw_address": "福岡県築上郡築上町大字椎田８９１－２",
      "status": "ok",
      "updated_at": "2026-03-29T13:32:13+00:00",
      "lat": 33.656151,
      "lng": 131.0560596,
      "formatted_address": "891-2 Shiida, Chikujo, Chikujo District, Fukuoka 829-0301, Japan",
      "place_id": "ChIJQW2UGV_vQzURiY58T2JceLQ"
    },
    "福岡県福岡県築上郡築上町大字椎田９６２番地８": {
      "normalized_address": "福岡県福岡県築上郡築上町大字椎田９６２番地８",
      "raw_prefecture": "福岡県",
      "raw_address": "福岡県築上郡築上町大字椎田９６２番地８",
      "status": "ok",
      "updated_at": "2026-03-29T13:32:13+00:00",
      "lat": 33.6544762,
      "lng": 131.057587,
      "formatted_address": "962-8 Shiida, Chikujo, Chikujo District, Fukuoka 829-0301, Japan",
      "place_id": "ChIJjyUZml_vQzURtQumSpolPrI"
    },
    "福岡県福岡県築上郡築上町大字築城１０９６番地": {
      "normalized_address": "福岡県福岡県築上郡築上町大字築城１０９６番地",
      "raw_prefecture": "福岡県",
      "raw_address": "福岡県築上郡築上町大字築城１０９６番地",
      "status": "ok",
      "updated_at": "2026-03-29T13:32:13+00:00",
      "lat": 33.6650863,
      "lng": 131.030217,
      "formatted_address": "1096 Tsuiki, Chikujo, Chikujo District, Fukuoka 829-0102, Japan",
      "place_id": "ChIJ_7lAGqjoQzURs-4sB620HSU"
    },
    "福岡県福岡県築上郡築上町大字築城１７８４番地": {
      "normalized_address": "福岡県福岡県築上郡築上町大字築城１７８４番地",
      "raw_prefecture": "福岡県",
      "raw_address": "福岡県築上郡築上町大字築城１７８４番地",
      "status": "ok",
      "updated_at": "2026-03-29T13:32:13+00:00",
      "lat": 33.6610869,
      "lng": 131.0442414,
      "formatted_address": "1784 Tsuiki, Chikujo, Chikujo District, Fukuoka 829-0102, Japan",
      "place_id": "ChIJf2RG0VXvQzURJpeZmnxqf-0"
    },
    "福岡県福岡県築上郡築上町大字築城２５３番地１": {
      "normalized_address": "福岡県福岡県築上郡築上町大字築城２５３番地１",
      "raw_prefecture": "福岡県",
      "raw_address": "福岡県築上郡築上町大字築城２５３番地１",
      "status": "ok",
      "updated_at": "2026-03-29T13:32:14+00:00",
      "lat": 33.6684468,
      "lng": 131.0358582,
      "formatted_address": "253-1 Tsuiki, Chikujo, Chikujo District, Fukuoka 829-0102, Japan",
      "place_id": "ChIJmc1SQKzoQzURocXXz8nTTfU"
    },
    "福岡県福岡県築上郡築上町椎田１７２５－４": {
      "normalized_address": "福岡県福岡県築上郡築上町椎田１７２５－４",
      "raw_prefecture": "福岡県",
      "raw_address": "福岡県築上郡築上町椎田１７２５－４",
      "status": "ok",
      "updated_at": "2026-03-29T13:32:14+00:00",
      "lat": 33.6539322,
      "lng": 131.0610649,
      "formatted_address": "1725-4 Shiida, Chikujo, Chikujo District, Fukuoka 829-0301, Japan",
      "place_id": "ChIJEbzJRGDvQzUR9506Pidu2wI"
    },
    "福岡県福岡県築上郡築上町高塚７５６番地": {
      "normalized_address": "福岡県福岡県築上郡築上町高塚７５６番地",
      "raw_prefecture": "福岡県",
      "raw_address": "福岡県築上郡築上町高塚７５６番地",
      "status": "ok",
      "updated_at": "2026-03-29T13:32:14+00:00",
      "lat": 33.6562869,
      "lng": 131.0628622,
      "formatted_address": "756 Takatsuka, Chikujo, Chikujo District, Fukuoka 829-0331, Japan",
      "place_id": "ChIJAWckzWbvQzURxuJvTMalorE"
    },
    "福岡県福岡県糟屋郡久山町大字久原３６３２": {
      "normalized_address": "福岡県福岡県糟屋郡久山町大字久原３６３２",
      "raw_prefecture": "福岡県",
      "raw_address": "福岡県糟屋郡久山町大字久原３６３２",
      "status": "ok",
      "updated_at": "2026-03-29T13:32:14+00:00",
      "lat": 33.6467524,
      "lng": 130.4998978,
      "formatted_address": "3632 Kubara, Hisayama, Kasuya District, Fukuoka 811-2501, Japan",
      "place_id": "ChIJCyzl1NuFQTUReAbNmsowgeU"
    },
    "福岡県福岡県糟屋郡宇美町ゆりが丘１－３－１": {
      "normalized_address": "福岡県福岡県糟屋郡宇美町ゆりが丘１－３－１",
      "raw_prefecture": "福岡県",
      "raw_address": "福岡県糟屋郡宇美町ゆりが丘１－３－１",
      "status": "ok",
      "updated_at": "2026-03-29T13:32:15+00:00",
      "lat": 33.5560018,
      "lng": 130.5279261,
      "formatted_address": "1-chōme-3-1 Yurigaoka, Umi, Kasuya District, Fukuoka 811-2108, Japan",
      "place_id": "ChIJ6WgAAjqbQTUR9N_jHqprm1M"
    },
    "福岡県福岡県糟屋郡宇美町宇美５－１－１南館": {
      "normalized_address": "福岡県福岡県糟屋郡宇美町宇美５－１－１南館",
      "raw_prefecture": "福岡県",
      "raw_address": "福岡県糟屋郡宇美町宇美５－１－１南館",
      "status": "ok",
      "updated_at": "2026-03-29T13:32:15+00:00",
      "lat": 33.5672427,
      "lng": 130.51171,
      "formatted_address": "5 Chome-1 Umi, Kasuya District, Fukuoka 811-2101, Japan",
      "place_id": "ChIJW3EDWDqbQTURa4T1LXfIEzU"
    },
    "福岡県福岡県糟屋郡宇美町宇美５－１－１本館": {
      "normalized_address": "福岡県福岡県糟屋郡宇美町宇美５－１－１本館",
      "raw_prefecture": "福岡県",
      "raw_address": "福岡県糟屋郡宇美町宇美５－１－１本館",
      "status": "ok",
      "updated_at": "2026-03-29T13:32:15+00:00",
      "lat": 33.5610062,
      "lng": 130.5635665,
      "formatted_address": "Umi, Kasuya District, Fukuoka 811-2101, Japan",
      "place_id": "ChIJ85mRT7CEQTURa884gp-xXxA"
    },
    "福岡県福岡県糟屋郡宇美町平和１－１－１": {
      "normalized_address": "福岡県福岡県糟屋郡宇美町平和１－１－１",
      "raw_prefecture": "福岡県",
      "raw_address": "福岡県糟屋郡宇美町平和１－１－１",
      "status": "ok",
      "updated_at": "2026-03-29T13:32:15+00:00",
      "lat": 33.5724593,
      "lng": 130.5141651,
      "formatted_address": "1-chōme-1-1-1 Heiwa, Umi, Kasuya District, Fukuoka 811-2121, Japan",
      "place_id": "ChIJBbhEFNWEQTUR2hj-1zFmWxM"
    },
    "福岡県福岡県糟屋郡宇美町貴船２－２８－１": {
      "normalized_address": "福岡県福岡県糟屋郡宇美町貴船２－２８－１",
      "raw_prefecture": "福岡県",
      "raw_address": "福岡県糟屋郡宇美町貴船２－２８－１",
      "status": "ok",
      "updated_at": "2026-03-29T13:32:16+00:00",
      "lat": 33.5596254,
      "lng": 130.5115887,
      "formatted_address": "2-chōme-28-1 Kifune, Umi, Kasuya District, Fukuoka 811-2131, Japan",
      "place_id": "ChIJabEMktiaQTURQIhLSiZ6eDw"
    },
    "福岡県福岡県糟屋郡志免町南里５－１－８": {
      "normalized_address": "福岡県福岡県糟屋郡志免町南里５－１－８",
      "raw_prefecture": "福岡県",
      "raw_address": "福岡県糟屋郡志免町南里５－１－８",
      "status": "ok",
      "updated_at": "2026-03-29T13:32:16+00:00",
      "lat": 33.5985588,
      "lng": 130.4732894,
      "formatted_address": "Japan, 〒811-2207 Fukuoka, Kasuya District, Shime, Minamizato, 5-chōme−1−８ 1番8号",
      "place_id": "ChIJ3WdgZ1iFQTURwLX45SEKPGs"
    },
    "福岡県福岡県糟屋郡志免町志免中央１－１－１": {
      "normalized_address": "福岡県福岡県糟屋郡志免町志免中央１－１－１",
      "raw_prefecture": "福岡県",
      "raw_address": "福岡県糟屋郡志免町志免中央１－１－１",
      "status": "ok",
      "updated_at": "2026-03-29T13:32:16+00:00",
      "lat": 33.591486,
      "lng": 130.4798409,
      "formatted_address": "1-chōme-1-1 Shimechūō, Shime, Kasuya District, Fukuoka 811-2244, Japan",
      "place_id": "ChIJzUInqlGFQTURQPbG5h7NfKY"
    },
    "福岡県福岡県糟屋郡新宮町新宮東５－４－１０": {
      "normalized_address": "福岡県福岡県糟屋郡新宮町新宮東５－４－１０",
      "raw_prefecture": "福岡県",
      "raw_address": "福岡県糟屋郡新宮町新宮東５－４－１０",
      "status": "ok",
      "updated_at": "2026-03-29T13:32:16+00:00",
      "lat": 33.7024481,
      "lng": 130.4534983,
      "formatted_address": "5-chōme-4-10 Shingūhigashi, Shingu, Kasuya District, Fukuoka 811-0124, Japan",
      "place_id": "ChIJB1jdnIyIQTUReYl4d-3XC4A"
    },
    "福岡県福岡県糟屋郡篠栗町大字若杉７７９－１８": {
      "normalized_address": "福岡県福岡県糟屋郡篠栗町大字若杉７７９－１８",
      "raw_prefecture": "福岡県",
      "raw_address": "福岡県糟屋郡篠栗町大字若杉７７９－１８",
      "status": "ok",
      "updated_at": "2026-03-29T13:32:17+00:00",
      "lat": 33.6065692,
      "lng": 130.5167091,
      "formatted_address": "779-18 Wakasugi, Sasaguri, Kasuya District, Fukuoka 811-2411, Japan",
      "place_id": "ChIJwVCHOP-EQTURuRrfyCsNptI"
    },
    "福岡県福岡県糸島市前原西１－１－１": {
      "normalized_address": "福岡県福岡県糸島市前原西１－１－１",
      "raw_prefecture": "福岡県",
      "raw_address": "福岡県糸島市前原西１－１－１",
      "status": "ok",
      "updated_at": "2026-03-29T13:32:17+00:00",
      "lat": 33.5573666,
      "lng": 130.1955902,
      "formatted_address": "1-chōme-1-1 Maebarunishi, Itoshima, Fukuoka 819-1117, Japan",
      "place_id": "ChIJoQCEn8_pQTUR5uUcaanLfBI"
    },
    "福岡県福岡県糸島市志摩西貝塚１２２": {
      "normalized_address": "福岡県福岡県糸島市志摩西貝塚１２２",
      "raw_prefecture": "福岡県",
      "raw_address": "福岡県糸島市志摩西貝塚１２２",
      "status": "ok",
      "updated_at": "2026-03-29T13:32:17+00:00",
      "lat": 33.5758157,
      "lng": 130.1393823,
      "formatted_address": "122 Shimanishikaizuka, Itoshima, Fukuoka 819-1325, Japan",
      "place_id": "ChIJt9z6QvvnQTURWp_i_18StVg"
    },
    "福岡県福岡県糸島市波多江駅北２－７－１２": {
      "normalized_address": "福岡県福岡県糸島市波多江駅北２－７－１２",
      "raw_prefecture": "福岡県",
      "raw_address": "福岡県糸島市波多江駅北２－７－１２",
      "status": "ok",
      "updated_at": "2026-03-29T13:32:17+00:00",
      "lat": 33.5644309,
      "lng": 130.2222334,
      "formatted_address": "2-chōme-7-12 Hataeekikita, Itoshima, Fukuoka 819-1107, Japan",
      "place_id": "ChIJr9lmCYbpQTURJWuFpSUp6HM"
    },
    "福岡県福岡県行橋市中央１－１－１": {
      "normalized_address": "福岡県福岡県行橋市中央１－１－１",
      "raw_prefecture": "福岡県",
      "raw_address": "福岡県行橋市中央１－１－１",
      "status": "ok",
      "updated_at": "2026-03-29T13:32:18+00:00",
      "lat": 33.7288128,
      "lng": 130.9829991,
      "formatted_address": "1-chōme-1-1 Chūō, Yukuhashi, Fukuoka 824-0005, Japan",
      "place_id": "ChIJn4K1PrfpQzURjtkvgIJh8DM"
    },
    "福岡県福岡県豊前市大字八屋３２２－４５": {
      "normalized_address": "福岡県福岡県豊前市大字八屋３２２－４５",
      "raw_prefecture": "福岡県",
      "raw_address": "福岡県豊前市大字八屋３２２－４５",
      "status": "ok",
      "updated_at": "2026-03-29T13:32:18+00:00",
      "lat": 33.6233485,
      "lng": 131.1098834,
      "formatted_address": "322-45 Hachiya, Buzen, Fukuoka 828-0021, Japan",
      "place_id": "ChIJIdO2qlrlQzURHUi9dRH76Io"
    },
    "福岡県福岡県遠賀郡遠賀町遠賀川２－１－１": {
      "normalized_address": "福岡県福岡県遠賀郡遠賀町遠賀川２－１－１",
      "raw_prefecture": "福岡県",
      "raw_address": "福岡県遠賀郡遠賀町遠賀川２－１－１",
      "status": "ok",
      "updated_at": "2026-03-29T13:32:18+00:00",
      "lat": 33.847808,
      "lng": 130.673145,
      "formatted_address": "2-chōme-1-1 Ongagawa, Onga, Onga District, Fukuoka 811-4307, Japan",
      "place_id": "ChIJNbZCGf_MQzURzCn90jZZYYU"
    },
    "福岡県福岡県那珂川市仲２－５－１": {
      "normalized_address": "福岡県福岡県那珂川市仲２－５－１",
      "raw_prefecture": "福岡県",
      "raw_address": "福岡県那珂川市仲２－５－１",
      "status": "ok",
      "updated_at": "2026-03-29T13:32:18+00:00",
      "lat": 33.507205,
      "lng": 130.4283527,
      "formatted_address": "2-chōme-5-1 Chū, Nakagawa, Fukuoka 811-1253, Japan",
      "place_id": "ChIJta-kduGWQTUR7fufcpLgRXM"
    },
    "福岡県福岡県那珂川市大字安徳６１－１８": {
      "normalized_address": "福岡県福岡県那珂川市大字安徳６１－１８",
      "raw_prefecture": "福岡県",
      "raw_address": "福岡県那珂川市大字安徳６１－１８",
      "status": "ok",
      "updated_at": "2026-03-29T13:32:19+00:00",
      "lat": 33.4940246,
      "lng": 130.4316428,
      "formatted_address": "61-18 Antoku, Nakagawa, Fukuoka 811-1224, Japan",
      "place_id": "ChIJowMU2gGXQTURVKO8eZG_aZc"
    },
    "福岡県福岡県那珂川市松木１－１３７": {
      "normalized_address": "福岡県福岡県那珂川市松木１－１３７",
      "raw_prefecture": "福岡県",
      "raw_address": "福岡県那珂川市松木１－１３７",
      "status": "ok",
      "updated_at": "2026-03-29T13:32:19+00:00",
      "lat": 33.5117543,
      "lng": 130.4347844,
      "formatted_address": "1-chōme-137 Matsunoki, Nakagawa, Fukuoka 811-1251, Japan",
      "place_id": "ChIJm4_oEyGXQTUR99CnEwH1hVA"
    },
    "福岡県福岡県那珂川市西隈１－１－１": {
      "normalized_address": "福岡県福岡県那珂川市西隈１－１－１",
      "raw_prefecture": "福岡県",
      "raw_address": "福岡県那珂川市西隈１－１－１",
      "status": "ok",
      "updated_at": "2026-03-29T13:32:19+00:00",
      "lat": 33.4992044,
      "lng": 130.4225517,
      "formatted_address": "1-chōme-1-1 Nishiguma, Nakagawa, Fukuoka 811-1242, Japan",
      "place_id": "ChIJTb1SivmWQTURaV_z0DH0hR4"
    },
    "福岡県福岡県飯塚市吉北１１８－２": {
      "normalized_address": "福岡県福岡県飯塚市吉北１１８－２",
      "raw_prefecture": "福岡県",
      "raw_address": "福岡県飯塚市吉北１１８－２",
      "status": "ok",
      "updated_at": "2026-03-29T13:32:19+00:00",
      "lat": 33.6800358,
      "lng": 130.6909263,
      "formatted_address": "118-2 Yoshikita, Iizuka, Fukuoka 820-0061, Japan",
      "place_id": "ChIJjRvfSbfVQzUR0CbCLXqU2Jg"
    }
  }
}
