{
  "version": 1,
  "generated_at": "2026-03-29T13:32:31+00:00",
  "source_file": "docs/data/2-41.json",
  "entries": {
    "佐賀県佐賀県伊万里市二里町大里乙３２１－３": {
      "normalized_address": "佐賀県佐賀県伊万里市二里町大里乙３２１－３",
      "raw_prefecture": "佐賀県",
      "raw_address": "佐賀県伊万里市二里町大里乙３２１－３",
      "status": "ok",
      "updated_at": "2026-03-29T13:32:20+00:00",
      "lat": 33.2567095,
      "lng": 129.8547371,
      "formatted_address": "Ōzatootsu-321-3 Nirichō, Imari, Saga 848-0035, Japan",
      "place_id": "ChIJv7NCtwOFajURWVqge4NPKkE"
    },
    "佐賀県佐賀県伊万里市南波多町井手野２６８５－１": {
      "normalized_address": "佐賀県佐賀県伊万里市南波多町井手野２６８５－１",
      "raw_prefecture": "佐賀県",
      "raw_address": "佐賀県伊万里市南波多町井手野２６８５－１",
      "status": "ok",
      "updated_at": "2026-03-29T13:32:20+00:00",
      "lat": 33.3126023,
      "lng": 129.9307841,
      "formatted_address": "Ideno-2685-1 Minamihatachō, Imari, Saga 848-0007, Japan",
      "place_id": "ChIJw_VfuPyAajURv5wEQ74TVoE"
    },
    "佐賀県佐賀県伊万里市大坪町甲２８６３－１": {
      "normalized_address": "佐賀県佐賀県伊万里市大坪町甲２８６３－１",
      "raw_prefecture": "佐賀県",
      "raw_address": "佐賀県伊万里市大坪町甲２８６３－１",
      "status": "ok",
      "updated_at": "2026-03-29T13:32:20+00:00",
      "lat": 33.2747134,
      "lng": 129.8867248,
      "formatted_address": "Kō-2863 Ōtsubochō, Imari, Saga 848-0021, Japan",
      "place_id": "ChIJnf4xhRGEajUR3gc-Vphyh24"
    },
    "佐賀県佐賀県伊万里市大川内町丙２４１０－１": {
      "normalized_address": "佐賀県佐賀県伊万里市大川内町丙２４１０－１",
      "raw_prefecture": "佐賀県",
      "raw_address": "佐賀県伊万里市大川内町丙２４１０－１",
      "status": "ok",
      "updated_at": "2026-03-29T13:32:20+00:00",
      "lat": 33.259635,
      "lng": 129.8950716,
      "formatted_address": "Hei-2410-1 Ōkawachichō, Imari, Saga 848-0026, Japan",
      "place_id": "ChIJ-S993XaEajURJ31nmAxaos4"
    },
    "佐賀県佐賀県伊万里市大川町大川野３３４０－１": {
      "normalized_address": "佐賀県佐賀県伊万里市大川町大川野３３４０－１",
      "raw_prefecture": "佐賀県",
      "raw_address": "佐賀県伊万里市大川町大川野３３４０－１",
      "status": "ok",
      "updated_at": "2026-03-29T13:32:21+00:00",
      "lat": 33.3049173,
      "lng": 129.9727133,
      "formatted_address": "Ōkawano-3340-1 Ōkawachō, Imari, Saga 849-5251, Japan",
      "place_id": "ChIJi1eq4ySAajURYCK4ab5qz6A"
    },
    "佐賀県佐賀県伊万里市山代町久原２６９６－２": {
      "normalized_address": "佐賀県佐賀県伊万里市山代町久原２６９６－２",
      "raw_prefecture": "佐賀県",
      "raw_address": "佐賀県伊万里市山代町久原２６９６－２",
      "status": "ok",
      "updated_at": "2026-03-29T13:32:21+00:00",
      "lat": 33.3111123,
      "lng": 129.8100801,
      "formatted_address": "Kubara-2696-2 Yamashirochō, Imari, Saga 849-4256, Japan",
      "place_id": "ChIJZU_AGVGPajUR2Wh4OVul1mw"
    },
    "佐賀県佐賀県伊万里市木須町５８３２－２": {
      "normalized_address": "佐賀県佐賀県伊万里市木須町５８３２－２",
      "raw_prefecture": "佐賀県",
      "raw_address": "佐賀県伊万里市木須町５８３２－２",
      "status": "ok",
      "updated_at": "2026-03-29T13:32:21+00:00",
      "lat": 33.2960155,
      "lng": 129.855534,
      "formatted_address": "5832-2 Kisuchō, Imari, Saga 848-0044, Japan",
      "place_id": "ChIJqRKKhtSFajURYTJOirBKRs8"
    },
    "佐賀県佐賀県伊万里市東山代町里１０５": {
      "normalized_address": "佐賀県佐賀県伊万里市東山代町里１０５",
      "raw_prefecture": "佐賀県",
      "raw_address": "佐賀県伊万里市東山代町里１０５",
      "status": "ok",
      "updated_at": "2026-03-29T13:32:21+00:00",
      "lat": 33.2849169,
      "lng": 129.8359119,
      "formatted_address": "Sato-105 Higashiyamashirochō, Imari, Saga 849-4282, Japan",
      "place_id": "ChIJO5cZw5WFajURLAQy9e8yWKA"
    },
    "佐賀県佐賀県伊万里市松島町３５０－４": {
      "normalized_address": "佐賀県佐賀県伊万里市松島町３５０－４",
      "raw_prefecture": "佐賀県",
      "raw_address": "佐賀県伊万里市松島町３５０－４",
      "status": "ok",
      "updated_at": "2026-03-29T13:32:22+00:00",
      "lat": 33.2780935,
      "lng": 129.8761417,
      "formatted_address": "350-4 Matsushimachō, Imari, Saga 848-0045, Japan",
      "place_id": "ChIJxSHMeD6EajURMIeRni1ZRkU"
    },
    "佐賀県佐賀県伊万里市松浦町山形５０９２－４": {
      "normalized_address": "佐賀県佐賀県伊万里市松浦町山形５０９２－４",
      "raw_prefecture": "佐賀県",
      "raw_address": "佐賀県伊万里市松浦町山形５０９２－４",
      "status": "ok",
      "updated_at": "2026-03-29T13:32:22+00:00",
      "lat": 33.2570035,
      "lng": 129.9419961,
      "formatted_address": "Yamagata-5092-4 Matsuurachō, Imari, Saga 849-5263, Japan",
      "place_id": "ChIJCwMQkDKCajURClmJyhVogGs"
    },
    "佐賀県佐賀県伊万里市松浦町山形５４９０－２": {
      "normalized_address": "佐賀県佐賀県伊万里市松浦町山形５４９０－２",
      "raw_prefecture": "佐賀県",
      "raw_address": "佐賀県伊万里市松浦町山形５４９０－２",
      "status": "ok",
      "updated_at": "2026-03-29T13:32:22+00:00",
      "lat": 33.2676967,
      "lng": 129.9430209,
      "formatted_address": "Yamagata-5490-2 Matsuurachō, Imari, Saga 849-5263, Japan",
      "place_id": "ChIJ36-EjICBajURB-ZGcixJDvE"
    },
    "佐賀県佐賀県伊万里市波多津町辻２９８９－５": {
      "normalized_address": "佐賀県佐賀県伊万里市波多津町辻２９８９－５",
      "raw_prefecture": "佐賀県",
      "raw_address": "佐賀県伊万里市波多津町辻２９８９－５",
      "status": "ok",
      "updated_at": "2026-03-29T13:32:22+00:00",
      "lat": 33.3720588,
      "lng": 129.8719528,
      "formatted_address": "Tsuji-2989-5 Hatatsuchō, Imari, Saga 848-0101, Japan",
      "place_id": "ChIJ7xoaC4l9ajURuhFEaVYtTWk"
    },
    "佐賀県佐賀県伊万里市立花町１３５５－１": {
      "normalized_address": "佐賀県佐賀県伊万里市立花町１３５５－１",
      "raw_prefecture": "佐賀県",
      "raw_address": "佐賀県伊万里市立花町１３５５－１",
      "status": "ok",
      "updated_at": "2026-03-29T13:32:23+00:00",
      "lat": 33.2646642,
      "lng": 129.8806221,
      "formatted_address": "1355-1 Tachibanachō, Imari, Saga 848-0027, Japan",
      "place_id": "ChIJP2-YrGmEajURFZE2tKmiU2Y"
    },
    "佐賀県佐賀県伊万里市立花町１８９１－７９": {
      "normalized_address": "佐賀県佐賀県伊万里市立花町１８９１－７９",
      "raw_prefecture": "佐賀県",
      "raw_address": "佐賀県伊万里市立花町１８９１－７９",
      "status": "ok",
      "updated_at": "2026-03-29T13:32:23+00:00",
      "lat": 33.2584814,
      "lng": 129.88304,
      "formatted_address": "1891-79 Tachibanachō, Imari, Saga 848-0027, Japan",
      "place_id": "ChIJNdUrhWaEajURnoPitcOvaE4"
    },
    "佐賀県佐賀県伊万里市立花町３４４９－７": {
      "normalized_address": "佐賀県佐賀県伊万里市立花町３４４９－７",
      "raw_prefecture": "佐賀県",
      "raw_address": "佐賀県伊万里市立花町３４４９－７",
      "status": "ok",
      "updated_at": "2026-03-29T13:32:23+00:00",
      "lat": 33.2730585,
      "lng": 129.8809636,
      "formatted_address": "3449-7 Tachibanachō, Imari, Saga 848-0027, Japan",
      "place_id": "ChIJSzZrHhWEajURGk9JJqPgvdI"
    },
    "佐賀県佐賀県佐賀市本庄町袋２４６－１": {
      "normalized_address": "佐賀県佐賀県佐賀市本庄町袋２４６－１",
      "raw_prefecture": "佐賀県",
      "raw_address": "佐賀県佐賀市本庄町袋２４６－１",
      "status": "ok",
      "updated_at": "2026-03-29T13:32:23+00:00",
      "lat": 33.2389279,
      "lng": 130.3019928,
      "formatted_address": "Honjomachi Fukuro, Fukuro Honjōmachi, Saga, 840-0023, Japan",
      "place_id": "ChIJwcBXHIfKQTURzlWbqsDHf-U"
    },
    "佐賀県佐賀県唐津市七山滝川１２５４": {
      "normalized_address": "佐賀県佐賀県唐津市七山滝川１２５４",
      "raw_prefecture": "佐賀県",
      "raw_address": "佐賀県唐津市七山滝川１２５４",
      "status": "ok",
      "updated_at": "2026-03-29T13:32:24+00:00",
      "lat": 33.4412493,
      "lng": 130.1158773,
      "formatted_address": "1254 Nanayamatakigawa, Karatsu, Saga 847-1106, Japan",
      "place_id": "ChIJo-zdPZLaQTURztYbWtmVVZk"
    },
    "佐賀県佐賀県唐津市北波多岸山２３４－２": {
      "normalized_address": "佐賀県佐賀県唐津市北波多岸山２３４－２",
      "raw_prefecture": "佐賀県",
      "raw_address": "佐賀県唐津市北波多岸山２３４－２",
      "status": "ok",
      "updated_at": "2026-03-29T13:32:24+00:00",
      "lat": 33.3685187,
      "lng": 129.9749839,
      "formatted_address": "234-2 Kitahatakishiyama, Karatsu, Saga 847-1211, Japan",
      "place_id": "ChIJ5WoMvHh_ajURQoMrsZYXfbs"
    },
    "佐賀県佐賀県唐津市北波多徳須恵１０９７－４": {
      "normalized_address": "佐賀県佐賀県唐津市北波多徳須恵１０９７－４",
      "raw_prefecture": "佐賀県",
      "raw_address": "佐賀県唐津市北波多徳須恵１０９７－４",
      "status": "ok",
      "updated_at": "2026-03-29T13:32:24+00:00",
      "lat": 33.3751348,
      "lng": 129.950808,
      "formatted_address": "1097-4 Kitahatatokusue, Karatsu, Saga 847-1201, Japan",
      "place_id": "ChIJV4-p0Kd_ajURip-qL50Ftjc"
    },
    "佐賀県佐賀県唐津市厳木町厳木９９７": {
      "normalized_address": "佐賀県佐賀県唐津市厳木町厳木９９７",
      "raw_prefecture": "佐賀県",
      "raw_address": "佐賀県唐津市厳木町厳木９９７",
      "status": "ok",
      "updated_at": "2026-03-29T13:32:24+00:00",
      "lat": 33.3215431,
      "lng": 130.0646243,
      "formatted_address": "997 Kyūragimachi Kyūragi, Karatsu, Saga 849-3131, Japan",
      "place_id": "ChIJuSSP9GLTQTUR0Ot3EIZN6Wk"
    },
    "佐賀県佐賀県唐津市呼子町呼子１９９５－１": {
      "normalized_address": "佐賀県佐賀県唐津市呼子町呼子１９９５－１",
      "raw_prefecture": "佐賀県",
      "raw_address": "佐賀県唐津市呼子町呼子１９９５－１",
      "status": "ok",
      "updated_at": "2026-03-29T13:32:25+00:00",
      "lat": 33.5434767,
      "lng": 129.8932242,
      "formatted_address": "1995-1 Yobukochō Yobuko, Karatsu, Saga 847-0303, Japan",
      "place_id": "ChIJ-d82cNFwajUR4wp-uj_Yzqk"
    },
    "佐賀県佐賀県唐津市和多田本村２－１９": {
      "normalized_address": "佐賀県佐賀県唐津市和多田本村２－１９",
      "raw_prefecture": "佐賀県",
      "raw_address": "佐賀県唐津市和多田本村２－１９",
      "status": "ok",
      "updated_at": "2026-03-29T13:32:25+00:00",
      "lat": 33.4361228,
      "lng": 129.977862,
      "formatted_address": "2-19 Watada Honmura, Karatsu, Saga 847-0085, Japan",
      "place_id": "ChIJ-wENx4N4ajUR1FKzzIq8cik"
    },
    "佐賀県佐賀県唐津市浜玉町浜崎１４４５－１": {
      "normalized_address": "佐賀県佐賀県唐津市浜玉町浜崎１４４５－１",
      "raw_prefecture": "佐賀県",
      "raw_address": "佐賀県唐津市浜玉町浜崎１４４５－１",
      "status": "ok",
      "updated_at": "2026-03-29T13:32:25+00:00",
      "lat": 33.450737,
      "lng": 130.0414047,
      "formatted_address": "1445 Hamatamamachi Hamasaki, Karatsu, Saga 849-5131, Japan",
      "place_id": "ChIJvRi9yWDXQTURl06edk5rFkc"
    },
    "佐賀県佐賀県唐津市相知町相知２０５５－１": {
      "normalized_address": "佐賀県佐賀県唐津市相知町相知２０５５－１",
      "raw_prefecture": "佐賀県",
      "raw_address": "佐賀県唐津市相知町相知２０５５－１",
      "status": "ok",
      "updated_at": "2026-03-29T13:32:25+00:00",
      "lat": 33.3509443,
      "lng": 130.0125432,
      "formatted_address": "2055-1 Ōchichō Ōchi, Karatsu, Saga 849-3201, Japan",
      "place_id": "ChIJCyfs0gfVQTURWjKnoc--ILc"
    },
    "佐賀県佐賀県唐津市肥前町入野甲１７０３": {
      "normalized_address": "佐賀県佐賀県唐津市肥前町入野甲１７０３",
      "raw_prefecture": "佐賀県",
      "raw_address": "佐賀県唐津市肥前町入野甲１７０３",
      "status": "ok",
      "updated_at": "2026-03-29T13:32:25+00:00",
      "lat": 33.4405387,
      "lng": 129.8148999,
      "formatted_address": "1703 Hizenmachi Irino, Karatsu, Saga 847-1526, Japan",
      "place_id": "ChIJSbQ1-zJjajURPlEcZw1Z3W4"
    },
    "佐賀県佐賀県唐津市西城内１－１": {
      "normalized_address": "佐賀県佐賀県唐津市西城内１－１",
      "raw_prefecture": "佐賀県",
      "raw_address": "佐賀県唐津市西城内１－１",
      "status": "ok",
      "updated_at": "2026-03-29T13:32:26+00:00",
      "lat": 33.4494484,
      "lng": 129.9693879,
      "formatted_address": "1-1 Nishijōnai, Karatsu, Saga 847-0014, Japan",
      "place_id": "ChIJwSfjmmN4ajURqrQZ0QtbyzI"
    },
    "佐賀県佐賀県唐津市鎮西町名護屋１５３０": {
      "normalized_address": "佐賀県佐賀県唐津市鎮西町名護屋１５３０",
      "raw_prefecture": "佐賀県",
      "raw_address": "佐賀県唐津市鎮西町名護屋１５３０",
      "status": "ok",
      "updated_at": "2026-03-29T13:32:26+00:00",
      "lat": 33.5277615,
      "lng": 129.8769115,
      "formatted_address": "1530 Chinzeimachi Nagoya, Karatsu, Saga 847-0401, Japan",
      "place_id": "ChIJeyy_IJhwajURToWAACJI-kc"
    },
    "佐賀県佐賀県小城市三日月町長神田２３１２－２": {
      "normalized_address": "佐賀県佐賀県小城市三日月町長神田２３１２－２",
      "raw_prefecture": "佐賀県",
      "raw_address": "佐賀県小城市三日月町長神田２３１２－２",
      "status": "ok",
      "updated_at": "2026-03-29T13:32:26+00:00",
      "lat": 33.2736836,
      "lng": 130.216872,
      "formatted_address": "2312-2 Mikatsukichō Chōkanda, Ogi, Saga 845-0021, Japan",
      "place_id": "ChIJE9RG-YfMQTUR58uzqErmswc"
    },
    "佐賀県佐賀県小城市牛津町柿樋瀬１１７４－１": {
      "normalized_address": "佐賀県佐賀県小城市牛津町柿樋瀬１１７４－１",
      "raw_prefecture": "佐賀県",
      "raw_address": "佐賀県小城市牛津町柿樋瀬１１７４－１",
      "status": "ok",
      "updated_at": "2026-03-29T13:32:26+00:00",
      "lat": 33.2449759,
      "lng": 130.1952987,
      "formatted_address": "1174-1 Ushizuchō Kakihise, Ogi, Saga 849-0302, Japan",
      "place_id": "ChIJQfAatdLMQTURXiBi8Z6JQok"
    },
    "佐賀県佐賀県東松浦郡玄海町大字諸浦３４８": {
      "normalized_address": "佐賀県佐賀県東松浦郡玄海町大字諸浦３４８",
      "raw_prefecture": "佐賀県",
      "raw_address": "佐賀県東松浦郡玄海町大字諸浦３４８",
      "status": "ok",
      "updated_at": "2026-03-29T13:32:27+00:00",
      "lat": 33.4720904,
      "lng": 129.875269,
      "formatted_address": "348 Moroura, Genkai, Higashimatsuura District, Saga 847-1421, Japan",
      "place_id": "ChIJISvLYrd7ajUR6wjHMaQW0gg"
    },
    "佐賀県佐賀県杵島郡江北町大字山口１６５１－１": {
      "normalized_address": "佐賀県佐賀県杵島郡江北町大字山口１６５１－１",
      "raw_prefecture": "佐賀県",
      "raw_address": "佐賀県杵島郡江北町大字山口１６５１－１",
      "status": "ok",
      "updated_at": "2026-03-29T13:32:27+00:00",
      "lat": 33.2207296,
      "lng": 130.1575378,
      "formatted_address": "1651-1 Yamaguchi, Kōhoku, Kishima District, Saga 849-0501, Japan",
      "place_id": "ChIJKYcSjWIyQDUR8pWGo5uvdYA"
    },
    "佐賀県佐賀県杵島郡白石町大字福田１２４７－１": {
      "normalized_address": "佐賀県佐賀県杵島郡白石町大字福田１２４７－１",
      "raw_prefecture": "佐賀県",
      "raw_address": "佐賀県杵島郡白石町大字福田１２４７－１",
      "status": "ok",
      "updated_at": "2026-03-29T13:32:27+00:00",
      "lat": 33.1810747,
      "lng": 130.1435138,
      "formatted_address": "1247-1 Fukuta, Shiroishi, Kishima District, Saga 849-1112, Japan",
      "place_id": "ChIJYwAEwwIuQDURN7BQuzRhDzM"
    },
    "佐賀県佐賀県杵島郡白石町福田２２４６－１": {
      "normalized_address": "佐賀県佐賀県杵島郡白石町福田２２４６－１",
      "raw_prefecture": "佐賀県",
      "raw_address": "佐賀県杵島郡白石町福田２２４６－１",
      "status": "ok",
      "updated_at": "2026-03-29T13:32:27+00:00",
      "lat": 33.1849399,
      "lng": 130.1404591,
      "formatted_address": "2246-1 Fukuta, Shiroishi, Kishima District, Saga 849-1112, Japan",
      "place_id": "ChIJs2pe8QMuQDURhct2LrY3Mqg"
    },
    "佐賀県佐賀県武雄市北方町大字大崎２２１７": {
      "normalized_address": "佐賀県佐賀県武雄市北方町大字大崎２２１７",
      "raw_prefecture": "佐賀県",
      "raw_address": "佐賀県武雄市北方町大字大崎２２１７",
      "status": "ok",
      "updated_at": "2026-03-29T13:32:28+00:00",
      "lat": 33.2211076,
      "lng": 130.0602273,
      "formatted_address": "2217 Kitagatachō Ōaza Ōsaki, Takeo, Saga 849-2204, Japan",
      "place_id": "ChIJy7Dhj1UpQDURecB6EmF4wIY"
    },
    "佐賀県佐賀県武雄市山内町大字三間板甲１３８００": {
      "normalized_address": "佐賀県佐賀県武雄市山内町大字三間板甲１３８００",
      "raw_prefecture": "佐賀県",
      "raw_address": "佐賀県武雄市山内町大字三間板甲１３８００",
      "status": "ok",
      "updated_at": "2026-03-29T13:32:28+00:00",
      "lat": 33.2029088,
      "lng": 129.9247429,
      "formatted_address": "Yamauchicho Oaza Miyano, Takeo, Saga 849-2305, Japan",
      "place_id": "ChIJ4ZB9IjWDajURhQX4tVEQPPE"
    },
    "佐賀県佐賀県武雄市朝日町大字甘久４２９５": {
      "normalized_address": "佐賀県佐賀県武雄市朝日町大字甘久４２９５",
      "raw_prefecture": "佐賀県",
      "raw_address": "佐賀県武雄市朝日町大字甘久４２９５",
      "status": "ok",
      "updated_at": "2026-03-29T13:32:28+00:00",
      "lat": 33.2155458,
      "lng": 130.0367726,
      "formatted_address": "4295 Asahichō Ōaza Amagu, Takeo, Saga 843-0001, Japan",
      "place_id": "ChIJWUqTE2wpQDURU9DbgytWKig"
    },
    "佐賀県佐賀県武雄市東川登町大字永野６２４０－８": {
      "normalized_address": "佐賀県佐賀県武雄市東川登町大字永野６２４０－８",
      "raw_prefecture": "佐賀県",
      "raw_address": "佐賀県武雄市東川登町大字永野６２４０－８",
      "status": "ok",
      "updated_at": "2026-03-29T13:32:28+00:00",
      "lat": 33.1617931,
      "lng": 130.0020758,
      "formatted_address": "6240-8 Higashikawanoborichō Ōaza Nagano, Takeo, Saga 843-0233, Japan",
      "place_id": "ChIJAxWeht0nQDURbZO-nYKkXg4"
    },
    "佐賀県佐賀県武雄市橘町大字大日８５０７－７": {
      "normalized_address": "佐賀県佐賀県武雄市橘町大字大日８５０７－７",
      "raw_prefecture": "佐賀県",
      "raw_address": "佐賀県武雄市橘町大字大日８５０７－７",
      "status": "ok",
      "updated_at": "2026-03-29T13:32:29+00:00",
      "lat": 33.1804569,
      "lng": 130.0542985,
      "formatted_address": "8507-7 Tachibanachō Ōaza Dainichi, Takeo, Saga 843-0013, Japan",
      "place_id": "ChIJYzzWv9AoQDURRJt2wA91vw0"
    },
    "佐賀県佐賀県武雄市武内町大字真手野２８０４４": {
      "normalized_address": "佐賀県佐賀県武雄市武内町大字真手野２８０４４",
      "raw_prefecture": "佐賀県",
      "raw_address": "佐賀県武雄市武内町大字真手野２８０４４",
      "status": "ok",
      "updated_at": "2026-03-29T13:32:29+00:00",
      "lat": 33.2302575,
      "lng": 129.963408,
      "formatted_address": "28044 Takeuchichō Ōaza Mateno, Takeo, Saga 849-2342, Japan",
      "place_id": "ChIJFVMxKmaCajURTkDhm3HHMQo"
    },
    "佐賀県佐賀県武雄市武雄町大字昭和１２－１０": {
      "normalized_address": "佐賀県佐賀県武雄市武雄町大字昭和１２－１０",
      "raw_prefecture": "佐賀県",
      "raw_address": "佐賀県武雄市武雄町大字昭和１２－１０",
      "status": "ok",
      "updated_at": "2026-03-29T13:32:29+00:00",
      "lat": 33.1947153,
      "lng": 130.021565,
      "formatted_address": "12-10 Takeochō Ōaza Shōwa, Takeo, Saga 843-0023, Japan",
      "place_id": "ChIJvc-48lYoQDUR6Y9bP4XcZvw"
    },
    "佐賀県佐賀県武雄市武雄町大字武雄５５３８－１": {
      "normalized_address": "佐賀県佐賀県武雄市武雄町大字武雄５５３８－１",
      "raw_prefecture": "佐賀県",
      "raw_address": "佐賀県武雄市武雄町大字武雄５５３８－１",
      "status": "ok",
      "updated_at": "2026-03-29T13:32:29+00:00",
      "lat": 33.1903768,
      "lng": 130.0214609,
      "formatted_address": "5538-1 Takeochō Ōaza Takeo, Takeo, Saga 843-0022, Japan",
      "place_id": "ChIJEau0wlcoQDURmG8j8f-VYK4"
    },
    "佐賀県佐賀県武雄市若木町大字川古７４７４": {
      "normalized_address": "佐賀県佐賀県武雄市若木町大字川古７４７４",
      "raw_prefecture": "佐賀県",
      "raw_address": "佐賀県武雄市若木町大字川古７４７４",
      "status": "ok",
      "updated_at": "2026-03-29T13:32:30+00:00",
      "lat": 33.2550175,
      "lng": 129.9909908,
      "formatted_address": "7474 Wakakichō Ōaza Kawago, Takeo, Saga 843-0151, Japan",
      "place_id": "ChIJI8jE0AQqQDUR6omH1cR8FvY"
    },
    "佐賀県佐賀県武雄市西川登町大字神六２０１１４－４": {
      "normalized_address": "佐賀県佐賀県武雄市西川登町大字神六２０１１４－４",
      "raw_prefecture": "佐賀県",
      "raw_address": "佐賀県武雄市西川登町大字神六２０１１４－４",
      "status": "ok",
      "updated_at": "2026-03-29T13:32:30+00:00",
      "lat": 33.1348593,
      "lng": 129.9752457,
      "formatted_address": "20114-4 Nishikawanoborichō Ōaza Jinroku, Takeo, Saga 843-0232, Japan",
      "place_id": "ChIJjUbXOISdajURZW1HoMh8bjQ"
    },
    "佐賀県佐賀県神埼市脊振町鹿路３３６２脊振広域クリーンセンター": {
      "normalized_address": "佐賀県佐賀県神埼市脊振町鹿路３３６２脊振広域クリーンセンター",
      "raw_prefecture": "佐賀県",
      "raw_address": "佐賀県神埼市脊振町鹿路３３６２脊振広域クリーンセンター",
      "status": "ok",
      "updated_at": "2026-03-29T13:32:30+00:00",
      "lat": 33.400878,
      "lng": 130.293329,
      "formatted_address": "3362-1 Sefurimachi Rokuro, Kanzaki, Saga 842-0202, Japan",
      "place_id": "ChIJc36QeXHHQTURnwFkpLt3d3A"
    },
    "佐賀県佐賀県西松浦郡有田町戸矢乙１５７４": {
      "normalized_address": "佐賀県佐賀県西松浦郡有田町戸矢乙１５７４",
      "raw_prefecture": "佐賀県",
      "raw_address": "佐賀県西松浦郡有田町戸矢乙１５７４",
      "status": "ok",
      "updated_at": "2026-03-29T13:32:30+00:00",
      "lat": 33.1635406,
      "lng": 129.8868177,
      "formatted_address": "Otsu-1574 Toya, Arita, Nishimatsuura District, Saga 844-0014, Japan",
      "place_id": "ChIJbUzTUZCbajURF5sIRKEGwhE"
    },
    "佐賀県佐賀県西松浦郡有田町立部乙２２０２": {
      "normalized_address": "佐賀県佐賀県西松浦郡有田町立部乙２２０２",
      "raw_prefecture": "佐賀県",
      "raw_address": "佐賀県西松浦郡有田町立部乙２２０２",
      "status": "ok",
      "updated_at": "2026-03-29T13:32:31+00:00",
      "lat": 33.2106507,
      "lng": 129.8490169,
      "formatted_address": "Arita, Nishimatsuura District, Saga, Japan",
      "place_id": "ChIJzWyEAxabajURt79lBlk-kLo"
    },
    "佐賀県佐賀県鹿島市大字納富分２６４３－１": {
      "normalized_address": "佐賀県佐賀県鹿島市大字納富分２６４３－１",
      "raw_prefecture": "佐賀県",
      "raw_address": "佐賀県鹿島市大字納富分２６４３－１",
      "status": "ok",
      "updated_at": "2026-03-29T13:32:31+00:00",
      "lat": 33.1040722,
      "lng": 130.0981202,
      "formatted_address": "2643-1 Nōdomibun, Kashima, Saga 849-1312, Japan",
      "place_id": "ChIJT7Kb7KUlQDURUsjd17LP2hY"
    }
  }
}
