{
  "version": 1,
  "generated_at": "2026-03-29T13:32:44+00:00",
  "source_file": "docs/data/2-43.json",
  "entries": {
    "熊本県熊本県上天草市大矢野上１５１４": {
      "normalized_address": "熊本県熊本県上天草市大矢野上１５１４",
      "raw_prefecture": "熊本県",
      "raw_address": "熊本県上天草市大矢野上１５１４",
      "status": "ok",
      "updated_at": "2026-03-29T13:32:35+00:00",
      "lat": 32.5874319,
      "lng": 130.4304678,
      "formatted_address": "1514 Ōyanomachikami, Kamiamakusa, Kumamoto 869-3602, Japan",
      "place_id": "ChIJz40TWVV2QDURVd6za6fuF7Y"
    },
    "熊本県熊本県人吉市赤池水無町１２６９－１": {
      "normalized_address": "熊本県熊本県人吉市赤池水無町１２６９－１",
      "raw_prefecture": "熊本県",
      "raw_address": "熊本県人吉市赤池水無町１２６９－１",
      "status": "ok",
      "updated_at": "2026-03-29T13:32:36+00:00",
      "lat": 32.184702,
      "lng": 130.7833334,
      "formatted_address": "1269-1 Akaikemizunashimachi, Hitoyoshi, Kumamoto 868-0824, Japan",
      "place_id": "ChIJL3svvB1yPzURKsL196A-U-Y"
    },
    "熊本県熊本県八代市田中西町１０－９－２": {
      "normalized_address": "熊本県熊本県八代市田中西町１０－９－２",
      "raw_prefecture": "熊本県",
      "raw_address": "熊本県八代市田中西町１０－９－２",
      "status": "ok",
      "updated_at": "2026-03-29T13:32:36+00:00",
      "lat": 32.5206179,
      "lng": 130.6009225,
      "formatted_address": "10-9-2 Tanaka Nishimachi, Yatsushiro, Kumamoto 866-0876, Japan",
      "place_id": "ChIJIZQMw6x_QDUReg59Vo10Fvo"
    },
    "熊本県熊本県天草市五和町御領２９４３": {
      "normalized_address": "熊本県熊本県天草市五和町御領２９４３",
      "raw_prefecture": "熊本県",
      "raw_address": "熊本県天草市五和町御領２９４３",
      "status": "ok",
      "updated_at": "2026-03-29T13:32:36+00:00",
      "lat": 32.5122586,
      "lng": 130.1879361,
      "formatted_address": "2943 Itsuwamachi Goryō, Amakusa, Kumamoto 863-2201, Japan",
      "place_id": "ChIJKbUTGrXxPzURM_aXTBmSS1A"
    },
    "熊本県熊本県天草市倉岳町棚底１９１９": {
      "normalized_address": "熊本県熊本県天草市倉岳町棚底１９１９",
      "raw_prefecture": "熊本県",
      "raw_address": "熊本県天草市倉岳町棚底１９１９",
      "status": "ok",
      "updated_at": "2026-03-29T13:32:36+00:00",
      "lat": 32.4095936,
      "lng": 130.3408667,
      "formatted_address": "1919 Kuratakemachi Tanasoko, Amakusa, Kumamoto 861-6402, Japan",
      "place_id": "ChIJ22ZdIvKSPzURbWN62jOYp5U"
    },
    "熊本県熊本県天草市天草町高浜南４８８－１": {
      "normalized_address": "熊本県熊本県天草市天草町高浜南４８８－１",
      "raw_prefecture": "熊本県",
      "raw_address": "熊本県天草市天草町高浜南４８８－１",
      "status": "ok",
      "updated_at": "2026-03-29T13:32:37+00:00",
      "lat": 32.3795792,
      "lng": 129.9980687,
      "formatted_address": "488-1 Amakusamachi Takahamaminami, Amakusa, Kumamoto 863-2804, Japan",
      "place_id": "ChIJXxEyOZnfPzUR8HIO73yJxE8"
    },
    "熊本県熊本県天草市新和町小宮地６６９－１": {
      "normalized_address": "熊本県熊本県天草市新和町小宮地６６９－１",
      "raw_prefecture": "熊本県",
      "raw_address": "熊本県天草市新和町小宮地６６９－１",
      "status": "ok",
      "updated_at": "2026-03-29T13:32:37+00:00",
      "lat": 32.3631605,
      "lng": 130.1806973,
      "formatted_address": "669-1 Shinwamachi Komiyaji, Amakusa, Kumamoto 863-0101, Japan",
      "place_id": "ChIJV7yvKUroPzURITYzdG1_Oho"
    },
    "熊本県熊本県天草市有明町赤崎３３８３": {
      "normalized_address": "熊本県熊本県天草市有明町赤崎３３８３",
      "raw_prefecture": "熊本県",
      "raw_address": "熊本県天草市有明町赤崎３３８３",
      "status": "ok",
      "updated_at": "2026-03-29T13:32:37+00:00",
      "lat": 32.5129111,
      "lng": 130.3145684,
      "formatted_address": "3383 Ariakemachi Akasaki, Amakusa, Kumamoto 861-7201, Japan",
      "place_id": "ChIJTe-2oq6MPzURt7kANMo7qBc"
    },
    "熊本県熊本県天草市東浜町８－１": {
      "normalized_address": "熊本県熊本県天草市東浜町８－１",
      "raw_prefecture": "熊本県",
      "raw_address": "熊本県天草市東浜町８－１",
      "status": "ok",
      "updated_at": "2026-03-29T13:32:37+00:00",
      "lat": 32.4585094,
      "lng": 130.1933995,
      "formatted_address": "8-1 Higashihamamachi, Amakusa, Kumamoto 863-0014, Japan",
      "place_id": "ChIJsRagCVHuPzURHwTRTLXHVc8"
    },
    "熊本県熊本県天草市栖本町馬場１７９": {
      "normalized_address": "熊本県熊本県天草市栖本町馬場１７９",
      "raw_prefecture": "熊本県",
      "raw_address": "熊本県天草市栖本町馬場１７９",
      "status": "ok",
      "updated_at": "2026-03-29T13:32:38+00:00",
      "lat": 32.4218707,
      "lng": 130.2725916,
      "formatted_address": "179 Sumotomachi Baba, Amakusa, Kumamoto 861-6303, Japan",
      "place_id": "ChIJBRVF8AHtPzURdtmlEy8KnCs"
    },
    "熊本県熊本県天草市河浦町河浦５２５３": {
      "normalized_address": "熊本県熊本県天草市河浦町河浦５２５３",
      "raw_prefecture": "熊本県",
      "raw_address": "熊本県天草市河浦町河浦５２５３",
      "status": "ok",
      "updated_at": "2026-03-29T13:32:38+00:00",
      "lat": 32.3327748,
      "lng": 130.0794985,
      "formatted_address": "5253 Kawauramachi Kawaura, Amakusa, Kumamoto 863-1202, Japan",
      "place_id": "ChIJOdIB7zncPzURSBAYgohxKTI"
    },
    "熊本県熊本県天草市浄南町４－１５": {
      "normalized_address": "熊本県熊本県天草市浄南町４－１５",
      "raw_prefecture": "熊本県",
      "raw_address": "熊本県天草市浄南町４－１５",
      "status": "ok",
      "updated_at": "2026-03-29T13:32:38+00:00",
      "lat": 32.4501636,
      "lng": 130.1961237,
      "formatted_address": "4 Jonanmachi, Amakusa, Kumamoto 863-0034, Japan",
      "place_id": "ChIJfxjsEPjuPzURog7XcCX-VNs"
    },
    "熊本県熊本県天草市牛深町２０４０－５": {
      "normalized_address": "熊本県熊本県天草市牛深町２０４０－５",
      "raw_prefecture": "熊本県",
      "raw_address": "熊本県天草市牛深町２０４０－５",
      "status": "ok",
      "updated_at": "2026-03-29T13:32:38+00:00",
      "lat": 32.1974171,
      "lng": 130.0164596,
      "formatted_address": "2040-5 Ushibukamachi, Amakusa, Kumamoto 863-1901, Japan",
      "place_id": "ChIJV9NcxV3WPzURQbaWAyJkjYk"
    },
    "熊本県熊本県天草市牛深町２２８６－１０３": {
      "normalized_address": "熊本県熊本県天草市牛深町２２８６－１０３",
      "raw_prefecture": "熊本県",
      "raw_address": "熊本県天草市牛深町２２８６－１０３",
      "status": "ok",
      "updated_at": "2026-03-29T13:32:39+00:00",
      "lat": 32.1946691,
      "lng": 130.0267923,
      "formatted_address": "2286-103 Ushibukamachi, Amakusa, Kumamoto 863-1901, Japan",
      "place_id": "ChIJ7dNKZfTWPzUR2Fs4-jeEm0I"
    },
    "熊本県熊本県天草郡苓北町志岐６６０": {
      "normalized_address": "熊本県熊本県天草郡苓北町志岐６６０",
      "raw_prefecture": "熊本県",
      "raw_address": "熊本県天草郡苓北町志岐６６０",
      "status": "ok",
      "updated_at": "2026-03-29T13:32:39+00:00",
      "lat": 32.5135239,
      "lng": 130.0552418,
      "formatted_address": "660 Shiki, Reihoku, Amakusa District, Kumamoto 863-2503, Japan",
      "place_id": "ChIJ-WiT03rjPzURB0agCbe1eUQ"
    },
    "熊本県熊本県水俣市築地９－４０": {
      "normalized_address": "熊本県熊本県水俣市築地９－４０",
      "raw_prefecture": "熊本県",
      "raw_address": "熊本県水俣市築地９－４０",
      "status": "ok",
      "updated_at": "2026-03-29T13:32:39+00:00",
      "lat": 32.219564,
      "lng": 130.3968359,
      "formatted_address": "9-40 Tsukiji, Minamata, Kumamoto 867-0062, Japan",
      "place_id": "ChIJ1Yhpiyy8PzURKuO6mscjwIQ"
    },
    "熊本県熊本県熊本市中央区国府１－１２－１": {
      "normalized_address": "熊本県熊本県熊本市中央区国府１－１２－１",
      "raw_prefecture": "熊本県",
      "raw_address": "熊本県熊本市中央区国府１－１２－１",
      "status": "ok",
      "updated_at": "2026-03-29T13:32:39+00:00",
      "lat": 32.792582,
      "lng": 130.7279398,
      "formatted_address": "Japan, 〒862-0949 Kumamoto, Chuo Ward, Kokubu, 1-chōme−12−１ ＥＮＥＯＳ国府ＳＳ",
      "place_id": "ChIJbUNmLe3zQDURZUVgD1IoFE4"
    },
    "熊本県熊本県熊本市中央区帯山５－３３－１１": {
      "normalized_address": "熊本県熊本県熊本市中央区帯山５－３３－１１",
      "raw_prefecture": "熊本県",
      "raw_address": "熊本県熊本市中央区帯山５－３３－１１",
      "status": "ok",
      "updated_at": "2026-03-29T13:32:40+00:00",
      "lat": 32.8052237,
      "lng": 130.7545913,
      "formatted_address": "5-chōme-33-11 Obiyama, Chuo Ward, Kumamoto, 862-0924, Japan",
      "place_id": "ChIJi-ORMX_xQDURUIRHwC3uN2E"
    },
    "熊本県熊本県熊本市中央区手取本町１－１": {
      "normalized_address": "熊本県熊本県熊本市中央区手取本町１－１",
      "raw_prefecture": "熊本県",
      "raw_address": "熊本県熊本市中央区手取本町１－１",
      "status": "ok",
      "updated_at": "2026-03-29T13:32:40+00:00",
      "lat": 32.8024016,
      "lng": 130.710962,
      "formatted_address": "1-1 Tetorihonchō, Chuo Ward, Kumamoto, 860-0808, Japan",
      "place_id": "ChIJTUcKsg30QDURj3JoM8m2lGM"
    },
    "熊本県熊本県熊本市北区山室３－５－１": {
      "normalized_address": "熊本県熊本県熊本市北区山室３－５－１",
      "raw_prefecture": "熊本県",
      "raw_address": "熊本県熊本市北区山室３－５－１",
      "status": "ok",
      "updated_at": "2026-03-29T13:32:40+00:00",
      "lat": 32.8425107,
      "lng": 130.7167956,
      "formatted_address": "3-chōme-5-1 Yamamuro, Kita Ward, Kumamoto, 860-0084, Japan",
      "place_id": "ChIJ4d3PxjLxQDUR7fpZKwsl1Lo"
    },
    "熊本県熊本県熊本市南区馬渡町２－１－２５": {
      "normalized_address": "熊本県熊本県熊本市南区馬渡町２－１－２５",
      "raw_prefecture": "熊本県",
      "raw_address": "熊本県熊本市南区馬渡町２－１－２５",
      "status": "ok",
      "updated_at": "2026-03-29T13:32:40+00:00",
      "lat": 32.7740029,
      "lng": 130.7045649,
      "formatted_address": "2-chōme-1-25 Mawatari, Minami Ward, Kumamoto, 862-0968, Japan",
      "place_id": "ChIJU1XR54_0QDUR9E507KkqYfM"
    },
    "熊本県熊本県熊本市東区昭和町１０－１": {
      "normalized_address": "熊本県熊本県熊本市東区昭和町１０－１",
      "raw_prefecture": "熊本県",
      "raw_address": "熊本県熊本市東区昭和町１０－１",
      "status": "ok",
      "updated_at": "2026-03-29T13:32:41+00:00",
      "lat": 32.7779106,
      "lng": 130.7708629,
      "formatted_address": "10-1 Shōwamachi, Higashi Ward, Kumamoto, 861-2108, Japan",
      "place_id": "ChIJqf1D2DjyQDURVVH0W_JB4gY"
    },
    "熊本県熊本県熊本市西区島崎２－１７－２９": {
      "normalized_address": "熊本県熊本県熊本市西区島崎２－１７－２９",
      "raw_prefecture": "熊本県",
      "raw_address": "熊本県熊本市西区島崎２－１７－２９",
      "status": "ok",
      "updated_at": "2026-03-29T13:32:41+00:00",
      "lat": 32.8104812,
      "lng": 130.6878508,
      "formatted_address": "2-chōme-17-29 Shimasaki, Nishi Ward, Kumamoto, 860-0073, Japan",
      "place_id": "ChIJ9YMkVTj0QDURm41TCpkIuBU"
    },
    "熊本県熊本県玉名郡南関町大字関町６４": {
      "normalized_address": "熊本県熊本県玉名郡南関町大字関町６４",
      "raw_prefecture": "熊本県",
      "raw_address": "熊本県玉名郡南関町大字関町６４",
      "status": "ok",
      "updated_at": "2026-03-29T13:32:41+00:00",
      "lat": 33.0597455,
      "lng": 130.5439381,
      "formatted_address": "64 Sekimachi, Nankan, Tamana District, Kumamoto 861-0803, Japan",
      "place_id": "ChIJjz24Mo5TQDURmPqU5EgqSx4"
    },
    "熊本県熊本県玉名郡和水町板楠７０": {
      "normalized_address": "熊本県熊本県玉名郡和水町板楠７０",
      "raw_prefecture": "熊本県",
      "raw_address": "熊本県玉名郡和水町板楠７０",
      "status": "ok",
      "updated_at": "2026-03-29T13:32:41+00:00",
      "lat": 33.0656612,
      "lng": 130.6224086,
      "formatted_address": "70 Itakusu, Nagomi, Tamana District, Kumamoto 861-0913, Japan",
      "place_id": "ChIJgZ3q80RVQDURCiHgKKicxMk"
    },
    "熊本県熊本県玉名郡和水町江田３８８６和水町役場": {
      "normalized_address": "熊本県熊本県玉名郡和水町江田３８８６和水町役場",
      "raw_prefecture": "熊本県",
      "raw_address": "熊本県玉名郡和水町江田３８８６和水町役場",
      "status": "ok",
      "updated_at": "2026-03-29T13:32:42+00:00",
      "lat": 32.9781043,
      "lng": 130.6058248,
      "formatted_address": "3886 Eta, Nagomi, Tamana District, Kumamoto 865-0136, Japan",
      "place_id": "ChIJcQzbQ05WQDURLGq2FYNGxrQ"
    },
    "熊本県熊本県玉名郡玉東町大字木葉３８６": {
      "normalized_address": "熊本県熊本県玉名郡玉東町大字木葉３８６",
      "raw_prefecture": "熊本県",
      "raw_address": "熊本県玉名郡玉東町大字木葉３８６",
      "status": "ok",
      "updated_at": "2026-03-29T13:32:42+00:00",
      "lat": 32.9127409,
      "lng": 130.6199367,
      "formatted_address": "386 Konoha, Gyokuto, Tamana District, Kumamoto 869-0303, Japan",
      "place_id": "ChIJ5eDrhBNYQDUR-TbyD6H0c3E"
    },
    "熊本県熊本県玉名郡玉東町大字木葉７５９": {
      "normalized_address": "熊本県熊本県玉名郡玉東町大字木葉７５９",
      "raw_prefecture": "熊本県",
      "raw_address": "熊本県玉名郡玉東町大字木葉７５９",
      "status": "ok",
      "updated_at": "2026-03-29T13:32:42+00:00",
      "lat": 32.9188884,
      "lng": 130.6285599,
      "formatted_address": "759 Konoha, Gyokuto, Tamana District, Kumamoto 869-0303, Japan",
      "place_id": "ChIJw_DhNgRYQDURz6qv28zY-QY"
    },
    "熊本県熊本県玉名郡長洲町大字名石浜４２－１": {
      "normalized_address": "熊本県熊本県玉名郡長洲町大字名石浜４２－１",
      "raw_prefecture": "熊本県",
      "raw_address": "熊本県玉名郡長洲町大字名石浜４２－１",
      "status": "ok",
      "updated_at": "2026-03-29T13:32:42+00:00",
      "lat": 32.9014721,
      "lng": 130.4706544,
      "formatted_address": "42-1 Meishihama, Nagasu, Tamana District, Kumamoto 869-0111, Japan",
      "place_id": "ChIJu04Yak1DQDURQThlQWe40M0"
    },
    "熊本県熊本県玉名郡長洲町大字長洲２７６６": {
      "normalized_address": "熊本県熊本県玉名郡長洲町大字長洲２７６６",
      "raw_prefecture": "熊本県",
      "raw_address": "熊本県玉名郡長洲町大字長洲２７６６",
      "status": "ok",
      "updated_at": "2026-03-29T13:32:42+00:00",
      "lat": 32.9297487,
      "lng": 130.4527071,
      "formatted_address": "2766 Nagasu, Tamana District, Kumamoto 869-0123, Japan",
      "place_id": "ChIJo29cbL1EQDURbagpHXnADA4"
    },
    "熊本県熊本県球磨郡あさぎり町免田西２３３７－２": {
      "normalized_address": "熊本県熊本県球磨郡あさぎり町免田西２３３７－２",
      "raw_prefecture": "熊本県",
      "raw_address": "熊本県球磨郡あさぎり町免田西２３３７－２",
      "status": "ok",
      "updated_at": "2026-03-29T13:32:43+00:00",
      "lat": 32.223867,
      "lng": 130.8737556,
      "formatted_address": "2337-2 Mendanishi, Asagiri, Kuma District, Kumamoto 868-0415, Japan",
      "place_id": "ChIJL-Z3NFRvPzURcfIW6NMiUxI"
    },
    "熊本県熊本県荒尾市増永２０００－２０": {
      "normalized_address": "熊本県熊本県荒尾市増永２０００－２０",
      "raw_prefecture": "熊本県",
      "raw_address": "熊本県荒尾市増永２０００－２０",
      "status": "ok",
      "updated_at": "2026-03-29T13:32:43+00:00",
      "lat": 32.9775178,
      "lng": 130.457004,
      "formatted_address": "2000-20 Masunaga, Arao, Kumamoto 864-0032, Japan",
      "place_id": "ChIJoaHvs0ZFQDURTqZpvRDH8gs"
    },
    "熊本県熊本県荒尾市蔵満１８８８－１": {
      "normalized_address": "熊本県熊本県荒尾市蔵満１８８８－１",
      "raw_prefecture": "熊本県",
      "raw_address": "熊本県荒尾市蔵満１８８８－１",
      "status": "ok",
      "updated_at": "2026-03-29T13:32:43+00:00",
      "lat": 32.9631312,
      "lng": 130.4502641,
      "formatted_address": "1888 Kuramitsu, Arao, Kumamoto 864-0027, Japan",
      "place_id": "ChIJ44X0xhhFQDURWsPW6BdjVzA"
    },
    "熊本県熊本県荒尾市金山１９７１": {
      "normalized_address": "熊本県熊本県荒尾市金山１９７１",
      "raw_prefecture": "熊本県",
      "raw_address": "熊本県荒尾市金山１９７１",
      "status": "ok",
      "updated_at": "2026-03-29T13:32:43+00:00",
      "lat": 32.9650181,
      "lng": 130.50012,
      "formatted_address": "1971 Kanayama, Arao, Kumamoto 864-0162, Japan",
      "place_id": "ChIJL5e3X5BaQDUR7EWNrgH5IAw"
    },
    "熊本県熊本県菊池郡大津町平川１７８４－１": {
      "normalized_address": "熊本県熊本県菊池郡大津町平川１７８４－１",
      "raw_prefecture": "熊本県",
      "raw_address": "熊本県菊池郡大津町平川１７８４－１",
      "status": "ok",
      "updated_at": "2026-03-29T13:32:44+00:00",
      "lat": 32.8938932,
      "lng": 130.8734395,
      "formatted_address": "1784-1 Hirakawa, Ozu, Kikuchi District, Kumamoto 869-1231, Japan",
      "place_id": "ChIJgVo5vRzkQDURYd4l_FXvlFU"
    },
    "熊本県熊本県菊池郡菊陽町光の森２－２２－２": {
      "normalized_address": "熊本県熊本県菊池郡菊陽町光の森２－２２－２",
      "raw_prefecture": "熊本県",
      "raw_address": "熊本県菊池郡菊陽町光の森２－２２－２",
      "status": "ok",
      "updated_at": "2026-03-29T13:32:44+00:00",
      "lat": 32.8584305,
      "lng": 130.7814789,
      "formatted_address": "Japan, 〒869-1108 Kumamoto, Kikuchi District, Kikuyo, Hikarinomori, 2-chōme−２２−２",
      "place_id": "ChIJO3a91A3wQDURBeTzaBmDLpA"
    },
    "熊本県熊本県葦北郡芦北町大字湯浦３－１１９４": {
      "normalized_address": "熊本県熊本県葦北郡芦北町大字湯浦３－１１９４",
      "raw_prefecture": "熊本県",
      "raw_address": "熊本県葦北郡芦北町大字湯浦３－１１９４",
      "status": "ok",
      "updated_at": "2026-03-29T13:32:44+00:00",
      "lat": 32.2856762,
      "lng": 130.5048837,
      "formatted_address": "3-1194 Yunoura, Ashikita, Ashikita District, Kumamoto 869-5563, Japan",
      "place_id": "ChIJUdZ6H4WZPzUR7gLg5omadGk"
    }
  }
}
